{
  "stateId": 972062,
  "stateCode": "ZA-KZN",
  "countryCode": "ZA",
  "cities": [
    {
      "id": 8347345,
      "name": "Amajuba District Municipality",
      "nativeName": "Amajuba District Municipality",
      "code": "ZA-KZN-8347345",
      "countryId": 953987,
      "countryCode": "ZA",
      "stateCode": "ZA-KZN",
      "latitude": -27.73558,
      "longitude": 30.13537
    },
    {
      "id": 8347378,
      "name": "Sisonke District Municipality",
      "nativeName": "Sisonke District Municipality",
      "code": "ZA-KZN-8347378",
      "countryId": 953987,
      "countryCode": "ZA",
      "stateCode": "ZA-KZN",
      "latitude": -30.11082,
      "longitude": 29.66009
    },
    {
      "id": 8347363,
      "name": "Ugu District Municipality",
      "nativeName": "Ugu District Municipality",
      "code": "ZA-KZN-8347363",
      "countryId": 953987,
      "countryCode": "ZA",
      "stateCode": "ZA-KZN",
      "latitude": -30.54365,
      "longitude": 30.2748
    },
    {
      "id": 8347365,
      "name": "Uthukela District Municipality",
      "nativeName": "uThukela District Municipality",
      "code": "ZA-KZN-8347365",
      "countryId": 953987,
      "countryCode": "ZA",
      "stateCode": "ZA-KZN",
      "latitude": -28.7192,
      "longitude": 29.65799
    },
    {
      "id": 8347367,
      "name": "Zululand District Municipality",
      "nativeName": "Zululand District Municipality",
      "code": "ZA-KZN-8347367",
      "countryId": 953987,
      "countryCode": "ZA",
      "stateCode": "ZA-KZN",
      "latitude": -27.81139,
      "longitude": 31.29426
    },
    {
      "id": 8299474,
      "name": "eThekwini",
      "nativeName": "eThekwini Metropolitan Municipality",
      "code": "ZA-KZN-8299474",
      "countryId": 953987,
      "countryCode": "ZA",
      "stateCode": "ZA-KZN",
      "latitude": -29.8667,
      "longitude": 31.0167
    },
    {
      "id": 8347369,
      "name": "iLembe District Municipality",
      "nativeName": "iLembe District Municipality",
      "code": "ZA-KZN-8347369",
      "countryId": 953987,
      "countryCode": "ZA",
      "stateCode": "ZA-KZN",
      "latitude": -29.27326,
      "longitude": 31.14253
    },
    {
      "id": 8347364,
      "name": "uMgungundlovu District Municipality",
      "nativeName": "uMgungundlovu District Municipality",
      "code": "ZA-KZN-8347364",
      "countryId": 953987,
      "countryCode": "ZA",
      "stateCode": "ZA-KZN",
      "latitude": -29.50927,
      "longitude": 30.19838
    },
    {
      "id": 8347388,
      "name": "uMkhanyakude District Municipality",
      "nativeName": "uMkhanyakude District Municipality",
      "code": "ZA-KZN-8347388",
      "countryId": 953987,
      "countryCode": "ZA",
      "stateCode": "ZA-KZN",
      "latitude": -27.62236,
      "longitude": 32.32945
    },
    {
      "id": 8347366,
      "name": "uMzinyathi District Municipality",
      "nativeName": "uMzinyathi District Municipality",
      "code": "ZA-KZN-8347366",
      "countryId": 953987,
      "countryCode": "ZA",
      "stateCode": "ZA-KZN",
      "latitude": -28.5857,
      "longitude": 30.55883
    },
    {
      "id": 8347368,
      "name": "uThungulu District Municipality",
      "nativeName": "uThungulu District Municipality",
      "code": "ZA-KZN-8347368",
      "countryId": 953987,
      "countryCode": "ZA",
      "stateCode": "ZA-KZN",
      "latitude": -28.70046,
      "longitude": 31.51527
    }
  ]
}