{
  "stateId": 5879092,
  "stateCode": "US-AK",
  "countryCode": "US",
  "cities": [
    {
      "id": 5879166,
      "name": "Aleutians East",
      "nativeName": "Aleutians East Borough",
      "code": "US-AK-5879166",
      "countryId": 6252001,
      "countryCode": "US",
      "stateCode": "US-AK",
      "latitude": 54.85,
      "longitude": -163.41667
    },
    {
      "id": 5879164,
      "name": "Aleutians West",
      "nativeName": "Aleutians West Census Area",
      "code": "US-AK-5879164",
      "countryId": 6252001,
      "countryCode": "US",
      "stateCode": "US-AK",
      "latitude": 52.16298,
      "longitude": -174.28505
    },
    {
      "id": 5879348,
      "name": "Anchorage",
      "nativeName": "Anchorage Municipality",
      "code": "US-AK-5879348",
      "countryId": 6252001,
      "countryCode": "US",
      "stateCode": "US-AK",
      "latitude": 61.16667,
      "longitude": -149.25056
    },
    {
      "id": 5880573,
      "name": "Bethel",
      "nativeName": "Bethel Census Area",
      "code": "US-AK-5880573",
      "countryId": 6252001,
      "countryCode": "US",
      "stateCode": "US-AK",
      "latitude": 60.75056,
      "longitude": -160.50056
    },
    {
      "id": 5858042,
      "name": "Bristol Bay",
      "nativeName": "Bristol Bay Borough",
      "code": "US-AK-5858042",
      "countryId": 6252001,
      "countryCode": "US",
      "stateCode": "US-AK",
      "latitude": 58.75056,
      "longitude": -156.83333
    },
    {
      "id": 12261502,
      "name": "Chugach",
      "nativeName": "Chugach Census Area",
      "code": "US-AK-12261502",
      "countryId": 6252001,
      "countryCode": "US",
      "stateCode": "US-AK",
      "latitude": 61.16057,
      "longitude": -146.35885
    },
    {
      "id": 7117591,
      "name": "City and Borough of Wrangell",
      "nativeName": "City and Borough of Wrangell",
      "code": "US-AK-7117591",
      "countryId": 6252001,
      "countryCode": "US",
      "stateCode": "US-AK",
      "latitude": 56.41331,
      "longitude": -132.32009
    },
    {
      "id": 12261501,
      "name": "Copper River",
      "nativeName": "Copper River Census Area",
      "code": "US-AK-12261501",
      "countryId": 6252001,
      "countryCode": "US",
      "stateCode": "US-AK",
      "latitude": 62.03924,
      "longitude": -145.56966
    },
    {
      "id": 5860541,
      "name": "Denali",
      "nativeName": "Denali Borough",
      "code": "US-AK-5860541",
      "countryId": 6252001,
      "countryCode": "US",
      "stateCode": "US-AK",
      "latitude": 63.78889,
      "longitude": -150.19167
    },
    {
      "id": 5860696,
      "name": "Dillingham",
      "nativeName": "Dillingham Census Area",
      "code": "US-AK-5860696",
      "countryId": 6252001,
      "countryCode": "US",
      "stateCode": "US-AK",
      "latitude": 59.76193,
      "longitude": -158.31848
    },
    {
      "id": 5861900,
      "name": "Fairbanks North Star",
      "nativeName": "Fairbanks North Star Borough",
      "code": "US-AK-5861900",
      "countryId": 6252001,
      "countryCode": "US",
      "stateCode": "US-AK",
      "latitude": 64.83333,
      "longitude": -146.41667
    },
    {
      "id": 5846893,
      "name": "Haines",
      "nativeName": "Haines Borough",
      "code": "US-AK-5846893",
      "countryId": 6252001,
      "countryCode": "US",
      "stateCode": "US-AK",
      "latitude": 59.25056,
      "longitude": -135.50056
    },
    {
      "id": 7117568,
      "name": "Hoonah-Angoon",
      "nativeName": "Hoonah-Angoon Census Area",
      "code": "US-AK-7117568",
      "countryId": 6252001,
      "countryCode": "US",
      "stateCode": "US-AK",
      "latitude": 57.94807,
      "longitude": -134.94153
    },
    {
      "id": 5554074,
      "name": "Juneau Borough",
      "nativeName": "Juneau City and Borough",
      "code": "US-AK-5554074",
      "countryId": 6252001,
      "countryCode": "US",
      "stateCode": "US-AK",
      "latitude": 58.41667,
      "longitude": -134.33333
    },
    {
      "id": 5866071,
      "name": "Kenai Peninsula",
      "nativeName": "Kenai Peninsula Borough",
      "code": "US-AK-5866071",
      "countryId": 6252001,
      "countryCode": "US",
      "stateCode": "US-AK",
      "latitude": 60.41667,
      "longitude": -151.25056
    },
    {
      "id": 5554432,
      "name": "Ketchikan Gateway",
      "nativeName": "Ketchikan Gateway Borough",
      "code": "US-AK-5554432",
      "countryId": 6252001,
      "countryCode": "US",
      "stateCode": "US-AK",
      "latitude": 55.50056,
      "longitude": -131.41667
    },
    {
      "id": 5866574,
      "name": "Kodiak Island",
      "nativeName": "Kodiak Island Borough",
      "code": "US-AK-5866574",
      "countryId": 6252001,
      "countryCode": "US",
      "stateCode": "US-AK",
      "latitude": 57.33333,
      "longitude": -153.33333
    },
    {
      "id": 11550056,
      "name": "Kusilvak",
      "nativeName": "Kusilvak Census Area",
      "code": "US-AK-11550056",
      "countryId": 6252001,
      "countryCode": "US",
      "stateCode": "US-AK",
      "latitude": 61.99059,
      "longitude": -164.55322
    },
    {
      "id": 5867113,
      "name": "Lake and Peninsula",
      "nativeName": "Lake and Peninsula Borough",
      "code": "US-AK-5867113",
      "countryId": 6252001,
      "countryCode": "US",
      "stateCode": "US-AK",
      "latitude": 57.00056,
      "longitude": -158.00056
    },
    {
      "id": 5868437,
      "name": "Matanuska-Susitna",
      "nativeName": "Matanuska-Susitna Borough",
      "code": "US-AK-5868437",
      "countryId": 6252001,
      "countryCode": "US",
      "stateCode": "US-AK",
      "latitude": 62.50056,
      "longitude": -150.00556
    },
    {
      "id": 5870134,
      "name": "Nome",
      "nativeName": "Nome Census Area",
      "code": "US-AK-5870134",
      "countryId": 6252001,
      "countryCode": "US",
      "stateCode": "US-AK",
      "latitude": 64.83333,
      "longitude": -163.75056
    },
    {
      "id": 5870308,
      "name": "North Slope",
      "nativeName": "North Slope Borough",
      "code": "US-AK-5870308",
      "countryId": 6252001,
      "countryCode": "US",
      "stateCode": "US-AK",
      "latitude": 69.25056,
      "longitude": -152.00056
    },
    {
      "id": 5870351,
      "name": "Northwest Arctic",
      "nativeName": "Northwest Arctic Borough",
      "code": "US-AK-5870351",
      "countryId": 6252001,
      "countryCode": "US",
      "stateCode": "US-AK",
      "latitude": 66.83333,
      "longitude": -161.00056
    },
    {
      "id": 7117732,
      "name": "Petersburg",
      "nativeName": "Petersburg Borough",
      "code": "US-AK-7117732",
      "countryId": 6252001,
      "countryCode": "US",
      "stateCode": "US-AK",
      "latitude": 56.76529,
      "longitude": -133.19313
    },
    {
      "id": 11550055,
      "name": "Prince of Wales-Hyder",
      "nativeName": "Prince of Wales-Hyder Census Area",
      "code": "US-AK-11550055",
      "countryId": 6252001,
      "countryCode": "US",
      "stateCode": "US-AK",
      "latitude": 55.59697,
      "longitude": -132.80273
    },
    {
      "id": 5557295,
      "name": "Sitka City and",
      "nativeName": "Sitka City and Borough",
      "code": "US-AK-5557295",
      "countryId": 6252001,
      "countryCode": "US",
      "stateCode": "US-AK",
      "latitude": 57.08255,
      "longitude": -135.26917
    },
    {
      "id": 7117565,
      "name": "Skagway",
      "nativeName": "Skagway Municipality",
      "code": "US-AK-7117565",
      "countryId": 6252001,
      "countryCode": "US",
      "stateCode": "US-AK",
      "latitude": 59.46852,
      "longitude": -135.30596
    },
    {
      "id": 5874863,
      "name": "Southeast Fairbanks",
      "nativeName": "Southeast Fairbanks Census Area",
      "code": "US-AK-5874863",
      "countryId": 6252001,
      "countryCode": "US",
      "stateCode": "US-AK",
      "latitude": 63.75056,
      "longitude": -143.25056
    },
    {
      "id": 5558618,
      "name": "Yakutat City and",
      "nativeName": "Yakutat City and Borough",
      "code": "US-AK-5558618",
      "countryId": 6252001,
      "countryCode": "US",
      "stateCode": "US-AK",
      "latitude": 59.66667,
      "longitude": -139.13333
    },
    {
      "id": 5878558,
      "name": "Yukon-Koyukuk",
      "nativeName": "Yukon-Koyukuk Census Area",
      "code": "US-AK-5878558",
      "countryId": 6252001,
      "countryCode": "US",
      "stateCode": "US-AK",
      "latitude": 65.7,
      "longitude": -152.71667
    }
  ]
}