{
  "stateId": 4099753,
  "stateCode": "US-AR",
  "countryCode": "US",
  "cities": [
    {
      "id": 4099679,
      "name": "Arkansas",
      "nativeName": "Arkansas County",
      "code": "US-AR-4099679",
      "countryId": 6252001,
      "countryCode": "US",
      "stateCode": "US-AR",
      "latitude": 34.29081,
      "longitude": -91.37491
    },
    {
      "id": 4099869,
      "name": "Ashley",
      "nativeName": "Ashley County",
      "code": "US-AR-4099869",
      "countryId": 6252001,
      "countryCode": "US",
      "stateCode": "US-AR",
      "latitude": 33.19122,
      "longitude": -91.76845
    },
    {
      "id": 4100581,
      "name": "Baxter",
      "nativeName": "Baxter County",
      "code": "US-AR-4100581",
      "countryId": 6252001,
      "countryCode": "US",
      "stateCode": "US-AR",
      "latitude": 36.28719,
      "longitude": -92.33697
    },
    {
      "id": 4101244,
      "name": "Benton",
      "nativeName": "Benton County",
      "code": "US-AR-4101244",
      "countryId": 6252001,
      "countryCode": "US",
      "stateCode": "US-AR",
      "latitude": 36.33872,
      "longitude": -94.25619
    },
    {
      "id": 4102608,
      "name": "Boone",
      "nativeName": "Boone County",
      "code": "US-AR-4102608",
      "countryId": 6252001,
      "countryCode": "US",
      "stateCode": "US-AR",
      "latitude": 36.30859,
      "longitude": -93.0915
    },
    {
      "id": 4102799,
      "name": "Bradley",
      "nativeName": "Bradley County",
      "code": "US-AR-4102799",
      "countryId": 6252001,
      "countryCode": "US",
      "stateCode": "US-AR",
      "latitude": 33.46642,
      "longitude": -92.1624
    },
    {
      "id": 4104063,
      "name": "Calhoun",
      "nativeName": "Calhoun County",
      "code": "US-AR-4104063",
      "countryId": 6252001,
      "countryCode": "US",
      "stateCode": "US-AR",
      "latitude": 33.55803,
      "longitude": -92.50304
    },
    {
      "id": 4104658,
      "name": "Carroll",
      "nativeName": "Carroll County",
      "code": "US-AR-4104658",
      "countryId": 6252001,
      "countryCode": "US",
      "stateCode": "US-AR",
      "latitude": 36.34102,
      "longitude": -93.53818
    },
    {
      "id": 4105506,
      "name": "Chicot",
      "nativeName": "Chicot County",
      "code": "US-AR-4105506",
      "countryId": 6252001,
      "countryCode": "US",
      "stateCode": "US-AR",
      "latitude": 33.26725,
      "longitude": -91.29397
    },
    {
      "id": 4105838,
      "name": "Clark",
      "nativeName": "Clark County",
      "code": "US-AR-4105838",
      "countryId": 6252001,
      "countryCode": "US",
      "stateCode": "US-AR",
      "latitude": 34.05096,
      "longitude": -93.17637
    },
    {
      "id": 4105899,
      "name": "Clay",
      "nativeName": "Clay County",
      "code": "US-AR-4105899",
      "countryId": 6252001,
      "countryCode": "US",
      "stateCode": "US-AR",
      "latitude": 36.36839,
      "longitude": -90.41738
    },
    {
      "id": 4106009,
      "name": "Cleburne",
      "nativeName": "Cleburne County",
      "code": "US-AR-4106009",
      "countryId": 6252001,
      "countryCode": "US",
      "stateCode": "US-AR",
      "latitude": 35.53811,
      "longitude": -92.02674
    },
    {
      "id": 4106032,
      "name": "Cleveland",
      "nativeName": "Cleveland County",
      "code": "US-AR-4106032",
      "countryId": 6252001,
      "countryCode": "US",
      "stateCode": "US-AR",
      "latitude": 33.89836,
      "longitude": -92.18514
    },
    {
      "id": 4106339,
      "name": "Columbia",
      "nativeName": "Columbia County",
      "code": "US-AR-4106339",
      "countryId": 6252001,
      "countryCode": "US",
      "stateCode": "US-AR",
      "latitude": 33.21429,
      "longitude": -93.22731
    },
    {
      "id": 4106460,
      "name": "Conway",
      "nativeName": "Conway County",
      "code": "US-AR-4106460",
      "countryId": 6252001,
      "countryCode": "US",
      "stateCode": "US-AR",
      "latitude": 35.26221,
      "longitude": -92.70132
    },
    {
      "id": 4106979,
      "name": "Craighead",
      "nativeName": "Craighead County",
      "code": "US-AR-4106979",
      "countryId": 6252001,
      "countryCode": "US",
      "stateCode": "US-AR",
      "latitude": 35.83079,
      "longitude": -90.63285
    },
    {
      "id": 4107027,
      "name": "Crawford",
      "nativeName": "Crawford County",
      "code": "US-AR-4107027",
      "countryId": 6252001,
      "countryCode": "US",
      "stateCode": "US-AR",
      "latitude": 35.58883,
      "longitude": -94.24312
    },
    {
      "id": 4107079,
      "name": "Crittenden",
      "nativeName": "Crittenden County",
      "code": "US-AR-4107079",
      "countryId": 6252001,
      "countryCode": "US",
      "stateCode": "US-AR",
      "latitude": 35.20794,
      "longitude": -90.30886
    },
    {
      "id": 4107139,
      "name": "Cross",
      "nativeName": "Cross County",
      "code": "US-AR-4107139",
      "countryId": 6252001,
      "countryCode": "US",
      "stateCode": "US-AR",
      "latitude": 35.29573,
      "longitude": -90.77123
    },
    {
      "id": 4107572,
      "name": "Dallas",
      "nativeName": "Dallas County",
      "code": "US-AR-4107572",
      "countryId": 6252001,
      "countryCode": "US",
      "stateCode": "US-AR",
      "latitude": 33.96983,
      "longitude": -92.65444
    },
    {
      "id": 4108100,
      "name": "Desha",
      "nativeName": "Desha County",
      "code": "US-AR-4108100",
      "countryId": 6252001,
      "countryCode": "US",
      "stateCode": "US-AR",
      "latitude": 33.83333,
      "longitude": -91.25395
    },
    {
      "id": 4108996,
      "name": "Drew",
      "nativeName": "Drew County",
      "code": "US-AR-4108996",
      "countryId": 6252001,
      "countryCode": "US",
      "stateCode": "US-AR",
      "latitude": 33.58945,
      "longitude": -91.72002
    },
    {
      "id": 4110465,
      "name": "Faulkner",
      "nativeName": "Faulkner County",
      "code": "US-AR-4110465",
      "countryId": 6252001,
      "countryCode": "US",
      "stateCode": "US-AR",
      "latitude": 35.14698,
      "longitude": -92.33204
    },
    {
      "id": 4111593,
      "name": "Franklin",
      "nativeName": "Franklin County",
      "code": "US-AR-4111593",
      "countryId": 6252001,
      "countryCode": "US",
      "stateCode": "US-AR",
      "latitude": 35.51235,
      "longitude": -93.89062
    },
    {
      "id": 4111857,
      "name": "Fulton",
      "nativeName": "Fulton County",
      "code": "US-AR-4111857",
      "countryId": 6252001,
      "countryCode": "US",
      "stateCode": "US-AR",
      "latitude": 36.38167,
      "longitude": -91.81824
    },
    {
      "id": 4112045,
      "name": "Garland",
      "nativeName": "Garland County",
      "code": "US-AR-4112045",
      "countryId": 6252001,
      "countryCode": "US",
      "stateCode": "US-AR",
      "latitude": 34.57669,
      "longitude": -93.15043
    },
    {
      "id": 4112780,
      "name": "Grant",
      "nativeName": "Grant County",
      "code": "US-AR-4112780",
      "countryId": 6252001,
      "countryCode": "US",
      "stateCode": "US-AR",
      "latitude": 34.29002,
      "longitude": -92.42358
    },
    {
      "id": 4113088,
      "name": "Greene",
      "nativeName": "Greene County",
      "code": "US-AR-4113088",
      "countryId": 6252001,
      "countryCode": "US",
      "stateCode": "US-AR",
      "latitude": 36.11769,
      "longitude": -90.55908
    },
    {
      "id": 4114303,
      "name": "Hempstead",
      "nativeName": "Hempstead County",
      "code": "US-AR-4114303",
      "countryId": 6252001,
      "countryCode": "US",
      "stateCode": "US-AR",
      "latitude": 33.7353,
      "longitude": -93.66844
    },
    {
      "id": 4115406,
      "name": "Hot Spring",
      "nativeName": "Hot Spring County",
      "code": "US-AR-4115406",
      "countryId": 6252001,
      "countryCode": "US",
      "stateCode": "US-AR",
      "latitude": 34.31763,
      "longitude": -92.94601
    },
    {
      "id": 4115463,
      "name": "Howard",
      "nativeName": "Howard County",
      "code": "US-AR-4115463",
      "countryId": 6252001,
      "countryCode": "US",
      "stateCode": "US-AR",
      "latitude": 34.08874,
      "longitude": -93.99349
    },
    {
      "id": 4115832,
      "name": "Independence",
      "nativeName": "Independence County",
      "code": "US-AR-4115832",
      "countryId": 6252001,
      "countryCode": "US",
      "stateCode": "US-AR",
      "latitude": 35.74158,
      "longitude": -91.56972
    },
    {
      "id": 4116178,
      "name": "Izard",
      "nativeName": "Izard County",
      "code": "US-AR-4116178",
      "countryId": 6252001,
      "countryCode": "US",
      "stateCode": "US-AR",
      "latitude": 36.09487,
      "longitude": -91.91342
    },
    {
      "id": 4116263,
      "name": "Jackson",
      "nativeName": "Jackson County",
      "code": "US-AR-4116263",
      "countryId": 6252001,
      "countryCode": "US",
      "stateCode": "US-AR",
      "latitude": 35.59923,
      "longitude": -91.21457
    },
    {
      "id": 4116433,
      "name": "Jefferson",
      "nativeName": "Jefferson County",
      "code": "US-AR-4116433",
      "countryId": 6252001,
      "countryCode": "US",
      "stateCode": "US-AR",
      "latitude": 34.26879,
      "longitude": -91.93151
    },
    {
      "id": 4116689,
      "name": "Johnson",
      "nativeName": "Johnson County",
      "code": "US-AR-4116689",
      "countryId": 6252001,
      "countryCode": "US",
      "stateCode": "US-AR",
      "latitude": 35.57005,
      "longitude": -93.45991
    },
    {
      "id": 4117774,
      "name": "Lafayette",
      "nativeName": "Lafayette County",
      "code": "US-AR-4117774",
      "countryId": 6252001,
      "countryCode": "US",
      "stateCode": "US-AR",
      "latitude": 33.24098,
      "longitude": -93.60704
    },
    {
      "id": 4118467,
      "name": "Lawrence",
      "nativeName": "Lawrence County",
      "code": "US-AR-4118467",
      "countryId": 6252001,
      "countryCode": "US",
      "stateCode": "US-AR",
      "latitude": 36.04125,
      "longitude": -91.10708
    },
    {
      "id": 4118578,
      "name": "Lee",
      "nativeName": "Lee County",
      "code": "US-AR-4118578",
      "countryId": 6252001,
      "countryCode": "US",
      "stateCode": "US-AR",
      "latitude": 34.78062,
      "longitude": -90.78207
    },
    {
      "id": 4118984,
      "name": "Lincoln",
      "nativeName": "Lincoln County",
      "code": "US-AR-4118984",
      "countryId": 6252001,
      "countryCode": "US",
      "stateCode": "US-AR",
      "latitude": 33.95747,
      "longitude": -91.73332
    },
    {
      "id": 4119374,
      "name": "Little River",
      "nativeName": "Little River County",
      "code": "US-AR-4119374",
      "countryId": 6252001,
      "countryCode": "US",
      "stateCode": "US-AR",
      "latitude": 33.70054,
      "longitude": -94.23434
    },
    {
      "id": 4119581,
      "name": "Logan",
      "nativeName": "Logan County",
      "code": "US-AR-4119581",
      "countryId": 6252001,
      "countryCode": "US",
      "stateCode": "US-AR",
      "latitude": 35.21527,
      "longitude": -93.71631
    },
    {
      "id": 4119825,
      "name": "Lonoke",
      "nativeName": "Lonoke County",
      "code": "US-AR-4119825",
      "countryId": 6252001,
      "countryCode": "US",
      "stateCode": "US-AR",
      "latitude": 34.75427,
      "longitude": -91.88867
    },
    {
      "id": 4120275,
      "name": "Madison",
      "nativeName": "Madison County",
      "code": "US-AR-4120275",
      "countryId": 6252001,
      "countryCode": "US",
      "stateCode": "US-AR",
      "latitude": 36.01096,
      "longitude": -93.72456
    },
    {
      "id": 4120525,
      "name": "Marion",
      "nativeName": "Marion County",
      "code": "US-AR-4120525",
      "countryId": 6252001,
      "countryCode": "US",
      "stateCode": "US-AR",
      "latitude": 36.26835,
      "longitude": -92.68422
    },
    {
      "id": 4121680,
      "name": "Miller",
      "nativeName": "Miller County",
      "code": "US-AR-4121680",
      "countryId": 6252001,
      "countryCode": "US",
      "stateCode": "US-AR",
      "latitude": 33.31215,
      "longitude": -93.89156
    },
    {
      "id": 4121839,
      "name": "Mississippi",
      "nativeName": "Mississippi County",
      "code": "US-AR-4121839",
      "countryId": 6252001,
      "countryCode": "US",
      "stateCode": "US-AR",
      "latitude": 35.7639,
      "longitude": -90.05417
    },
    {
      "id": 4121968,
      "name": "Monroe",
      "nativeName": "Monroe County",
      "code": "US-AR-4121968",
      "countryId": 6252001,
      "countryCode": "US",
      "stateCode": "US-AR",
      "latitude": 34.67784,
      "longitude": -91.20389
    },
    {
      "id": 4121992,
      "name": "Montgomery",
      "nativeName": "Montgomery County",
      "code": "US-AR-4121992",
      "countryId": 6252001,
      "countryCode": "US",
      "stateCode": "US-AR",
      "latitude": 34.53879,
      "longitude": -93.65953
    },
    {
      "id": 4123415,
      "name": "Nevada",
      "nativeName": "Nevada County",
      "code": "US-AR-4123415",
      "countryId": 6252001,
      "countryCode": "US",
      "stateCode": "US-AR",
      "latitude": 33.66397,
      "longitude": -93.30714
    },
    {
      "id": 4123857,
      "name": "Newton",
      "nativeName": "Newton County",
      "code": "US-AR-4123857",
      "countryId": 6252001,
      "countryCode": "US",
      "stateCode": "US-AR",
      "latitude": 35.91997,
      "longitude": -93.21787
    },
    {
      "id": 4125059,
      "name": "Ouachita",
      "nativeName": "Ouachita County",
      "code": "US-AR-4125059",
      "countryId": 6252001,
      "countryCode": "US",
      "stateCode": "US-AR",
      "latitude": 33.59336,
      "longitude": -92.88193
    },
    {
      "id": 4125858,
      "name": "Perry",
      "nativeName": "Perry County",
      "code": "US-AR-4125858",
      "countryId": 6252001,
      "countryCode": "US",
      "stateCode": "US-AR",
      "latitude": 34.94737,
      "longitude": -92.93147
    },
    {
      "id": 4126012,
      "name": "Phillips",
      "nativeName": "Phillips County",
      "code": "US-AR-4126012",
      "countryId": 6252001,
      "countryCode": "US",
      "stateCode": "US-AR",
      "latitude": 34.42829,
      "longitude": -90.84802
    },
    {
      "id": 4126123,
      "name": "Pike",
      "nativeName": "Pike County",
      "code": "US-AR-4126123",
      "countryId": 6252001,
      "countryCode": "US",
      "stateCode": "US-AR",
      "latitude": 34.1635,
      "longitude": -93.65634
    },
    {
      "id": 4126942,
      "name": "Poinsett",
      "nativeName": "Poinsett County",
      "code": "US-AR-4126942",
      "countryId": 6252001,
      "countryCode": "US",
      "stateCode": "US-AR",
      "latitude": 35.57404,
      "longitude": -90.66293
    },
    {
      "id": 4127017,
      "name": "Polk",
      "nativeName": "Polk County",
      "code": "US-AR-4127017",
      "countryId": 6252001,
      "countryCode": "US",
      "stateCode": "US-AR",
      "latitude": 34.48584,
      "longitude": -94.22807
    },
    {
      "id": 4127100,
      "name": "Pope",
      "nativeName": "Pope County",
      "code": "US-AR-4127100",
      "countryId": 6252001,
      "countryCode": "US",
      "stateCode": "US-AR",
      "latitude": 35.44763,
      "longitude": -93.03416
    },
    {
      "id": 4127330,
      "name": "Prairie",
      "nativeName": "Prairie County",
      "code": "US-AR-4127330",
      "countryId": 6252001,
      "countryCode": "US",
      "stateCode": "US-AR",
      "latitude": 34.82979,
      "longitude": -91.55277
    },
    {
      "id": 4127619,
      "name": "Pulaski",
      "nativeName": "Pulaski County",
      "code": "US-AR-4127619",
      "countryId": 6252001,
      "countryCode": "US",
      "stateCode": "US-AR",
      "latitude": 34.76993,
      "longitude": -92.3118
    },
    {
      "id": 4127846,
      "name": "Randolph",
      "nativeName": "Randolph County",
      "code": "US-AR-4127846",
      "countryId": 6252001,
      "countryCode": "US",
      "stateCode": "US-AR",
      "latitude": 36.34148,
      "longitude": -91.02772
    },
    {
      "id": 4129533,
      "name": "Saint Francis",
      "nativeName": "St. Francis County",
      "code": "US-AR-4129533",
      "countryId": 6252001,
      "countryCode": "US",
      "stateCode": "US-AR",
      "latitude": 35.022,
      "longitude": -90.74778
    },
    {
      "id": 4130035,
      "name": "Saline",
      "nativeName": "Saline County",
      "code": "US-AR-4130035",
      "countryId": 6252001,
      "countryCode": "US",
      "stateCode": "US-AR",
      "latitude": 34.64662,
      "longitude": -92.67657
    },
    {
      "id": 4130373,
      "name": "Scott",
      "nativeName": "Scott County",
      "code": "US-AR-4130373",
      "countryId": 6252001,
      "countryCode": "US",
      "stateCode": "US-AR",
      "latitude": 34.86077,
      "longitude": -94.06325
    },
    {
      "id": 4130432,
      "name": "Searcy",
      "nativeName": "Searcy County",
      "code": "US-AR-4130432",
      "countryId": 6252001,
      "countryCode": "US",
      "stateCode": "US-AR",
      "latitude": 35.9109,
      "longitude": -92.69949
    },
    {
      "id": 4130449,
      "name": "Sebastian",
      "nativeName": "Sebastian County",
      "code": "US-AR-4130449",
      "countryId": 6252001,
      "countryCode": "US",
      "stateCode": "US-AR",
      "latitude": 35.19926,
      "longitude": -94.27391
    },
    {
      "id": 4130562,
      "name": "Sevier",
      "nativeName": "Sevier County",
      "code": "US-AR-4130562",
      "countryId": 6252001,
      "countryCode": "US",
      "stateCode": "US-AR",
      "latitude": 33.9972,
      "longitude": -94.24122
    },
    {
      "id": 4130730,
      "name": "Sharp",
      "nativeName": "Sharp County",
      "code": "US-AR-4130730",
      "countryId": 6252001,
      "countryCode": "US",
      "stateCode": "US-AR",
      "latitude": 36.16116,
      "longitude": -91.47986
    },
    {
      "id": 4132456,
      "name": "Stone",
      "nativeName": "Stone County",
      "code": "US-AR-4132456",
      "countryId": 6252001,
      "countryCode": "US",
      "stateCode": "US-AR",
      "latitude": 35.85987,
      "longitude": -92.15668
    },
    {
      "id": 4134330,
      "name": "Union",
      "nativeName": "Union County",
      "code": "US-AR-4134330",
      "countryId": 6252001,
      "countryCode": "US",
      "stateCode": "US-AR",
      "latitude": 33.17136,
      "longitude": -92.59729
    },
    {
      "id": 4134690,
      "name": "Van Buren",
      "nativeName": "Van Buren County",
      "code": "US-AR-4134690",
      "countryId": 6252001,
      "countryCode": "US",
      "stateCode": "US-AR",
      "latitude": 35.58065,
      "longitude": -92.5157
    },
    {
      "id": 4135394,
      "name": "Washington",
      "nativeName": "Washington County",
      "code": "US-AR-4135394",
      "countryId": 6252001,
      "countryCode": "US",
      "stateCode": "US-AR",
      "latitude": 35.97907,
      "longitude": -94.21558
    },
    {
      "id": 4136143,
      "name": "White",
      "nativeName": "White County",
      "code": "US-AR-4136143",
      "countryId": 6252001,
      "countryCode": "US",
      "stateCode": "US-AR",
      "latitude": 35.25627,
      "longitude": -91.74555
    },
    {
      "id": 4137047,
      "name": "Woodruff",
      "nativeName": "Woodruff County",
      "code": "US-AR-4137047",
      "countryId": 6252001,
      "countryCode": "US",
      "stateCode": "US-AR",
      "latitude": 35.18633,
      "longitude": -91.24307
    },
    {
      "id": 4137268,
      "name": "Yell",
      "nativeName": "Yell County",
      "code": "US-AR-4137268",
      "countryId": 6252001,
      "countryCode": "US",
      "stateCode": "US-AR",
      "latitude": 35.0026,
      "longitude": -93.41125
    }
  ]
}