{
  "stateId": 5037779,
  "stateCode": "US-MN",
  "countryCode": "US",
  "cities": [
    {
      "id": 5015979,
      "name": "Aitkin",
      "nativeName": "Aitkin County",
      "code": "US-MN-5015979",
      "countryId": 6252001,
      "countryCode": "US",
      "stateCode": "US-MN",
      "latitude": 46.60826,
      "longitude": -93.41543
    },
    {
      "id": 5016452,
      "name": "Anoka",
      "nativeName": "Anoka County",
      "code": "US-MN-5016452",
      "countryId": 6252001,
      "countryCode": "US",
      "stateCode": "US-MN",
      "latitude": 45.27324,
      "longitude": -93.24645
    },
    {
      "id": 5017670,
      "name": "Becker",
      "nativeName": "Becker County",
      "code": "US-MN-5017670",
      "countryId": 6252001,
      "countryCode": "US",
      "stateCode": "US-MN",
      "latitude": 46.93465,
      "longitude": -95.67392
    },
    {
      "id": 5017805,
      "name": "Beltrami",
      "nativeName": "Beltrami County",
      "code": "US-MN-5017805",
      "countryId": 6252001,
      "countryCode": "US",
      "stateCode": "US-MN",
      "latitude": 47.97378,
      "longitude": -94.93765
    },
    {
      "id": 5017916,
      "name": "Benton",
      "nativeName": "Benton County",
      "code": "US-MN-5017916",
      "countryId": 6252001,
      "countryCode": "US",
      "stateCode": "US-MN",
      "latitude": 45.69913,
      "longitude": -93.99884
    },
    {
      "id": 5018364,
      "name": "Big Stone",
      "nativeName": "Big Stone County",
      "code": "US-MN-5018364",
      "countryId": 6252001,
      "countryCode": "US",
      "stateCode": "US-MN",
      "latitude": 45.4261,
      "longitude": -96.41092
    },
    {
      "id": 5018756,
      "name": "Blue Earth",
      "nativeName": "Blue Earth County",
      "code": "US-MN-5018756",
      "countryId": 6252001,
      "countryCode": "US",
      "stateCode": "US-MN",
      "latitude": 44.03459,
      "longitude": -94.06703
    },
    {
      "id": 5019385,
      "name": "Brown",
      "nativeName": "Brown County",
      "code": "US-MN-5019385",
      "countryId": 6252001,
      "countryCode": "US",
      "stateCode": "US-MN",
      "latitude": 44.24217,
      "longitude": -94.72748
    },
    {
      "id": 5020429,
      "name": "Carlton",
      "nativeName": "Carlton County",
      "code": "US-MN-5020429",
      "countryId": 6252001,
      "countryCode": "US",
      "stateCode": "US-MN",
      "latitude": 46.5924,
      "longitude": -92.67705
    },
    {
      "id": 5020499,
      "name": "Carver",
      "nativeName": "Carver County",
      "code": "US-MN-5020499",
      "countryId": 6252001,
      "countryCode": "US",
      "stateCode": "US-MN",
      "latitude": 44.82076,
      "longitude": -93.80258
    },
    {
      "id": 5020546,
      "name": "Cass",
      "nativeName": "Cass County",
      "code": "US-MN-5020546",
      "countryId": 6252001,
      "countryCode": "US",
      "stateCode": "US-MN",
      "latitude": 46.94959,
      "longitude": -94.32535
    },
    {
      "id": 5021038,
      "name": "Chippewa",
      "nativeName": "Chippewa County",
      "code": "US-MN-5021038",
      "countryId": 6252001,
      "countryCode": "US",
      "stateCode": "US-MN",
      "latitude": 45.02234,
      "longitude": -95.56669
    },
    {
      "id": 5021070,
      "name": "Chisago",
      "nativeName": "Chisago County",
      "code": "US-MN-5021070",
      "countryId": 6252001,
      "countryCode": "US",
      "stateCode": "US-MN",
      "latitude": 45.50247,
      "longitude": -92.90834
    },
    {
      "id": 5021444,
      "name": "Clay",
      "nativeName": "Clay County",
      "code": "US-MN-5021444",
      "countryId": 6252001,
      "countryCode": "US",
      "stateCode": "US-MN",
      "latitude": 46.89234,
      "longitude": -96.49065
    },
    {
      "id": 5021535,
      "name": "Clearwater",
      "nativeName": "Clearwater County",
      "code": "US-MN-5021535",
      "countryId": 6252001,
      "countryCode": "US",
      "stateCode": "US-MN",
      "latitude": 47.57766,
      "longitude": -95.37903
    },
    {
      "id": 5021977,
      "name": "Cook",
      "nativeName": "Cook County",
      "code": "US-MN-5021977",
      "countryId": 6252001,
      "countryCode": "US",
      "stateCode": "US-MN",
      "latitude": 47.81684,
      "longitude": -90.54108
    },
    {
      "id": 5022154,
      "name": "Cottonwood",
      "nativeName": "Cottonwood County",
      "code": "US-MN-5022154",
      "countryId": 6252001,
      "countryCode": "US",
      "stateCode": "US-MN",
      "latitude": 44.00711,
      "longitude": -95.18115
    },
    {
      "id": 5023545,
      "name": "Crow Wing",
      "nativeName": "Crow Wing County",
      "code": "US-MN-5023545",
      "countryId": 6252001,
      "countryCode": "US",
      "stateCode": "US-MN",
      "latitude": 46.48237,
      "longitude": -94.07087
    },
    {
      "id": 5023752,
      "name": "Dakota",
      "nativeName": "Dakota County",
      "code": "US-MN-5023752",
      "countryId": 6252001,
      "countryCode": "US",
      "stateCode": "US-MN",
      "latitude": 44.67189,
      "longitude": -93.06544
    },
    {
      "id": 5024432,
      "name": "Dodge",
      "nativeName": "Dodge County",
      "code": "US-MN-5024432",
      "countryId": 6252001,
      "countryCode": "US",
      "stateCode": "US-MN",
      "latitude": 44.02259,
      "longitude": -92.86205
    },
    {
      "id": 5024544,
      "name": "Douglas",
      "nativeName": "Douglas County",
      "code": "US-MN-5024544",
      "countryId": 6252001,
      "countryCode": "US",
      "stateCode": "US-MN",
      "latitude": 45.93372,
      "longitude": -95.45352
    },
    {
      "id": 5026292,
      "name": "Faribault",
      "nativeName": "Faribault County",
      "code": "US-MN-5026292",
      "countryId": 6252001,
      "countryCode": "US",
      "stateCode": "US-MN",
      "latitude": 43.67393,
      "longitude": -93.948
    },
    {
      "id": 5026478,
      "name": "Fillmore",
      "nativeName": "Fillmore County",
      "code": "US-MN-5026478",
      "countryId": 6252001,
      "countryCode": "US",
      "stateCode": "US-MN",
      "latitude": 43.674,
      "longitude": -92.09017
    },
    {
      "id": 5027399,
      "name": "Freeborn",
      "nativeName": "Freeborn County",
      "code": "US-MN-5027399",
      "countryId": 6252001,
      "countryCode": "US",
      "stateCode": "US-MN",
      "latitude": 43.67384,
      "longitude": -93.34882
    },
    {
      "id": 5028232,
      "name": "Goodhue",
      "nativeName": "Goodhue County",
      "code": "US-MN-5028232",
      "countryId": 6252001,
      "countryCode": "US",
      "stateCode": "US-MN",
      "latitude": 44.40985,
      "longitude": -92.72259
    },
    {
      "id": 5028615,
      "name": "Grant",
      "nativeName": "Grant County",
      "code": "US-MN-5028615",
      "countryId": 6252001,
      "countryCode": "US",
      "stateCode": "US-MN",
      "latitude": 45.93405,
      "longitude": -96.01218
    },
    {
      "id": 5029877,
      "name": "Hennepin",
      "nativeName": "Hennepin County",
      "code": "US-MN-5029877",
      "countryId": 6252001,
      "countryCode": "US",
      "stateCode": "US-MN",
      "latitude": 45.00458,
      "longitude": -93.47688
    },
    {
      "id": 5030806,
      "name": "Houston",
      "nativeName": "Houston County",
      "code": "US-MN-5030806",
      "countryId": 6252001,
      "countryCode": "US",
      "stateCode": "US-MN",
      "latitude": 43.67144,
      "longitude": -91.49283
    },
    {
      "id": 5030862,
      "name": "Hubbard",
      "nativeName": "Hubbard County",
      "code": "US-MN-5030862",
      "countryId": 6252001,
      "countryCode": "US",
      "stateCode": "US-MN",
      "latitude": 47.10865,
      "longitude": -94.91664
    },
    {
      "id": 5031493,
      "name": "Isanti",
      "nativeName": "Isanti County",
      "code": "US-MN-5031493",
      "countryId": 6252001,
      "countryCode": "US",
      "stateCode": "US-MN",
      "latitude": 45.56149,
      "longitude": -93.29518
    },
    {
      "id": 5031616,
      "name": "Itasca",
      "nativeName": "Itasca County",
      "code": "US-MN-5031616",
      "countryId": 6252001,
      "countryCode": "US",
      "stateCode": "US-MN",
      "latitude": 47.50953,
      "longitude": -93.632
    },
    {
      "id": 5031682,
      "name": "Jackson",
      "nativeName": "Jackson County",
      "code": "US-MN-5031682",
      "countryId": 6252001,
      "countryCode": "US",
      "stateCode": "US-MN",
      "latitude": 43.67417,
      "longitude": -95.15411
    },
    {
      "id": 5032855,
      "name": "Kanabec",
      "nativeName": "Kanabec County",
      "code": "US-MN-5032855",
      "countryId": 6252001,
      "countryCode": "US",
      "stateCode": "US-MN",
      "latitude": 45.94522,
      "longitude": -93.29343
    },
    {
      "id": 5032867,
      "name": "Kandiyohi",
      "nativeName": "Kandiyohi County",
      "code": "US-MN-5032867",
      "countryId": 6252001,
      "countryCode": "US",
      "stateCode": "US-MN",
      "latitude": 45.15238,
      "longitude": -95.00474
    },
    {
      "id": 5033353,
      "name": "Kittson",
      "nativeName": "Kittson County",
      "code": "US-MN-5033353",
      "countryId": 6252001,
      "countryCode": "US",
      "stateCode": "US-MN",
      "latitude": 48.77663,
      "longitude": -96.78285
    },
    {
      "id": 5033463,
      "name": "Koochiching",
      "nativeName": "Koochiching County",
      "code": "US-MN-5033463",
      "countryId": 6252001,
      "countryCode": "US",
      "stateCode": "US-MN",
      "latitude": 48.24527,
      "longitude": -93.78337
    },
    {
      "id": 5033637,
      "name": "Lac qui Parle",
      "nativeName": "Lac qui Parle County",
      "code": "US-MN-5033637",
      "countryId": 6252001,
      "countryCode": "US",
      "stateCode": "US-MN",
      "latitude": 44.99549,
      "longitude": -96.17348
    },
    {
      "id": 5033738,
      "name": "Lake",
      "nativeName": "Lake County",
      "code": "US-MN-5033738",
      "countryId": 6252001,
      "countryCode": "US",
      "stateCode": "US-MN",
      "latitude": 47.52317,
      "longitude": -91.40885
    },
    {
      "id": 5033955,
      "name": "Lake of the Woods",
      "nativeName": "Lake of the Woods County",
      "code": "US-MN-5033955",
      "countryId": 6252001,
      "countryCode": "US",
      "stateCode": "US-MN",
      "latitude": 48.77051,
      "longitude": -94.90503
    },
    {
      "id": 5034327,
      "name": "Le Sueur",
      "nativeName": "Le Sueur County",
      "code": "US-MN-5034327",
      "countryId": 6252001,
      "countryCode": "US",
      "stateCode": "US-MN",
      "latitude": 44.37143,
      "longitude": -93.73008
    },
    {
      "id": 5034652,
      "name": "Lincoln",
      "nativeName": "Lincoln County",
      "code": "US-MN-5034652",
      "countryId": 6252001,
      "countryCode": "US",
      "stateCode": "US-MN",
      "latitude": 44.4126,
      "longitude": -96.26709
    },
    {
      "id": 5036131,
      "name": "Lyon",
      "nativeName": "Lyon County",
      "code": "US-MN-5036131",
      "countryId": 6252001,
      "countryCode": "US",
      "stateCode": "US-MN",
      "latitude": 44.41349,
      "longitude": -95.83897
    },
    {
      "id": 5036279,
      "name": "Mahnomen",
      "nativeName": "Mahnomen County",
      "code": "US-MN-5036279",
      "countryId": 6252001,
      "countryCode": "US",
      "stateCode": "US-MN",
      "latitude": 47.32524,
      "longitude": -95.80905
    },
    {
      "id": 5036734,
      "name": "Marshall",
      "nativeName": "Marshall County",
      "code": "US-MN-5036734",
      "countryId": 6252001,
      "countryCode": "US",
      "stateCode": "US-MN",
      "latitude": 48.35813,
      "longitude": -96.36847
    },
    {
      "id": 5036797,
      "name": "Martin",
      "nativeName": "Martin County",
      "code": "US-MN-5036797",
      "countryId": 6252001,
      "countryCode": "US",
      "stateCode": "US-MN",
      "latitude": 43.67436,
      "longitude": -94.55107
    },
    {
      "id": 5037083,
      "name": "McLeod",
      "nativeName": "McLeod County",
      "code": "US-MN-5037083",
      "countryId": 6252001,
      "countryCode": "US",
      "stateCode": "US-MN",
      "latitude": 44.82354,
      "longitude": -94.27242
    },
    {
      "id": 5037200,
      "name": "Meeker",
      "nativeName": "Meeker County",
      "code": "US-MN-5037200",
      "countryId": 6252001,
      "countryCode": "US",
      "stateCode": "US-MN",
      "latitude": 45.12312,
      "longitude": -94.52731
    },
    {
      "id": 5037515,
      "name": "Mille Lacs",
      "nativeName": "Mille Lacs County",
      "code": "US-MN-5037515",
      "countryId": 6252001,
      "countryCode": "US",
      "stateCode": "US-MN",
      "latitude": 45.93805,
      "longitude": -93.63009
    },
    {
      "id": 5038318,
      "name": "Morrison",
      "nativeName": "Morrison County",
      "code": "US-MN-5038318",
      "countryId": 6252001,
      "countryCode": "US",
      "stateCode": "US-MN",
      "latitude": 46.01262,
      "longitude": -94.26842
    },
    {
      "id": 5038458,
      "name": "Mower",
      "nativeName": "Mower County",
      "code": "US-MN-5038458",
      "countryId": 6252001,
      "countryCode": "US",
      "stateCode": "US-MN",
      "latitude": 43.67147,
      "longitude": -92.75251
    },
    {
      "id": 5038801,
      "name": "Murray",
      "nativeName": "Murray County",
      "code": "US-MN-5038801",
      "countryId": 6252001,
      "countryCode": "US",
      "stateCode": "US-MN",
      "latitude": 44.02212,
      "longitude": -95.76328
    },
    {
      "id": 5039249,
      "name": "Nicollet",
      "nativeName": "Nicollet County",
      "code": "US-MN-5039249",
      "countryId": 6252001,
      "countryCode": "US",
      "stateCode": "US-MN",
      "latitude": 44.34989,
      "longitude": -94.2473
    },
    {
      "id": 5039323,
      "name": "Nobles",
      "nativeName": "Nobles County",
      "code": "US-MN-5039323",
      "countryId": 6252001,
      "countryCode": "US",
      "stateCode": "US-MN",
      "latitude": 43.67424,
      "longitude": -95.75339
    },
    {
      "id": 5039381,
      "name": "Norman",
      "nativeName": "Norman County",
      "code": "US-MN-5039381",
      "countryId": 6252001,
      "countryCode": "US",
      "stateCode": "US-MN",
      "latitude": 47.32648,
      "longitude": -96.45528
    },
    {
      "id": 5040211,
      "name": "Olmsted",
      "nativeName": "Olmsted County",
      "code": "US-MN-5040211",
      "countryId": 6252001,
      "countryCode": "US",
      "stateCode": "US-MN",
      "latitude": 44.00375,
      "longitude": -92.40177
    },
    {
      "id": 5040515,
      "name": "Otter Tail",
      "nativeName": "Otter Tail County",
      "code": "US-MN-5040515",
      "countryId": 6252001,
      "countryCode": "US",
      "stateCode": "US-MN",
      "latitude": 46.4088,
      "longitude": -95.708
    },
    {
      "id": 5041121,
      "name": "Pennington",
      "nativeName": "Pennington County",
      "code": "US-MN-5041121",
      "countryId": 6252001,
      "countryCode": "US",
      "stateCode": "US-MN",
      "latitude": 48.06623,
      "longitude": -96.03667
    },
    {
      "id": 5041542,
      "name": "Pine",
      "nativeName": "Pine County",
      "code": "US-MN-5041542",
      "countryId": 6252001,
      "countryCode": "US",
      "stateCode": "US-MN",
      "latitude": 46.12077,
      "longitude": -92.74127
    },
    {
      "id": 5041756,
      "name": "Pipestone",
      "nativeName": "Pipestone County",
      "code": "US-MN-5041756",
      "countryId": 6252001,
      "countryCode": "US",
      "stateCode": "US-MN",
      "latitude": 44.023,
      "longitude": -96.25864
    },
    {
      "id": 5041970,
      "name": "Polk",
      "nativeName": "Polk County",
      "code": "US-MN-5041970",
      "countryId": 6252001,
      "countryCode": "US",
      "stateCode": "US-MN",
      "latitude": 47.77385,
      "longitude": -96.40181
    },
    {
      "id": 5042066,
      "name": "Pope",
      "nativeName": "Pope County",
      "code": "US-MN-5042066",
      "countryId": 6252001,
      "countryCode": "US",
      "stateCode": "US-MN",
      "latitude": 45.58602,
      "longitude": -95.44448
    },
    {
      "id": 5042563,
      "name": "Ramsey",
      "nativeName": "Ramsey County",
      "code": "US-MN-5042563",
      "countryId": 6252001,
      "countryCode": "US",
      "stateCode": "US-MN",
      "latitude": 45.01706,
      "longitude": -93.09961
    },
    {
      "id": 5042730,
      "name": "Red Lake",
      "nativeName": "Red Lake County",
      "code": "US-MN-5042730",
      "countryId": 6252001,
      "countryCode": "US",
      "stateCode": "US-MN",
      "latitude": 47.87169,
      "longitude": -96.0953
    },
    {
      "id": 5042847,
      "name": "Redwood",
      "nativeName": "Redwood County",
      "code": "US-MN-5042847",
      "countryId": 6252001,
      "countryCode": "US",
      "stateCode": "US-MN",
      "latitude": 44.40366,
      "longitude": -95.25383
    },
    {
      "id": 5042928,
      "name": "Renville",
      "nativeName": "Renville County",
      "code": "US-MN-5042928",
      "countryId": 6252001,
      "countryCode": "US",
      "stateCode": "US-MN",
      "latitude": 44.72681,
      "longitude": -94.94714
    },
    {
      "id": 5043007,
      "name": "Rice",
      "nativeName": "Rice County",
      "code": "US-MN-5043007",
      "countryId": 6252001,
      "countryCode": "US",
      "stateCode": "US-MN",
      "latitude": 44.35426,
      "longitude": -93.29668
    },
    {
      "id": 5043502,
      "name": "Rock",
      "nativeName": "Rock County",
      "code": "US-MN-5043502",
      "countryId": 6252001,
      "countryCode": "US",
      "stateCode": "US-MN",
      "latitude": 43.67463,
      "longitude": -96.25321
    },
    {
      "id": 5043753,
      "name": "Roseau",
      "nativeName": "Roseau County",
      "code": "US-MN-5043753",
      "countryId": 6252001,
      "countryCode": "US",
      "stateCode": "US-MN",
      "latitude": 48.77514,
      "longitude": -95.81082
    },
    {
      "id": 5045020,
      "name": "Saint Louis",
      "nativeName": "Saint Louis County",
      "code": "US-MN-5045020",
      "countryId": 6252001,
      "countryCode": "US",
      "stateCode": "US-MN",
      "latitude": 47.58986,
      "longitude": -92.46147
    },
    {
      "id": 5046749,
      "name": "Scott",
      "nativeName": "Scott County",
      "code": "US-MN-5046749",
      "countryId": 6252001,
      "countryCode": "US",
      "stateCode": "US-MN",
      "latitude": 44.64846,
      "longitude": -93.53593
    },
    {
      "id": 5047121,
      "name": "Sherburne",
      "nativeName": "Sherburne County",
      "code": "US-MN-5047121",
      "countryId": 6252001,
      "countryCode": "US",
      "stateCode": "US-MN",
      "latitude": 45.44395,
      "longitude": -93.77459
    },
    {
      "id": 5047260,
      "name": "Sibley",
      "nativeName": "Sibley County",
      "code": "US-MN-5047260",
      "countryId": 6252001,
      "countryCode": "US",
      "stateCode": "US-MN",
      "latitude": 44.57948,
      "longitude": -94.23216
    },
    {
      "id": 5048685,
      "name": "Stearns",
      "nativeName": "Stearns County",
      "code": "US-MN-5048685",
      "countryId": 6252001,
      "countryCode": "US",
      "stateCode": "US-MN",
      "latitude": 45.55215,
      "longitude": -94.61302
    },
    {
      "id": 5048696,
      "name": "Steele",
      "nativeName": "Steele County",
      "code": "US-MN-5048696",
      "countryId": 6252001,
      "countryCode": "US",
      "stateCode": "US-MN",
      "latitude": 44.02234,
      "longitude": -93.22604
    },
    {
      "id": 5048759,
      "name": "Stevens",
      "nativeName": "Stevens County",
      "code": "US-MN-5048759",
      "countryId": 6252001,
      "countryCode": "US",
      "stateCode": "US-MN",
      "latitude": 45.58613,
      "longitude": -96.0003
    },
    {
      "id": 5049534,
      "name": "Swift",
      "nativeName": "Swift County",
      "code": "US-MN-5049534",
      "countryId": 6252001,
      "countryCode": "US",
      "stateCode": "US-MN",
      "latitude": 45.28271,
      "longitude": -95.68143
    },
    {
      "id": 5050162,
      "name": "Todd",
      "nativeName": "Todd County",
      "code": "US-MN-5050162",
      "countryId": 6252001,
      "countryCode": "US",
      "stateCode": "US-MN",
      "latitude": 46.07062,
      "longitude": -94.8976
    },
    {
      "id": 5050331,
      "name": "Traverse",
      "nativeName": "Traverse County",
      "code": "US-MN-5050331",
      "countryId": 6252001,
      "countryCode": "US",
      "stateCode": "US-MN",
      "latitude": 45.77218,
      "longitude": -96.47164
    },
    {
      "id": 5051601,
      "name": "Wabasha",
      "nativeName": "Wabasha County",
      "code": "US-MN-5051601",
      "countryId": 6252001,
      "countryCode": "US",
      "stateCode": "US-MN",
      "latitude": 44.28428,
      "longitude": -92.23027
    },
    {
      "id": 5051662,
      "name": "Wadena",
      "nativeName": "Wadena County",
      "code": "US-MN-5051662",
      "countryId": 6252001,
      "countryCode": "US",
      "stateCode": "US-MN",
      "latitude": 46.58576,
      "longitude": -94.96941
    },
    {
      "id": 5051907,
      "name": "Waseca",
      "nativeName": "Waseca County",
      "code": "US-MN-5051907",
      "countryId": 6252001,
      "countryCode": "US",
      "stateCode": "US-MN",
      "latitude": 44.02212,
      "longitude": -93.58728
    },
    {
      "id": 5051936,
      "name": "Washington",
      "nativeName": "Washington County",
      "code": "US-MN-5051936",
      "countryId": 6252001,
      "countryCode": "US",
      "stateCode": "US-MN",
      "latitude": 45.03873,
      "longitude": -92.88396
    },
    {
      "id": 5052059,
      "name": "Watonwan",
      "nativeName": "Watonwan County",
      "code": "US-MN-5052059",
      "countryId": 6252001,
      "countryCode": "US",
      "stateCode": "US-MN",
      "latitude": 43.97843,
      "longitude": -94.61406
    },
    {
      "id": 5052862,
      "name": "Wilkin",
      "nativeName": "Wilkin County",
      "code": "US-MN-5052862",
      "countryId": 6252001,
      "countryCode": "US",
      "stateCode": "US-MN",
      "latitude": 46.35708,
      "longitude": -96.46835
    },
    {
      "id": 5053164,
      "name": "Winona",
      "nativeName": "Winona County",
      "code": "US-MN-5053164",
      "countryId": 6252001,
      "countryCode": "US",
      "stateCode": "US-MN",
      "latitude": 43.98685,
      "longitude": -91.77913
    },
    {
      "id": 5053485,
      "name": "Wright",
      "nativeName": "Wright County",
      "code": "US-MN-5053485",
      "countryId": 6252001,
      "countryCode": "US",
      "stateCode": "US-MN",
      "latitude": 45.17393,
      "longitude": -93.96305
    },
    {
      "id": 5053562,
      "name": "Yellow Medicine",
      "nativeName": "Yellow Medicine County",
      "code": "US-MN-5053562",
      "countryId": 6252001,
      "countryCode": "US",
      "stateCode": "US-MN",
      "latitude": 44.71625,
      "longitude": -95.86836
    }
  ]
}