{
  "stateId": 5481136,
  "stateCode": "US-NM",
  "countryCode": "US",
  "cities": [
    {
      "id": 5457180,
      "name": "Bernalillo",
      "nativeName": "Bernalillo County",
      "code": "US-NM-5457180",
      "countryId": 6252001,
      "countryCode": "US",
      "stateCode": "US-NM",
      "latitude": 35.05131,
      "longitude": -106.67017
    },
    {
      "id": 5460788,
      "name": "Catron",
      "nativeName": "Catron County",
      "code": "US-NM-5460788",
      "countryId": 6252001,
      "countryCode": "US",
      "stateCode": "US-NM",
      "latitude": 33.91533,
      "longitude": -108.40473
    },
    {
      "id": 5461428,
      "name": "Chaves",
      "nativeName": "Chaves County",
      "code": "US-NM-5461428",
      "countryId": 6252001,
      "countryCode": "US",
      "stateCode": "US-NM",
      "latitude": 33.36319,
      "longitude": -104.467
    },
    {
      "id": 5462019,
      "name": "Cibola",
      "nativeName": "Cibola County",
      "code": "US-NM-5462019",
      "countryId": 6252001,
      "countryCode": "US",
      "stateCode": "US-NM",
      "latitude": 34.91257,
      "longitude": -107.99971
    },
    {
      "id": 5462567,
      "name": "Colfax",
      "nativeName": "Colfax County",
      "code": "US-NM-5462567",
      "countryId": 6252001,
      "countryCode": "US",
      "stateCode": "US-NM",
      "latitude": 36.60612,
      "longitude": -104.64686
    },
    {
      "id": 5464151,
      "name": "Curry",
      "nativeName": "Curry County",
      "code": "US-NM-5464151",
      "countryId": 6252001,
      "countryCode": "US",
      "stateCode": "US-NM",
      "latitude": 34.57416,
      "longitude": -103.34691
    },
    {
      "id": 5464477,
      "name": "De Baca",
      "nativeName": "De Baca County",
      "code": "US-NM-5464477",
      "countryId": 6252001,
      "countryCode": "US",
      "stateCode": "US-NM",
      "latitude": 34.34239,
      "longitude": -104.412
    },
    {
      "id": 5465283,
      "name": "Doña Ana",
      "nativeName": "Doña Ana County",
      "code": "US-NM-5465283",
      "countryId": 6252001,
      "countryCode": "US",
      "stateCode": "US-NM",
      "latitude": 32.35268,
      "longitude": -106.8328
    },
    {
      "id": 5466318,
      "name": "Eddy",
      "nativeName": "Eddy County",
      "code": "US-NM-5466318",
      "countryId": 6252001,
      "countryCode": "US",
      "stateCode": "US-NM",
      "latitude": 32.47149,
      "longitude": -104.30431
    },
    {
      "id": 5469835,
      "name": "Grant",
      "nativeName": "Grant County",
      "code": "US-NM-5469835",
      "countryId": 6252001,
      "countryCode": "US",
      "stateCode": "US-NM",
      "latitude": 32.73901,
      "longitude": -108.38225
    },
    {
      "id": 5470197,
      "name": "Guadalupe",
      "nativeName": "Guadalupe County",
      "code": "US-NM-5470197",
      "countryId": 6252001,
      "countryCode": "US",
      "stateCode": "US-NM",
      "latitude": 34.86333,
      "longitude": -104.7907
    },
    {
      "id": 5470675,
      "name": "Harding",
      "nativeName": "Harding County",
      "code": "US-NM-5470675",
      "countryId": 6252001,
      "countryCode": "US",
      "stateCode": "US-NM",
      "latitude": 35.85794,
      "longitude": -103.81993
    },
    {
      "id": 5471293,
      "name": "Hidalgo",
      "nativeName": "Hidalgo County",
      "code": "US-NM-5471293",
      "countryId": 6252001,
      "countryCode": "US",
      "stateCode": "US-NM",
      "latitude": 31.91416,
      "longitude": -108.71482
    },
    {
      "id": 5475594,
      "name": "Lea",
      "nativeName": "Lea County",
      "code": "US-NM-5475594",
      "countryId": 6252001,
      "countryCode": "US",
      "stateCode": "US-NM",
      "latitude": 32.79218,
      "longitude": -103.41245
    },
    {
      "id": 5475934,
      "name": "Lincoln",
      "nativeName": "Lincoln County",
      "code": "US-NM-5475934",
      "countryId": 6252001,
      "countryCode": "US",
      "stateCode": "US-NM",
      "latitude": 33.74524,
      "longitude": -105.45925
    },
    {
      "id": 5476834,
      "name": "Los Alamos",
      "nativeName": "Los Alamos County",
      "code": "US-NM-5476834",
      "countryId": 6252001,
      "countryCode": "US",
      "stateCode": "US-NM",
      "latitude": 35.86937,
      "longitude": -106.30729
    },
    {
      "id": 5477433,
      "name": "Luna",
      "nativeName": "Luna County",
      "code": "US-NM-5477433",
      "countryId": 6252001,
      "countryCode": "US",
      "stateCode": "US-NM",
      "latitude": 32.18215,
      "longitude": -107.74977
    },
    {
      "id": 5478585,
      "name": "McKinley",
      "nativeName": "McKinley County",
      "code": "US-NM-5478585",
      "countryId": 6252001,
      "countryCode": "US",
      "stateCode": "US-NM",
      "latitude": 35.58061,
      "longitude": -108.26193
    },
    {
      "id": 5480123,
      "name": "Mora",
      "nativeName": "Mora County",
      "code": "US-NM-5480123",
      "countryId": 6252001,
      "countryCode": "US",
      "stateCode": "US-NM",
      "latitude": 36.00995,
      "longitude": -104.94458
    },
    {
      "id": 5482932,
      "name": "Otero",
      "nativeName": "Otero County",
      "code": "US-NM-5482932",
      "countryId": 6252001,
      "countryCode": "US",
      "stateCode": "US-NM",
      "latitude": 32.61316,
      "longitude": -105.74168
    },
    {
      "id": 5485605,
      "name": "Quay",
      "nativeName": "Quay County",
      "code": "US-NM-5485605",
      "countryId": 6252001,
      "countryCode": "US",
      "stateCode": "US-NM",
      "latitude": 35.10436,
      "longitude": -103.54974
    },
    {
      "id": 5487732,
      "name": "Rio Arriba",
      "nativeName": "Rio Arriba County",
      "code": "US-NM-5487732",
      "countryId": 6252001,
      "countryCode": "US",
      "stateCode": "US-NM",
      "latitude": 36.50957,
      "longitude": -106.69311
    },
    {
      "id": 5488372,
      "name": "Roosevelt",
      "nativeName": "Roosevelt County",
      "code": "US-NM-5488372",
      "countryId": 6252001,
      "countryCode": "US",
      "stateCode": "US-NM",
      "latitude": 34.02127,
      "longitude": -103.48018
    },
    {
      "id": 5489698,
      "name": "San Juan",
      "nativeName": "San Juan County",
      "code": "US-NM-5489698",
      "countryId": 6252001,
      "countryCode": "US",
      "stateCode": "US-NM",
      "latitude": 36.50847,
      "longitude": -108.3206
    },
    {
      "id": 5489818,
      "name": "San Miguel",
      "nativeName": "San Miguel County",
      "code": "US-NM-5489818",
      "countryId": 6252001,
      "countryCode": "US",
      "stateCode": "US-NM",
      "latitude": 35.48029,
      "longitude": -104.81585
    },
    {
      "id": 5490135,
      "name": "Sandoval",
      "nativeName": "Sandoval County",
      "code": "US-NM-5490135",
      "countryId": 6252001,
      "countryCode": "US",
      "stateCode": "US-NM",
      "latitude": 35.68855,
      "longitude": -106.86584
    },
    {
      "id": 5490272,
      "name": "Santa Fe",
      "nativeName": "Santa Fe County",
      "code": "US-NM-5490272",
      "countryId": 6252001,
      "countryCode": "US",
      "stateCode": "US-NM",
      "latitude": 35.50686,
      "longitude": -105.97612
    },
    {
      "id": 5491395,
      "name": "Sierra",
      "nativeName": "Sierra County",
      "code": "US-NM-5491395",
      "countryId": 6252001,
      "countryCode": "US",
      "stateCode": "US-NM",
      "latitude": 33.13047,
      "longitude": -107.1925
    },
    {
      "id": 5492031,
      "name": "Socorro",
      "nativeName": "Socorro County",
      "code": "US-NM-5492031",
      "countryId": 6252001,
      "countryCode": "US",
      "stateCode": "US-NM",
      "latitude": 34.00724,
      "longitude": -106.93033
    },
    {
      "id": 5493780,
      "name": "Taos",
      "nativeName": "Taos County",
      "code": "US-NM-5493780",
      "countryId": 6252001,
      "countryCode": "US",
      "stateCode": "US-NM",
      "latitude": 36.5783,
      "longitude": -105.63097
    },
    {
      "id": 5494881,
      "name": "Torrance",
      "nativeName": "Torrance County",
      "code": "US-NM-5494881",
      "countryId": 6252001,
      "countryCode": "US",
      "stateCode": "US-NM",
      "latitude": 34.64047,
      "longitude": -105.85078
    },
    {
      "id": 5495841,
      "name": "Union",
      "nativeName": "Union County",
      "code": "US-NM-5495841",
      "countryId": 6252001,
      "countryCode": "US",
      "stateCode": "US-NM",
      "latitude": 36.48176,
      "longitude": -103.47099
    },
    {
      "id": 5496319,
      "name": "Valencia",
      "nativeName": "Valencia County",
      "code": "US-NM-5496319",
      "countryId": 6252001,
      "countryCode": "US",
      "stateCode": "US-NM",
      "latitude": 34.71545,
      "longitude": -106.80911
    }
  ]
}