{
  "stateId": 5744337,
  "stateCode": "US-OR",
  "countryCode": "US",
  "cities": [
    {
      "id": 5712180,
      "name": "Baker",
      "nativeName": "Baker County",
      "code": "US-OR-5712180",
      "countryId": 6252001,
      "countryCode": "US",
      "stateCode": "US-OR",
      "latitude": 44.70923,
      "longitude": -117.67534
    },
    {
      "id": 5713677,
      "name": "Benton",
      "nativeName": "Benton County",
      "code": "US-OR-5713677",
      "countryId": 6252001,
      "countryCode": "US",
      "stateCode": "US-OR",
      "latitude": 44.49176,
      "longitude": -123.42931
    },
    {
      "id": 5719297,
      "name": "Clackamas",
      "nativeName": "Clackamas County",
      "code": "US-OR-5719297",
      "countryId": 6252001,
      "countryCode": "US",
      "stateCode": "US-OR",
      "latitude": 45.18816,
      "longitude": -122.22094
    },
    {
      "id": 5719408,
      "name": "Clatsop",
      "nativeName": "Clatsop County",
      "code": "US-OR-5719408",
      "countryId": 6252001,
      "countryCode": "US",
      "stateCode": "US-OR",
      "latitude": 46.01747,
      "longitude": -123.71677
    },
    {
      "id": 5720173,
      "name": "Columbia",
      "nativeName": "Columbia County",
      "code": "US-OR-5720173",
      "countryId": 6252001,
      "countryCode": "US",
      "stateCode": "US-OR",
      "latitude": 45.94377,
      "longitude": -123.08805
    },
    {
      "id": 5720502,
      "name": "Coos",
      "nativeName": "Coos County",
      "code": "US-OR-5720502",
      "countryId": 6252001,
      "countryCode": "US",
      "stateCode": "US-OR",
      "latitude": 43.18501,
      "longitude": -124.09333
    },
    {
      "id": 5721611,
      "name": "Crook",
      "nativeName": "Crook County",
      "code": "US-OR-5721611",
      "countryId": 6252001,
      "countryCode": "US",
      "stateCode": "US-OR",
      "latitude": 44.14219,
      "longitude": -120.35658
    },
    {
      "id": 5721936,
      "name": "Curry",
      "nativeName": "Curry County",
      "code": "US-OR-5721936",
      "countryId": 6252001,
      "countryCode": "US",
      "stateCode": "US-OR",
      "latitude": 42.46661,
      "longitude": -124.21534
    },
    {
      "id": 5722958,
      "name": "Deschutes",
      "nativeName": "Deschutes County",
      "code": "US-OR-5722958",
      "countryId": 6252001,
      "countryCode": "US",
      "stateCode": "US-OR",
      "latitude": 43.91488,
      "longitude": -121.22789
    },
    {
      "id": 5723759,
      "name": "Douglas",
      "nativeName": "Douglas County",
      "code": "US-OR-5723759",
      "countryId": 6252001,
      "countryCode": "US",
      "stateCode": "US-OR",
      "latitude": 43.28536,
      "longitude": -123.17942
    },
    {
      "id": 5728364,
      "name": "Gilliam",
      "nativeName": "Gilliam County",
      "code": "US-OR-5728364",
      "countryId": 6252001,
      "countryCode": "US",
      "stateCode": "US-OR",
      "latitude": 45.37806,
      "longitude": -120.21087
    },
    {
      "id": 5729054,
      "name": "Grant",
      "nativeName": "Grant County",
      "code": "US-OR-5729054",
      "countryId": 6252001,
      "countryCode": "US",
      "stateCode": "US-OR",
      "latitude": 44.49125,
      "longitude": -119.00738
    },
    {
      "id": 5730293,
      "name": "Harney",
      "nativeName": "Harney County",
      "code": "US-OR-5730293",
      "countryId": 6252001,
      "countryCode": "US",
      "stateCode": "US-OR",
      "latitude": 43.06402,
      "longitude": -118.96787
    },
    {
      "id": 5731767,
      "name": "Hood River",
      "nativeName": "Hood River County",
      "code": "US-OR-5731767",
      "countryId": 6252001,
      "countryCode": "US",
      "stateCode": "US-OR",
      "latitude": 45.51911,
      "longitude": -121.65111
    },
    {
      "id": 5733351,
      "name": "Jackson",
      "nativeName": "Jackson County",
      "code": "US-OR-5733351",
      "countryId": 6252001,
      "countryCode": "US",
      "stateCode": "US-OR",
      "latitude": 42.43215,
      "longitude": -122.72843
    },
    {
      "id": 5733534,
      "name": "Jefferson",
      "nativeName": "Jefferson County",
      "code": "US-OR-5733534",
      "countryId": 6252001,
      "countryCode": "US",
      "stateCode": "US-OR",
      "latitude": 44.62941,
      "longitude": -121.17541
    },
    {
      "id": 5734120,
      "name": "Josephine",
      "nativeName": "Josephine County",
      "code": "US-OR-5734120",
      "countryId": 6252001,
      "countryCode": "US",
      "stateCode": "US-OR",
      "latitude": 42.36546,
      "longitude": -123.55558
    },
    {
      "id": 5735237,
      "name": "Klamath",
      "nativeName": "Klamath County",
      "code": "US-OR-5735237",
      "countryId": 6252001,
      "countryCode": "US",
      "stateCode": "US-OR",
      "latitude": 42.68634,
      "longitude": -121.65013
    },
    {
      "id": 5735647,
      "name": "Lake",
      "nativeName": "Lake County",
      "code": "US-OR-5735647",
      "countryId": 6252001,
      "countryCode": "US",
      "stateCode": "US-OR",
      "latitude": 42.79339,
      "longitude": -120.38747
    },
    {
      "id": 5735869,
      "name": "Lane",
      "nativeName": "Lane County",
      "code": "US-OR-5735869",
      "countryId": 6252001,
      "countryCode": "US",
      "stateCode": "US-OR",
      "latitude": 43.94155,
      "longitude": -122.87655
    },
    {
      "id": 5736643,
      "name": "Lincoln",
      "nativeName": "Lincoln County",
      "code": "US-OR-5736643",
      "countryId": 6252001,
      "countryCode": "US",
      "stateCode": "US-OR",
      "latitude": 44.64568,
      "longitude": -123.9077
    },
    {
      "id": 5736713,
      "name": "Linn",
      "nativeName": "Linn County",
      "code": "US-OR-5736713",
      "countryId": 6252001,
      "countryCode": "US",
      "stateCode": "US-OR",
      "latitude": 44.48857,
      "longitude": -122.53419
    },
    {
      "id": 5738839,
      "name": "Malheur",
      "nativeName": "Malheur County",
      "code": "US-OR-5738839",
      "countryId": 6252001,
      "countryCode": "US",
      "stateCode": "US-OR",
      "latitude": 43.19341,
      "longitude": -117.62307
    },
    {
      "id": 5739051,
      "name": "Marion",
      "nativeName": "Marion County",
      "code": "US-OR-5739051",
      "countryId": 6252001,
      "countryCode": "US",
      "stateCode": "US-OR",
      "latitude": 44.90319,
      "longitude": -122.58473
    },
    {
      "id": 5741531,
      "name": "Morrow",
      "nativeName": "Morrow County",
      "code": "US-OR-5741531",
      "countryId": 6252001,
      "countryCode": "US",
      "stateCode": "US-OR",
      "latitude": 45.41883,
      "longitude": -119.5843
    },
    {
      "id": 5742126,
      "name": "Multnomah",
      "nativeName": "Multnomah County",
      "code": "US-OR-5742126",
      "countryId": 6252001,
      "countryCode": "US",
      "stateCode": "US-OR",
      "latitude": 45.54687,
      "longitude": -122.41534
    },
    {
      "id": 5746351,
      "name": "Polk",
      "nativeName": "Polk County",
      "code": "US-OR-5746351",
      "countryId": 6252001,
      "countryCode": "US",
      "stateCode": "US-OR",
      "latitude": 44.90348,
      "longitude": -123.41337
    },
    {
      "id": 5751614,
      "name": "Sherman",
      "nativeName": "Sherman County",
      "code": "US-OR-5751614",
      "countryId": 6252001,
      "countryCode": "US",
      "stateCode": "US-OR",
      "latitude": 45.40521,
      "longitude": -120.68932
    },
    {
      "id": 5756780,
      "name": "Tillamook",
      "nativeName": "Tillamook County",
      "code": "US-OR-5756780",
      "countryId": 6252001,
      "countryCode": "US",
      "stateCode": "US-OR",
      "latitude": 45.45645,
      "longitude": -123.75877
    },
    {
      "id": 5758058,
      "name": "Umatilla",
      "nativeName": "Umatilla County",
      "code": "US-OR-5758058",
      "countryId": 6252001,
      "countryCode": "US",
      "stateCode": "US-OR",
      "latitude": 45.5919,
      "longitude": -118.73683
    },
    {
      "id": 5758120,
      "name": "Union",
      "nativeName": "Union County",
      "code": "US-OR-5758120",
      "countryId": 6252001,
      "countryCode": "US",
      "stateCode": "US-OR",
      "latitude": 45.31035,
      "longitude": -118.009
    },
    {
      "id": 5759046,
      "name": "Wallowa",
      "nativeName": "Wallowa County",
      "code": "US-OR-5759046",
      "countryId": 6252001,
      "countryCode": "US",
      "stateCode": "US-OR",
      "latitude": 45.57983,
      "longitude": -117.18107
    },
    {
      "id": 5759298,
      "name": "Wasco",
      "nativeName": "Wasco County",
      "code": "US-OR-5759298",
      "countryId": 6252001,
      "countryCode": "US",
      "stateCode": "US-OR",
      "latitude": 45.16005,
      "longitude": -121.16815
    },
    {
      "id": 5759333,
      "name": "Washington",
      "nativeName": "Washington County",
      "code": "US-OR-5759333",
      "countryId": 6252001,
      "countryCode": "US",
      "stateCode": "US-OR",
      "latitude": 45.56007,
      "longitude": -123.09849
    },
    {
      "id": 5760229,
      "name": "Wheeler",
      "nativeName": "Wheeler County",
      "code": "US-OR-5760229",
      "countryId": 6252001,
      "countryCode": "US",
      "stateCode": "US-OR",
      "latitude": 44.72606,
      "longitude": -120.02746
    },
    {
      "id": 5761960,
      "name": "Yamhill",
      "nativeName": "Yamhill County",
      "code": "US-OR-5761960",
      "countryId": 6252001,
      "countryCode": "US",
      "stateCode": "US-OR",
      "latitude": 45.2326,
      "longitude": -123.30815
    }
  ]
}