{
  "stateId": 6254927,
  "stateCode": "US-PA",
  "countryCode": "US",
  "cities": [
    {
      "id": 4556228,
      "name": "Adams",
      "nativeName": "Adams County",
      "code": "US-PA-4556228",
      "countryId": 6252001,
      "countryCode": "US",
      "stateCode": "US-PA",
      "latitude": 39.87145,
      "longitude": -77.21789
    },
    {
      "id": 5178040,
      "name": "Allegheny",
      "nativeName": "Allegheny County",
      "code": "US-PA-5178040",
      "countryId": 6252001,
      "countryCode": "US",
      "stateCode": "US-PA",
      "latitude": 40.46883,
      "longitude": -79.98119
    },
    {
      "id": 5178515,
      "name": "Armstrong",
      "nativeName": "Armstrong County",
      "code": "US-PA-5178515",
      "countryId": 6252001,
      "countryCode": "US",
      "stateCode": "US-PA",
      "latitude": 40.81229,
      "longitude": -79.46454
    },
    {
      "id": 5179454,
      "name": "Beaver",
      "nativeName": "Beaver County",
      "code": "US-PA-5179454",
      "countryId": 6252001,
      "countryCode": "US",
      "stateCode": "US-PA",
      "latitude": 40.68226,
      "longitude": -80.34929
    },
    {
      "id": 5179633,
      "name": "Bedford",
      "nativeName": "Bedford County",
      "code": "US-PA-5179633",
      "countryId": 6252001,
      "countryCode": "US",
      "stateCode": "US-PA",
      "latitude": 40.00656,
      "longitude": -78.49032
    },
    {
      "id": 5180052,
      "name": "Berks",
      "nativeName": "Berks County",
      "code": "US-PA-5180052",
      "countryId": 6252001,
      "countryCode": "US",
      "stateCode": "US-PA",
      "latitude": 40.4163,
      "longitude": -75.926
    },
    {
      "id": 5180809,
      "name": "Blair",
      "nativeName": "Blair County",
      "code": "US-PA-5180809",
      "countryId": 6252001,
      "countryCode": "US",
      "stateCode": "US-PA",
      "latitude": 40.481,
      "longitude": -78.3486
    },
    {
      "id": 5181416,
      "name": "Bradford",
      "nativeName": "Bradford County",
      "code": "US-PA-5181416",
      "countryId": 6252001,
      "countryCode": "US",
      "stateCode": "US-PA",
      "latitude": 41.78867,
      "longitude": -76.51545
    },
    {
      "id": 5182201,
      "name": "Bucks",
      "nativeName": "Bucks County",
      "code": "US-PA-5182201",
      "countryId": 6252001,
      "countryCode": "US",
      "stateCode": "US-PA",
      "latitude": 40.33694,
      "longitude": -75.10687
    },
    {
      "id": 5182539,
      "name": "Butler",
      "nativeName": "Butler County",
      "code": "US-PA-5182539",
      "countryId": 6252001,
      "countryCode": "US",
      "stateCode": "US-PA",
      "latitude": 40.91172,
      "longitude": -79.91299
    },
    {
      "id": 5182829,
      "name": "Cambria",
      "nativeName": "Cambria County",
      "code": "US-PA-5182829",
      "countryId": 6252001,
      "countryCode": "US",
      "stateCode": "US-PA",
      "latitude": 40.49529,
      "longitude": -78.7137
    },
    {
      "id": 5182858,
      "name": "Cameron",
      "nativeName": "Cameron County",
      "code": "US-PA-5182858",
      "countryId": 6252001,
      "countryCode": "US",
      "stateCode": "US-PA",
      "latitude": 41.4368,
      "longitude": -78.20378
    },
    {
      "id": 5183193,
      "name": "Carbon",
      "nativeName": "Carbon County",
      "code": "US-PA-5183193",
      "countryId": 6252001,
      "countryCode": "US",
      "stateCode": "US-PA",
      "latitude": 40.91818,
      "longitude": -75.70882
    },
    {
      "id": 5183763,
      "name": "Centre",
      "nativeName": "Centre County",
      "code": "US-PA-5183763",
      "countryId": 6252001,
      "countryCode": "US",
      "stateCode": "US-PA",
      "latitude": 40.91934,
      "longitude": -77.81995
    },
    {
      "id": 5184079,
      "name": "Chester",
      "nativeName": "Chester County",
      "code": "US-PA-5184079",
      "countryId": 6252001,
      "countryCode": "US",
      "stateCode": "US-PA",
      "latitude": 39.97314,
      "longitude": -75.74845
    },
    {
      "id": 5184423,
      "name": "Clarion",
      "nativeName": "Clarion County",
      "code": "US-PA-5184423",
      "countryId": 6252001,
      "countryCode": "US",
      "stateCode": "US-PA",
      "latitude": 41.19239,
      "longitude": -79.42096
    },
    {
      "id": 5184546,
      "name": "Clearfield",
      "nativeName": "Clearfield County",
      "code": "US-PA-5184546",
      "countryId": 6252001,
      "countryCode": "US",
      "stateCode": "US-PA",
      "latitude": 41.00019,
      "longitude": -78.47411
    },
    {
      "id": 5184630,
      "name": "Clinton",
      "nativeName": "Clinton County",
      "code": "US-PA-5184630",
      "countryId": 6252001,
      "countryCode": "US",
      "stateCode": "US-PA",
      "latitude": 41.23405,
      "longitude": -77.63811
    },
    {
      "id": 5185032,
      "name": "Columbia",
      "nativeName": "Columbia County",
      "code": "US-PA-5185032",
      "countryId": 6252001,
      "countryCode": "US",
      "stateCode": "US-PA",
      "latitude": 41.04865,
      "longitude": -76.40515
    },
    {
      "id": 5185801,
      "name": "Crawford",
      "nativeName": "Crawford County",
      "code": "US-PA-5185801",
      "countryId": 6252001,
      "countryCode": "US",
      "stateCode": "US-PA",
      "latitude": 41.6847,
      "longitude": -80.10628
    },
    {
      "id": 5186106,
      "name": "Cumberland",
      "nativeName": "Cumberland County",
      "code": "US-PA-5186106",
      "countryId": 6252001,
      "countryCode": "US",
      "stateCode": "US-PA",
      "latitude": 40.16363,
      "longitude": -77.26555
    },
    {
      "id": 5186395,
      "name": "Dauphin",
      "nativeName": "Dauphin County",
      "code": "US-PA-5186395",
      "countryId": 6252001,
      "countryCode": "US",
      "stateCode": "US-PA",
      "latitude": 40.41544,
      "longitude": -76.77947
    },
    {
      "id": 5186677,
      "name": "Delaware",
      "nativeName": "Delaware County",
      "code": "US-PA-5186677",
      "countryId": 6252001,
      "countryCode": "US",
      "stateCode": "US-PA",
      "latitude": 39.91681,
      "longitude": -75.3989
    },
    {
      "id": 5188486,
      "name": "Elk",
      "nativeName": "Elk County",
      "code": "US-PA-5188486",
      "countryId": 6252001,
      "countryCode": "US",
      "stateCode": "US-PA",
      "latitude": 41.42523,
      "longitude": -78.64909
    },
    {
      "id": 5188847,
      "name": "Erie",
      "nativeName": "Erie County",
      "code": "US-PA-5188847",
      "countryId": 6252001,
      "countryCode": "US",
      "stateCode": "US-PA",
      "latitude": 42.11748,
      "longitude": -80.09811
    },
    {
      "id": 5189414,
      "name": "Fayette",
      "nativeName": "Fayette County",
      "code": "US-PA-5189414",
      "countryId": 6252001,
      "countryCode": "US",
      "stateCode": "US-PA",
      "latitude": 39.9199,
      "longitude": -79.64737
    },
    {
      "id": 5189967,
      "name": "Forest",
      "nativeName": "Forest County",
      "code": "US-PA-5189967",
      "countryId": 6252001,
      "countryCode": "US",
      "stateCode": "US-PA",
      "latitude": 41.51307,
      "longitude": -79.23601
    },
    {
      "id": 5190337,
      "name": "Franklin",
      "nativeName": "Franklin County",
      "code": "US-PA-5190337",
      "countryId": 6252001,
      "countryCode": "US",
      "stateCode": "US-PA",
      "latitude": 39.92742,
      "longitude": -77.72127
    },
    {
      "id": 5190669,
      "name": "Fulton",
      "nativeName": "Fulton County",
      "code": "US-PA-5190669",
      "countryId": 6252001,
      "countryCode": "US",
      "stateCode": "US-PA",
      "latitude": 39.92534,
      "longitude": -78.11268
    },
    {
      "id": 5191994,
      "name": "Greene",
      "nativeName": "Greene County",
      "code": "US-PA-5191994",
      "countryId": 6252001,
      "countryCode": "US",
      "stateCode": "US-PA",
      "latitude": 39.8538,
      "longitude": -80.22287
    },
    {
      "id": 5194592,
      "name": "Huntingdon",
      "nativeName": "Huntingdon County",
      "code": "US-PA-5194592",
      "countryId": 6252001,
      "countryCode": "US",
      "stateCode": "US-PA",
      "latitude": 40.41693,
      "longitude": -77.98121
    },
    {
      "id": 5194872,
      "name": "Indiana",
      "nativeName": "Indiana County",
      "code": "US-PA-5194872",
      "countryId": 6252001,
      "countryCode": "US",
      "stateCode": "US-PA",
      "latitude": 40.65205,
      "longitude": -79.08755
    },
    {
      "id": 5195307,
      "name": "Jefferson",
      "nativeName": "Jefferson County",
      "code": "US-PA-5195307",
      "countryId": 6252001,
      "countryCode": "US",
      "stateCode": "US-PA",
      "latitude": 41.12815,
      "longitude": -78.99942
    },
    {
      "id": 5195677,
      "name": "Juniata",
      "nativeName": "Juniata County",
      "code": "US-PA-5195677",
      "countryId": 6252001,
      "countryCode": "US",
      "stateCode": "US-PA",
      "latitude": 40.53106,
      "longitude": -77.40216
    },
    {
      "id": 5196674,
      "name": "Lackawanna",
      "nativeName": "Lackawanna County",
      "code": "US-PA-5196674",
      "countryId": 6252001,
      "countryCode": "US",
      "stateCode": "US-PA",
      "latitude": 41.43679,
      "longitude": -75.6092
    },
    {
      "id": 5197085,
      "name": "Lancaster",
      "nativeName": "Lancaster County",
      "code": "US-PA-5197085",
      "countryId": 6252001,
      "countryCode": "US",
      "stateCode": "US-PA",
      "latitude": 40.04244,
      "longitude": -76.2477
    },
    {
      "id": 5197440,
      "name": "Lawrence",
      "nativeName": "Lawrence County",
      "code": "US-PA-5197440",
      "countryId": 6252001,
      "countryCode": "US",
      "stateCode": "US-PA",
      "latitude": 40.99127,
      "longitude": -80.33419
    },
    {
      "id": 5197522,
      "name": "Lebanon",
      "nativeName": "Lebanon County",
      "code": "US-PA-5197522",
      "countryId": 6252001,
      "countryCode": "US",
      "stateCode": "US-PA",
      "latitude": 40.36723,
      "longitude": -76.45771
    },
    {
      "id": 5197646,
      "name": "Lehigh",
      "nativeName": "Lehigh County",
      "code": "US-PA-5197646",
      "countryId": 6252001,
      "countryCode": "US",
      "stateCode": "US-PA",
      "latitude": 40.61271,
      "longitude": -75.59237
    },
    {
      "id": 5199309,
      "name": "Luzerne",
      "nativeName": "Luzerne County",
      "code": "US-PA-5199309",
      "countryId": 6252001,
      "countryCode": "US",
      "stateCode": "US-PA",
      "latitude": 41.17701,
      "longitude": -75.98903
    },
    {
      "id": 5199318,
      "name": "Lycoming",
      "nativeName": "Lycoming County",
      "code": "US-PA-5199318",
      "countryId": 6252001,
      "countryCode": "US",
      "stateCode": "US-PA",
      "latitude": 41.34338,
      "longitude": -77.06451
    },
    {
      "id": 5200448,
      "name": "McKean",
      "nativeName": "McKean County",
      "code": "US-PA-5200448",
      "countryId": 6252001,
      "countryCode": "US",
      "stateCode": "US-PA",
      "latitude": 41.80775,
      "longitude": -78.56903
    },
    {
      "id": 5200801,
      "name": "Mercer",
      "nativeName": "Mercer County",
      "code": "US-PA-5200801",
      "countryId": 6252001,
      "countryCode": "US",
      "stateCode": "US-PA",
      "latitude": 41.30218,
      "longitude": -80.2577
    },
    {
      "id": 5201068,
      "name": "Mifflin",
      "nativeName": "Mifflin County",
      "code": "US-PA-5201068",
      "countryId": 6252001,
      "countryCode": "US",
      "stateCode": "US-PA",
      "latitude": 40.61041,
      "longitude": -77.61704
    },
    {
      "id": 5201707,
      "name": "Monroe",
      "nativeName": "Monroe County",
      "code": "US-PA-5201707",
      "countryId": 6252001,
      "countryCode": "US",
      "stateCode": "US-PA",
      "latitude": 41.05807,
      "longitude": -75.33948
    },
    {
      "id": 5201756,
      "name": "Montgomery",
      "nativeName": "Montgomery County",
      "code": "US-PA-5201756",
      "countryId": 6252001,
      "countryCode": "US",
      "stateCode": "US-PA",
      "latitude": 40.21083,
      "longitude": -75.3673
    },
    {
      "id": 5201786,
      "name": "Montour",
      "nativeName": "Montour County",
      "code": "US-PA-5201786",
      "countryId": 6252001,
      "countryCode": "US",
      "stateCode": "US-PA",
      "latitude": 41.02792,
      "longitude": -76.65856
    },
    {
      "id": 5203809,
      "name": "Northampton",
      "nativeName": "Northampton County",
      "code": "US-PA-5203809",
      "countryId": 6252001,
      "countryCode": "US",
      "stateCode": "US-PA",
      "latitude": 40.75423,
      "longitude": -75.30742
    },
    {
      "id": 5203860,
      "name": "Northumberland",
      "nativeName": "Northumberland County",
      "code": "US-PA-5203860",
      "countryId": 6252001,
      "countryCode": "US",
      "stateCode": "US-PA",
      "latitude": 40.85198,
      "longitude": -76.70932
    },
    {
      "id": 5205669,
      "name": "Perry",
      "nativeName": "Perry County",
      "code": "US-PA-5205669",
      "countryId": 6252001,
      "countryCode": "US",
      "stateCode": "US-PA",
      "latitude": 40.39841,
      "longitude": -77.2623
    },
    {
      "id": 5205788,
      "name": "Philadelphia",
      "nativeName": "Philadelphia County",
      "code": "US-PA-5205788",
      "countryId": 6252001,
      "countryCode": "US",
      "stateCode": "US-PA",
      "latitude": 40.00764,
      "longitude": -75.13396
    },
    {
      "id": 5205930,
      "name": "Pike",
      "nativeName": "Pike County",
      "code": "US-PA-5205930",
      "countryId": 6252001,
      "countryCode": "US",
      "stateCode": "US-PA",
      "latitude": 41.33199,
      "longitude": -75.03383
    },
    {
      "id": 5207042,
      "name": "Potter",
      "nativeName": "Potter County",
      "code": "US-PA-5207042",
      "countryId": 6252001,
      "countryCode": "US",
      "stateCode": "US-PA",
      "latitude": 41.74492,
      "longitude": -77.89581
    },
    {
      "id": 5211208,
      "name": "Schuylkill",
      "nativeName": "Schuylkill County",
      "code": "US-PA-5211208",
      "countryId": 6252001,
      "countryCode": "US",
      "stateCode": "US-PA",
      "latitude": 40.7058,
      "longitude": -76.21595
    },
    {
      "id": 5212772,
      "name": "Snyder",
      "nativeName": "Snyder County",
      "code": "US-PA-5212772",
      "countryId": 6252001,
      "countryCode": "US",
      "stateCode": "US-PA",
      "latitude": 40.76984,
      "longitude": -77.07019
    },
    {
      "id": 5212857,
      "name": "Somerset",
      "nativeName": "Somerset County",
      "code": "US-PA-5212857",
      "countryId": 6252001,
      "countryCode": "US",
      "stateCode": "US-PA",
      "latitude": 39.97244,
      "longitude": -79.02827
    },
    {
      "id": 5214721,
      "name": "Sullivan",
      "nativeName": "Sullivan County",
      "code": "US-PA-5214721",
      "countryId": 6252001,
      "countryCode": "US",
      "stateCode": "US-PA",
      "latitude": 41.44616,
      "longitude": -76.51214
    },
    {
      "id": 5214915,
      "name": "Susquehanna",
      "nativeName": "Susquehanna County",
      "code": "US-PA-5214915",
      "countryId": 6252001,
      "countryCode": "US",
      "stateCode": "US-PA",
      "latitude": 41.82133,
      "longitude": -75.80068
    },
    {
      "id": 5215684,
      "name": "Tioga",
      "nativeName": "Tioga County",
      "code": "US-PA-5215684",
      "countryId": 6252001,
      "countryCode": "US",
      "stateCode": "US-PA",
      "latitude": 41.77216,
      "longitude": -77.25426
    },
    {
      "id": 5216649,
      "name": "Union",
      "nativeName": "Union County",
      "code": "US-PA-5216649",
      "countryId": 6252001,
      "countryCode": "US",
      "stateCode": "US-PA",
      "latitude": 40.96297,
      "longitude": -77.06225
    },
    {
      "id": 5217142,
      "name": "Venango",
      "nativeName": "Venango County",
      "code": "US-PA-5217142",
      "countryId": 6252001,
      "countryCode": "US",
      "stateCode": "US-PA",
      "latitude": 41.40097,
      "longitude": -79.75795
    },
    {
      "id": 5217991,
      "name": "Warren",
      "nativeName": "Warren County",
      "code": "US-PA-5217991",
      "countryId": 6252001,
      "countryCode": "US",
      "stateCode": "US-PA",
      "latitude": 41.81457,
      "longitude": -79.27414
    },
    {
      "id": 5218076,
      "name": "Washington",
      "nativeName": "Washington County",
      "code": "US-PA-5218076",
      "countryId": 6252001,
      "countryCode": "US",
      "stateCode": "US-PA",
      "latitude": 40.1894,
      "longitude": -80.24824
    },
    {
      "id": 5218273,
      "name": "Wayne",
      "nativeName": "Wayne County",
      "code": "US-PA-5218273",
      "countryId": 6252001,
      "countryCode": "US",
      "stateCode": "US-PA",
      "latitude": 41.64873,
      "longitude": -75.30326
    },
    {
      "id": 5219013,
      "name": "Westmoreland",
      "nativeName": "Westmoreland County",
      "code": "US-PA-5219013",
      "countryId": 6252001,
      "countryCode": "US",
      "stateCode": "US-PA",
      "latitude": 40.31073,
      "longitude": -79.46696
    },
    {
      "id": 5220239,
      "name": "Wyoming",
      "nativeName": "Wyoming County",
      "code": "US-PA-5220239",
      "countryId": 6252001,
      "countryCode": "US",
      "stateCode": "US-PA",
      "latitude": 41.51833,
      "longitude": -76.01655
    },
    {
      "id": 5220355,
      "name": "York",
      "nativeName": "York County",
      "code": "US-PA-5220355",
      "countryId": 6252001,
      "countryCode": "US",
      "stateCode": "US-PA",
      "latitude": 39.91996,
      "longitude": -76.72651
    }
  ]
}