{
  "stateId": 4736286,
  "stateCode": "US-TX",
  "countryCode": "US",
  "cities": [
    {
      "id": 4670756,
      "name": "Anderson",
      "nativeName": "Anderson County",
      "code": "US-TX-4670756",
      "countryId": 6252001,
      "countryCode": "US",
      "stateCode": "US-TX",
      "latitude": 31.81333,
      "longitude": -95.65255
    },
    {
      "id": 5516292,
      "name": "Andrews",
      "nativeName": "Andrews County",
      "code": "US-TX-5516292",
      "countryId": 6252001,
      "countryCode": "US",
      "stateCode": "US-TX",
      "latitude": 32.30503,
      "longitude": -102.63781
    },
    {
      "id": 4670841,
      "name": "Angelina",
      "nativeName": "Angelina County",
      "code": "US-TX-4670841",
      "countryId": 6252001,
      "countryCode": "US",
      "stateCode": "US-TX",
      "latitude": 31.25476,
      "longitude": -94.61185
    },
    {
      "id": 4671133,
      "name": "Aransas",
      "nativeName": "Aransas County",
      "code": "US-TX-4671133",
      "countryId": 6252001,
      "countryCode": "US",
      "stateCode": "US-TX",
      "latitude": 28.01501,
      "longitude": -97.07382
    },
    {
      "id": 4671180,
      "name": "Archer",
      "nativeName": "Archer County",
      "code": "US-TX-4671180",
      "countryId": 6252001,
      "countryCode": "US",
      "stateCode": "US-TX",
      "latitude": 33.61525,
      "longitude": -98.68765
    },
    {
      "id": 5516441,
      "name": "Armstrong",
      "nativeName": "Armstrong County",
      "code": "US-TX-5516441",
      "countryId": 6252001,
      "countryCode": "US",
      "stateCode": "US-TX",
      "latitude": 34.96493,
      "longitude": -101.3574
    },
    {
      "id": 4671531,
      "name": "Atascosa",
      "nativeName": "Atascosa County",
      "code": "US-TX-4671531",
      "countryId": 6252001,
      "countryCode": "US",
      "stateCode": "US-TX",
      "latitude": 28.89352,
      "longitude": -98.52713
    },
    {
      "id": 4671673,
      "name": "Austin",
      "nativeName": "Austin County",
      "code": "US-TX-4671673",
      "countryId": 6252001,
      "countryCode": "US",
      "stateCode": "US-TX",
      "latitude": 29.88702,
      "longitude": -96.27791
    },
    {
      "id": 5516581,
      "name": "Bailey",
      "nativeName": "Bailey County",
      "code": "US-TX-5516581",
      "countryId": 6252001,
      "countryCode": "US",
      "stateCode": "US-TX",
      "latitude": 34.06852,
      "longitude": -102.82987
    },
    {
      "id": 4672172,
      "name": "Bandera",
      "nativeName": "Bandera County",
      "code": "US-TX-4672172",
      "countryId": 6252001,
      "countryCode": "US",
      "stateCode": "US-TX",
      "latitude": 29.74721,
      "longitude": -99.24624
    },
    {
      "id": 4672581,
      "name": "Bastrop",
      "nativeName": "Bastrop County",
      "code": "US-TX-4672581",
      "countryId": 6252001,
      "countryCode": "US",
      "stateCode": "US-TX",
      "latitude": 30.10361,
      "longitude": -97.31201
    },
    {
      "id": 4672691,
      "name": "Baylor",
      "nativeName": "Baylor County",
      "code": "US-TX-4672691",
      "countryId": 6252001,
      "countryCode": "US",
      "stateCode": "US-TX",
      "latitude": 33.61649,
      "longitude": -99.21351
    },
    {
      "id": 4673147,
      "name": "Bee",
      "nativeName": "Bee County",
      "code": "US-TX-4673147",
      "countryId": 6252001,
      "countryCode": "US",
      "stateCode": "US-TX",
      "latitude": 28.41739,
      "longitude": -97.74119
    },
    {
      "id": 4673310,
      "name": "Bell",
      "nativeName": "Bell County",
      "code": "US-TX-4673310",
      "countryId": 6252001,
      "countryCode": "US",
      "stateCode": "US-TX",
      "latitude": 31.03767,
      "longitude": -97.4782
    },
    {
      "id": 4674023,
      "name": "Bexar",
      "nativeName": "Bexar County",
      "code": "US-TX-4674023",
      "countryId": 6252001,
      "countryCode": "US",
      "stateCode": "US-TX",
      "latitude": 29.44896,
      "longitude": -98.52002
    },
    {
      "id": 4674915,
      "name": "Blanco",
      "nativeName": "Blanco County",
      "code": "US-TX-4674915",
      "countryId": 6252001,
      "countryCode": "US",
      "stateCode": "US-TX",
      "latitude": 30.26638,
      "longitude": -98.39987
    },
    {
      "id": 5517459,
      "name": "Borden",
      "nativeName": "Borden County",
      "code": "US-TX-5517459",
      "countryId": 6252001,
      "countryCode": "US",
      "stateCode": "US-TX",
      "latitude": 32.74369,
      "longitude": -101.43175
    },
    {
      "id": 4675728,
      "name": "Bosque",
      "nativeName": "Bosque County",
      "code": "US-TX-4675728",
      "countryId": 6252001,
      "countryCode": "US",
      "stateCode": "US-TX",
      "latitude": 31.9004,
      "longitude": -97.63435
    },
    {
      "id": 4675805,
      "name": "Bowie",
      "nativeName": "Bowie County",
      "code": "US-TX-4675805",
      "countryId": 6252001,
      "countryCode": "US",
      "stateCode": "US-TX",
      "latitude": 33.44576,
      "longitude": -94.42332
    },
    {
      "id": 4676137,
      "name": "Brazoria",
      "nativeName": "Brazoria County",
      "code": "US-TX-4676137",
      "countryId": 6252001,
      "countryCode": "US",
      "stateCode": "US-TX",
      "latitude": 29.16783,
      "longitude": -95.43426
    },
    {
      "id": 4676153,
      "name": "Brazos",
      "nativeName": "Brazos County",
      "code": "US-TX-4676153",
      "countryId": 6252001,
      "countryCode": "US",
      "stateCode": "US-TX",
      "latitude": 30.6608,
      "longitude": -96.30239
    },
    {
      "id": 5517580,
      "name": "Brewster",
      "nativeName": "Brewster County",
      "code": "US-TX-5517580",
      "countryId": 6252001,
      "countryCode": "US",
      "stateCode": "US-TX",
      "latitude": 29.81195,
      "longitude": -103.25176
    },
    {
      "id": 5517598,
      "name": "Briscoe",
      "nativeName": "Briscoe County",
      "code": "US-TX-5517598",
      "countryId": 6252001,
      "countryCode": "US",
      "stateCode": "US-TX",
      "latitude": 34.53026,
      "longitude": -101.20859
    },
    {
      "id": 4676547,
      "name": "Brooks",
      "nativeName": "Brooks County",
      "code": "US-TX-4676547",
      "countryId": 6252001,
      "countryCode": "US",
      "stateCode": "US-TX",
      "latitude": 27.03157,
      "longitude": -98.21872
    },
    {
      "id": 4676632,
      "name": "Brown",
      "nativeName": "Brown County",
      "code": "US-TX-4676632",
      "countryId": 6252001,
      "countryCode": "US",
      "stateCode": "US-TX",
      "latitude": 31.77426,
      "longitude": -98.99979
    },
    {
      "id": 4677558,
      "name": "Burleson",
      "nativeName": "Burleson County",
      "code": "US-TX-4677558",
      "countryId": 6252001,
      "countryCode": "US",
      "stateCode": "US-TX",
      "latitude": 30.49248,
      "longitude": -96.62146
    },
    {
      "id": 4677612,
      "name": "Burnet",
      "nativeName": "Burnet County",
      "code": "US-TX-4677612",
      "countryId": 6252001,
      "countryCode": "US",
      "stateCode": "US-TX",
      "latitude": 30.7883,
      "longitude": -98.18245
    },
    {
      "id": 4678113,
      "name": "Caldwell",
      "nativeName": "Caldwell County",
      "code": "US-TX-4678113",
      "countryId": 6252001,
      "countryCode": "US",
      "stateCode": "US-TX",
      "latitude": 29.83712,
      "longitude": -97.62
    },
    {
      "id": 4678165,
      "name": "Calhoun",
      "nativeName": "Calhoun County",
      "code": "US-TX-4678165",
      "countryId": 6252001,
      "countryCode": "US",
      "stateCode": "US-TX",
      "latitude": 28.43911,
      "longitude": -96.61507
    },
    {
      "id": 4678206,
      "name": "Callahan",
      "nativeName": "Callahan County",
      "code": "US-TX-4678206",
      "countryId": 6252001,
      "countryCode": "US",
      "stateCode": "US-TX",
      "latitude": 32.29766,
      "longitude": -99.37349
    },
    {
      "id": 4678364,
      "name": "Cameron",
      "nativeName": "Cameron County",
      "code": "US-TX-4678364",
      "countryId": 6252001,
      "countryCode": "US",
      "stateCode": "US-TX",
      "latitude": 26.1515,
      "longitude": -97.45286
    },
    {
      "id": 4678446,
      "name": "Camp",
      "nativeName": "Camp County",
      "code": "US-TX-4678446",
      "countryId": 6252001,
      "countryCode": "US",
      "stateCode": "US-TX",
      "latitude": 32.97322,
      "longitude": -94.97848
    },
    {
      "id": 5518353,
      "name": "Carson",
      "nativeName": "Carson County",
      "code": "US-TX-5518353",
      "countryId": 6252001,
      "countryCode": "US",
      "stateCode": "US-TX",
      "latitude": 35.40351,
      "longitude": -101.35418
    },
    {
      "id": 4679435,
      "name": "Cass",
      "nativeName": "Cass County",
      "code": "US-TX-4679435",
      "countryId": 6252001,
      "countryCode": "US",
      "stateCode": "US-TX",
      "latitude": 33.07754,
      "longitude": -94.34359
    },
    {
      "id": 5518431,
      "name": "Castro",
      "nativeName": "Castro County",
      "code": "US-TX-5518431",
      "countryId": 6252001,
      "countryCode": "US",
      "stateCode": "US-TX",
      "latitude": 34.52996,
      "longitude": -102.26167
    },
    {
      "id": 4680335,
      "name": "Chambers",
      "nativeName": "Chambers County",
      "code": "US-TX-4680335",
      "countryId": 6252001,
      "countryCode": "US",
      "stateCode": "US-TX",
      "latitude": 29.70826,
      "longitude": -94.67138
    },
    {
      "id": 4680611,
      "name": "Cherokee",
      "nativeName": "Cherokee County",
      "code": "US-TX-4680611",
      "countryId": 6252001,
      "countryCode": "US",
      "stateCode": "US-TX",
      "latitude": 31.83695,
      "longitude": -95.16518
    },
    {
      "id": 5518760,
      "name": "Childress",
      "nativeName": "Childress County",
      "code": "US-TX-5518760",
      "countryId": 6252001,
      "countryCode": "US",
      "stateCode": "US-TX",
      "latitude": 34.5292,
      "longitude": -100.20757
    },
    {
      "id": 4681782,
      "name": "Clay",
      "nativeName": "Clay County",
      "code": "US-TX-4681782",
      "countryId": 6252001,
      "countryCode": "US",
      "stateCode": "US-TX",
      "latitude": 33.78553,
      "longitude": -98.2085
    },
    {
      "id": 5519156,
      "name": "Cochran",
      "nativeName": "Cochran County",
      "code": "US-TX-5519156",
      "countryId": 6252001,
      "countryCode": "US",
      "stateCode": "US-TX",
      "latitude": 33.60414,
      "longitude": -102.82846
    },
    {
      "id": 5519174,
      "name": "Coke",
      "nativeName": "Coke County",
      "code": "US-TX-5519174",
      "countryId": 6252001,
      "countryCode": "US",
      "stateCode": "US-TX",
      "latitude": 31.88853,
      "longitude": -100.52991
    },
    {
      "id": 4682392,
      "name": "Coleman",
      "nativeName": "Coleman County",
      "code": "US-TX-4682392",
      "countryId": 6252001,
      "countryCode": "US",
      "stateCode": "US-TX",
      "latitude": 31.77321,
      "longitude": -99.45364
    },
    {
      "id": 4682500,
      "name": "Collin",
      "nativeName": "Collin County",
      "code": "US-TX-4682500",
      "countryId": 6252001,
      "countryCode": "US",
      "stateCode": "US-TX",
      "latitude": 33.18791,
      "longitude": -96.57237
    },
    {
      "id": 5519229,
      "name": "Collingsworth",
      "nativeName": "Collingsworth County",
      "code": "US-TX-5519229",
      "countryId": 6252001,
      "countryCode": "US",
      "stateCode": "US-TX",
      "latitude": 34.96488,
      "longitude": -100.27007
    },
    {
      "id": 4682626,
      "name": "Colorado",
      "nativeName": "Colorado County",
      "code": "US-TX-4682626",
      "countryId": 6252001,
      "countryCode": "US",
      "stateCode": "US-TX",
      "latitude": 29.62082,
      "longitude": -96.52628
    },
    {
      "id": 4682688,
      "name": "Comal",
      "nativeName": "Comal County",
      "code": "US-TX-4682688",
      "countryId": 6252001,
      "countryCode": "US",
      "stateCode": "US-TX",
      "latitude": 29.80818,
      "longitude": -98.27825
    },
    {
      "id": 4682707,
      "name": "Comanche",
      "nativeName": "Comanche County",
      "code": "US-TX-4682707",
      "countryId": 6252001,
      "countryCode": "US",
      "stateCode": "US-TX",
      "latitude": 31.94798,
      "longitude": -98.55826
    },
    {
      "id": 4682862,
      "name": "Concho",
      "nativeName": "Concho County",
      "code": "US-TX-4682862",
      "countryId": 6252001,
      "countryCode": "US",
      "stateCode": "US-TX",
      "latitude": 31.3265,
      "longitude": -99.86396
    },
    {
      "id": 4683066,
      "name": "Cooke",
      "nativeName": "Cooke County",
      "code": "US-TX-4683066",
      "countryId": 6252001,
      "countryCode": "US",
      "stateCode": "US-TX",
      "latitude": 33.63919,
      "longitude": -97.21262
    },
    {
      "id": 4683477,
      "name": "Coryell",
      "nativeName": "Coryell County",
      "code": "US-TX-4683477",
      "countryId": 6252001,
      "countryCode": "US",
      "stateCode": "US-TX",
      "latitude": 31.39091,
      "longitude": -97.7992
    },
    {
      "id": 5519440,
      "name": "Cottle",
      "nativeName": "Cottle County",
      "code": "US-TX-5519440",
      "countryId": 6252001,
      "countryCode": "US",
      "stateCode": "US-TX",
      "latitude": 34.07765,
      "longitude": -100.27874
    },
    {
      "id": 5519649,
      "name": "Crane",
      "nativeName": "Crane County",
      "code": "US-TX-5519649",
      "countryId": 6252001,
      "countryCode": "US",
      "stateCode": "US-TX",
      "latitude": 31.4285,
      "longitude": -102.51557
    },
    {
      "id": 5519699,
      "name": "Crockett",
      "nativeName": "Crockett County",
      "code": "US-TX-5519699",
      "countryId": 6252001,
      "countryCode": "US",
      "stateCode": "US-TX",
      "latitude": 30.72298,
      "longitude": -101.41215
    },
    {
      "id": 5519715,
      "name": "Crosby",
      "nativeName": "Crosby County",
      "code": "US-TX-5519715",
      "countryId": 6252001,
      "countryCode": "US",
      "stateCode": "US-TX",
      "latitude": 33.61462,
      "longitude": -101.29996
    },
    {
      "id": 5519788,
      "name": "Culberson",
      "nativeName": "Culberson County",
      "code": "US-TX-5519788",
      "countryId": 6252001,
      "countryCode": "US",
      "stateCode": "US-TX",
      "latitude": 31.44716,
      "longitude": -104.51742
    },
    {
      "id": 5519868,
      "name": "Dallam",
      "nativeName": "Dallam County",
      "code": "US-TX-5519868",
      "countryId": 6252001,
      "countryCode": "US",
      "stateCode": "US-TX",
      "latitude": 36.27789,
      "longitude": -102.60222
    },
    {
      "id": 4684904,
      "name": "Dallas",
      "nativeName": "Dallas County",
      "code": "US-TX-4684904",
      "countryId": 6252001,
      "countryCode": "US",
      "stateCode": "US-TX",
      "latitude": 32.76663,
      "longitude": -96.77787
    },
    {
      "id": 5519946,
      "name": "Dawson",
      "nativeName": "Dawson County",
      "code": "US-TX-5519946",
      "countryId": 6252001,
      "countryCode": "US",
      "stateCode": "US-TX",
      "latitude": 32.74253,
      "longitude": -101.94768
    },
    {
      "id": 4685527,
      "name": "DeWitt",
      "nativeName": "DeWitt County",
      "code": "US-TX-4685527",
      "countryId": 6252001,
      "countryCode": "US",
      "stateCode": "US-TX",
      "latitude": 29.08208,
      "longitude": -97.35678
    },
    {
      "id": 5520004,
      "name": "Deaf Smith",
      "nativeName": "Deaf Smith County",
      "code": "US-TX-5520004",
      "countryId": 6252001,
      "countryCode": "US",
      "stateCode": "US-TX",
      "latitude": 34.96602,
      "longitude": -102.60494
    },
    {
      "id": 4685841,
      "name": "Delta",
      "nativeName": "Delta County",
      "code": "US-TX-4685841",
      "countryId": 6252001,
      "countryCode": "US",
      "stateCode": "US-TX",
      "latitude": 33.38629,
      "longitude": -95.67227
    },
    {
      "id": 4685912,
      "name": "Denton",
      "nativeName": "Denton County",
      "code": "US-TX-4685912",
      "countryId": 6252001,
      "countryCode": "US",
      "stateCode": "US-TX",
      "latitude": 33.20526,
      "longitude": -97.11697
    },
    {
      "id": 5520187,
      "name": "Dickens",
      "nativeName": "Dickens County",
      "code": "US-TX-5520187",
      "countryId": 6252001,
      "countryCode": "US",
      "stateCode": "US-TX",
      "latitude": 33.61661,
      "longitude": -100.77886
    },
    {
      "id": 4686231,
      "name": "Dimmit",
      "nativeName": "Dimmit County",
      "code": "US-TX-4686231",
      "countryId": 6252001,
      "countryCode": "US",
      "stateCode": "US-TX",
      "latitude": 28.42254,
      "longitude": -99.75673
    },
    {
      "id": 5520330,
      "name": "Donley",
      "nativeName": "Donley County",
      "code": "US-TX-5520330",
      "countryId": 6252001,
      "countryCode": "US",
      "stateCode": "US-TX",
      "latitude": 34.96542,
      "longitude": -100.81399
    },
    {
      "id": 4687437,
      "name": "Duval",
      "nativeName": "Duval County",
      "code": "US-TX-4687437",
      "countryId": 6252001,
      "countryCode": "US",
      "stateCode": "US-TX",
      "latitude": 27.68133,
      "longitude": -98.50891
    },
    {
      "id": 4688072,
      "name": "Eastland",
      "nativeName": "Eastland County",
      "code": "US-TX-4688072",
      "countryId": 6252001,
      "countryCode": "US",
      "stateCode": "US-TX",
      "latitude": 32.32707,
      "longitude": -98.83232
    },
    {
      "id": 5520910,
      "name": "Ector",
      "nativeName": "Ector County",
      "code": "US-TX-5520910",
      "countryId": 6252001,
      "countryCode": "US",
      "stateCode": "US-TX",
      "latitude": 31.86916,
      "longitude": -102.54276
    },
    {
      "id": 5520940,
      "name": "Edwards",
      "nativeName": "Edwards County",
      "code": "US-TX-5520940",
      "countryId": 6252001,
      "countryCode": "US",
      "stateCode": "US-TX",
      "latitude": 29.98263,
      "longitude": -100.30474
    },
    {
      "id": 5521001,
      "name": "El Paso",
      "nativeName": "El Paso County",
      "code": "US-TX-5521001",
      "countryId": 6252001,
      "countryCode": "US",
      "stateCode": "US-TX",
      "latitude": 31.76855,
      "longitude": -106.23483
    },
    {
      "id": 4688864,
      "name": "Ellis",
      "nativeName": "Ellis County",
      "code": "US-TX-4688864",
      "countryId": 6252001,
      "countryCode": "US",
      "stateCode": "US-TX",
      "latitude": 32.34843,
      "longitude": -96.79448
    },
    {
      "id": 4689391,
      "name": "Erath",
      "nativeName": "Erath County",
      "code": "US-TX-4689391",
      "countryId": 6252001,
      "countryCode": "US",
      "stateCode": "US-TX",
      "latitude": 32.23626,
      "longitude": -98.21797
    },
    {
      "id": 4690103,
      "name": "Falls",
      "nativeName": "Falls County",
      "code": "US-TX-4690103",
      "countryId": 6252001,
      "countryCode": "US",
      "stateCode": "US-TX",
      "latitude": 31.25327,
      "longitude": -96.93585
    },
    {
      "id": 4690140,
      "name": "Fannin",
      "nativeName": "Fannin County",
      "code": "US-TX-4690140",
      "countryId": 6252001,
      "countryCode": "US",
      "stateCode": "US-TX",
      "latitude": 33.59381,
      "longitude": -96.10683
    },
    {
      "id": 4690287,
      "name": "Fayette",
      "nativeName": "Fayette County",
      "code": "US-TX-4690287",
      "countryId": 6252001,
      "countryCode": "US",
      "stateCode": "US-TX",
      "latitude": 29.87679,
      "longitude": -96.91976
    },
    {
      "id": 5521544,
      "name": "Fisher",
      "nativeName": "Fisher County",
      "code": "US-TX-5521544",
      "countryId": 6252001,
      "countryCode": "US",
      "stateCode": "US-TX",
      "latitude": 32.74282,
      "longitude": -100.40217
    },
    {
      "id": 5521640,
      "name": "Floyd",
      "nativeName": "Floyd County",
      "code": "US-TX-5521640",
      "countryId": 6252001,
      "countryCode": "US",
      "stateCode": "US-TX",
      "latitude": 34.07242,
      "longitude": -101.30323
    },
    {
      "id": 4691668,
      "name": "Foard",
      "nativeName": "Foard County",
      "code": "US-TX-4691668",
      "countryId": 6252001,
      "countryCode": "US",
      "stateCode": "US-TX",
      "latitude": 33.97462,
      "longitude": -99.77798
    },
    {
      "id": 4691851,
      "name": "Fort Bend",
      "nativeName": "Fort Bend County",
      "code": "US-TX-4691851",
      "countryId": 6252001,
      "countryCode": "US",
      "stateCode": "US-TX",
      "latitude": 29.52749,
      "longitude": -95.77089
    },
    {
      "id": 4692203,
      "name": "Franklin",
      "nativeName": "Franklin County",
      "code": "US-TX-4692203",
      "countryId": 6252001,
      "countryCode": "US",
      "stateCode": "US-TX",
      "latitude": 33.17555,
      "longitude": -95.21842
    },
    {
      "id": 4692377,
      "name": "Freestone",
      "nativeName": "Freestone County",
      "code": "US-TX-4692377",
      "countryId": 6252001,
      "countryCode": "US",
      "stateCode": "US-TX",
      "latitude": 31.70489,
      "longitude": -96.14909
    },
    {
      "id": 4692545,
      "name": "Frio",
      "nativeName": "Frio County",
      "code": "US-TX-4692545",
      "countryId": 6252001,
      "countryCode": "US",
      "stateCode": "US-TX",
      "latitude": 28.86782,
      "longitude": -99.10827
    },
    {
      "id": 5521974,
      "name": "Gaines",
      "nativeName": "Gaines County",
      "code": "US-TX-5521974",
      "countryId": 6252001,
      "countryCode": "US",
      "stateCode": "US-TX",
      "latitude": 32.74073,
      "longitude": -102.63518
    },
    {
      "id": 4692856,
      "name": "Galveston",
      "nativeName": "Galveston County",
      "code": "US-TX-4692856",
      "countryId": 6252001,
      "countryCode": "US",
      "stateCode": "US-TX",
      "latitude": 29.29767,
      "longitude": -94.81087
    },
    {
      "id": 5522043,
      "name": "Garza",
      "nativeName": "Garza County",
      "code": "US-TX-5522043",
      "countryId": 6252001,
      "countryCode": "US",
      "stateCode": "US-TX",
      "latitude": 33.17988,
      "longitude": -101.29842
    },
    {
      "id": 5522162,
      "name": "Glasscock",
      "nativeName": "Glasscock County",
      "code": "US-TX-5522162",
      "countryId": 6252001,
      "countryCode": "US",
      "stateCode": "US-TX",
      "latitude": 31.86946,
      "longitude": -101.5208
    },
    {
      "id": 5522430,
      "name": "Gray",
      "nativeName": "Gray County",
      "code": "US-TX-5522430",
      "countryId": 6252001,
      "countryCode": "US",
      "stateCode": "US-TX",
      "latitude": 35.40116,
      "longitude": -100.81256
    },
    {
      "id": 5522717,
      "name": "Hale",
      "nativeName": "Hale County",
      "code": "US-TX-5522717",
      "countryId": 6252001,
      "countryCode": "US",
      "stateCode": "US-TX",
      "latitude": 34.07051,
      "longitude": -101.82688
    },
    {
      "id": 5522740,
      "name": "Hall",
      "nativeName": "Hall County",
      "code": "US-TX-5522740",
      "countryId": 6252001,
      "countryCode": "US",
      "stateCode": "US-TX",
      "latitude": 34.53078,
      "longitude": -100.68113
    },
    {
      "id": 5522806,
      "name": "Hansford",
      "nativeName": "Hansford County",
      "code": "US-TX-5522806",
      "countryId": 6252001,
      "countryCode": "US",
      "stateCode": "US-TX",
      "latitude": 36.27745,
      "longitude": -101.35454
    },
    {
      "id": 5522887,
      "name": "Hartley",
      "nativeName": "Hartley County",
      "code": "US-TX-5522887",
      "countryId": 6252001,
      "countryCode": "US",
      "stateCode": "US-TX",
      "latitude": 35.84002,
      "longitude": -102.60289
    },
    {
      "id": 5523019,
      "name": "Hemphill",
      "nativeName": "Hemphill County",
      "code": "US-TX-5523019",
      "countryId": 6252001,
      "countryCode": "US",
      "stateCode": "US-TX",
      "latitude": 35.83757,
      "longitude": -100.27047
    },
    {
      "id": 5523240,
      "name": "Hockley",
      "nativeName": "Hockley County",
      "code": "US-TX-5523240",
      "countryId": 6252001,
      "countryCode": "US",
      "stateCode": "US-TX",
      "latitude": 33.60764,
      "longitude": -102.3432
    },
    {
      "id": 5523520,
      "name": "Howard",
      "nativeName": "Howard County",
      "code": "US-TX-5523520",
      "countryId": 6252001,
      "countryCode": "US",
      "stateCode": "US-TX",
      "latitude": 32.30617,
      "longitude": -101.43551
    },
    {
      "id": 5523551,
      "name": "Hudspeth",
      "nativeName": "Hudspeth County",
      "code": "US-TX-5523551",
      "countryId": 6252001,
      "countryCode": "US",
      "stateCode": "US-TX",
      "latitude": 31.45618,
      "longitude": -105.38646
    },
    {
      "id": 5523630,
      "name": "Hutchinson",
      "nativeName": "Hutchinson County",
      "code": "US-TX-5523630",
      "countryId": 6252001,
      "countryCode": "US",
      "stateCode": "US-TX",
      "latitude": 35.84003,
      "longitude": -101.3547
    },
    {
      "id": 5523809,
      "name": "Irion",
      "nativeName": "Irion County",
      "code": "US-TX-5523809",
      "countryId": 6252001,
      "countryCode": "US",
      "stateCode": "US-TX",
      "latitude": 31.30392,
      "longitude": -100.98242
    },
    {
      "id": 5523967,
      "name": "Jeff Davis",
      "nativeName": "Jeff Davis County",
      "code": "US-TX-5523967",
      "countryId": 6252001,
      "countryCode": "US",
      "stateCode": "US-TX",
      "latitude": 30.71548,
      "longitude": -104.14002
    },
    {
      "id": 4701348,
      "name": "Johnson",
      "nativeName": "Johnson County",
      "code": "US-TX-4701348",
      "countryId": 6252001,
      "countryCode": "US",
      "stateCode": "US-TX",
      "latitude": 32.37901,
      "longitude": -97.36633
    },
    {
      "id": 4701505,
      "name": "Jones",
      "nativeName": "Jones County",
      "code": "US-TX-4701505",
      "countryId": 6252001,
      "countryCode": "US",
      "stateCode": "US-TX",
      "latitude": 32.7399,
      "longitude": -99.87874
    },
    {
      "id": 4702669,
      "name": "Karnes",
      "nativeName": "Karnes County",
      "code": "US-TX-4702669",
      "countryId": 6252001,
      "countryCode": "US",
      "stateCode": "US-TX",
      "latitude": 28.90574,
      "longitude": -97.8594
    },
    {
      "id": 4702735,
      "name": "Kaufman",
      "nativeName": "Kaufman County",
      "code": "US-TX-4702735",
      "countryId": 6252001,
      "countryCode": "US",
      "stateCode": "US-TX",
      "latitude": 32.5993,
      "longitude": -96.2878
    },
    {
      "id": 4702947,
      "name": "Kendall",
      "nativeName": "Kendall County",
      "code": "US-TX-4702947",
      "countryId": 6252001,
      "countryCode": "US",
      "stateCode": "US-TX",
      "latitude": 29.94469,
      "longitude": -98.71156
    },
    {
      "id": 4702968,
      "name": "Kenedy",
      "nativeName": "Kenedy County",
      "code": "US-TX-4702968",
      "countryId": 6252001,
      "countryCode": "US",
      "stateCode": "US-TX",
      "latitude": 26.92802,
      "longitude": -97.63646
    },
    {
      "id": 5524519,
      "name": "Kent",
      "nativeName": "Kent County",
      "code": "US-TX-5524519",
      "countryId": 6252001,
      "countryCode": "US",
      "stateCode": "US-TX",
      "latitude": 33.18142,
      "longitude": -100.77757
    },
    {
      "id": 4703071,
      "name": "Kerr",
      "nativeName": "Kerr County",
      "code": "US-TX-4703071",
      "countryId": 6252001,
      "countryCode": "US",
      "stateCode": "US-TX",
      "latitude": 30.06148,
      "longitude": -99.35016
    },
    {
      "id": 4703256,
      "name": "Kimble",
      "nativeName": "Kimble County",
      "code": "US-TX-4703256",
      "countryId": 6252001,
      "countryCode": "US",
      "stateCode": "US-TX",
      "latitude": 30.48678,
      "longitude": -99.7487
    },
    {
      "id": 5524574,
      "name": "King",
      "nativeName": "King County",
      "code": "US-TX-5524574",
      "countryId": 6252001,
      "countryCode": "US",
      "stateCode": "US-TX",
      "latitude": 33.61648,
      "longitude": -100.25585
    },
    {
      "id": 5524590,
      "name": "Kinney",
      "nativeName": "Kinney County",
      "code": "US-TX-5524590",
      "countryId": 6252001,
      "countryCode": "US",
      "stateCode": "US-TX",
      "latitude": 29.35021,
      "longitude": -100.41795
    },
    {
      "id": 4703486,
      "name": "Kleberg",
      "nativeName": "Kleberg County",
      "code": "US-TX-4703486",
      "countryId": 6252001,
      "countryCode": "US",
      "stateCode": "US-TX",
      "latitude": 27.42671,
      "longitude": -97.66839
    },
    {
      "id": 4703582,
      "name": "Knox",
      "nativeName": "Knox County",
      "code": "US-TX-4703582",
      "countryId": 6252001,
      "countryCode": "US",
      "stateCode": "US-TX",
      "latitude": 33.60613,
      "longitude": -99.74143
    },
    {
      "id": 4704157,
      "name": "La Salle",
      "nativeName": "La Salle County",
      "code": "US-TX-4704157",
      "countryId": 6252001,
      "countryCode": "US",
      "stateCode": "US-TX",
      "latitude": 28.34507,
      "longitude": -99.09966
    },
    {
      "id": 4705086,
      "name": "Lamar",
      "nativeName": "Lamar County",
      "code": "US-TX-4705086",
      "countryId": 6252001,
      "countryCode": "US",
      "stateCode": "US-TX",
      "latitude": 33.66726,
      "longitude": -95.5712
    },
    {
      "id": 5524844,
      "name": "Lamb",
      "nativeName": "Lamb County",
      "code": "US-TX-5524844",
      "countryId": 6252001,
      "countryCode": "US",
      "stateCode": "US-TX",
      "latitude": 34.06862,
      "longitude": -102.35171
    },
    {
      "id": 4705179,
      "name": "Lampasas",
      "nativeName": "Lampasas County",
      "code": "US-TX-4705179",
      "countryId": 6252001,
      "countryCode": "US",
      "stateCode": "US-TX",
      "latitude": 31.19619,
      "longitude": -98.24145
    },
    {
      "id": 4705575,
      "name": "Lavaca",
      "nativeName": "Lavaca County",
      "code": "US-TX-4705575",
      "countryId": 6252001,
      "countryCode": "US",
      "stateCode": "US-TX",
      "latitude": 29.38435,
      "longitude": -96.93015
    },
    {
      "id": 4705758,
      "name": "Lee",
      "nativeName": "Lee County",
      "code": "US-TX-4705758",
      "countryId": 6252001,
      "countryCode": "US",
      "stateCode": "US-TX",
      "latitude": 30.31068,
      "longitude": -96.9657
    },
    {
      "id": 4705899,
      "name": "Leon",
      "nativeName": "Leon County",
      "code": "US-TX-4705899",
      "countryId": 6252001,
      "countryCode": "US",
      "stateCode": "US-TX",
      "latitude": 31.29651,
      "longitude": -95.99569
    },
    {
      "id": 4706143,
      "name": "Liberty",
      "nativeName": "Liberty County",
      "code": "US-TX-4706143",
      "countryId": 6252001,
      "countryCode": "US",
      "stateCode": "US-TX",
      "latitude": 30.15161,
      "longitude": -94.81221
    },
    {
      "id": 4706335,
      "name": "Limestone",
      "nativeName": "Limestone County",
      "code": "US-TX-4706335",
      "countryId": 6252001,
      "countryCode": "US",
      "stateCode": "US-TX",
      "latitude": 31.54546,
      "longitude": -96.58053
    },
    {
      "id": 5525131,
      "name": "Lipscomb",
      "nativeName": "Lipscomb County",
      "code": "US-TX-5525131",
      "countryId": 6252001,
      "countryCode": "US",
      "stateCode": "US-TX",
      "latitude": 36.27771,
      "longitude": -100.27312
    },
    {
      "id": 4707076,
      "name": "Live Oak",
      "nativeName": "Live Oak County",
      "code": "US-TX-4707076",
      "countryId": 6252001,
      "countryCode": "US",
      "stateCode": "US-TX",
      "latitude": 28.35137,
      "longitude": -98.12479
    },
    {
      "id": 4707196,
      "name": "Llano",
      "nativeName": "Llano County",
      "code": "US-TX-4707196",
      "countryId": 6252001,
      "countryCode": "US",
      "stateCode": "US-TX",
      "latitude": 30.70574,
      "longitude": -98.6841
    },
    {
      "id": 5525514,
      "name": "Loving",
      "nativeName": "Loving County",
      "code": "US-TX-5525514",
      "countryId": 6252001,
      "countryCode": "US",
      "stateCode": "US-TX",
      "latitude": 31.84923,
      "longitude": -103.57996
    },
    {
      "id": 5525584,
      "name": "Lubbock",
      "nativeName": "Lubbock County",
      "code": "US-TX-5525584",
      "countryId": 6252001,
      "countryCode": "US",
      "stateCode": "US-TX",
      "latitude": 33.61021,
      "longitude": -101.82055
    },
    {
      "id": 5525637,
      "name": "Lynn",
      "nativeName": "Lynn County",
      "code": "US-TX-5525637",
      "countryId": 6252001,
      "countryCode": "US",
      "stateCode": "US-TX",
      "latitude": 33.17682,
      "longitude": -101.81612
    },
    {
      "id": 4708691,
      "name": "Madison",
      "nativeName": "Madison County",
      "code": "US-TX-4708691",
      "countryId": 6252001,
      "countryCode": "US",
      "stateCode": "US-TX",
      "latitude": 30.96554,
      "longitude": -95.92841
    },
    {
      "id": 4709165,
      "name": "Marion",
      "nativeName": "Marion County",
      "code": "US-TX-4709165",
      "countryId": 6252001,
      "countryCode": "US",
      "stateCode": "US-TX",
      "latitude": 32.79798,
      "longitude": -94.35722
    },
    {
      "id": 5525816,
      "name": "Martin",
      "nativeName": "Martin County",
      "code": "US-TX-5525816",
      "countryId": 6252001,
      "countryCode": "US",
      "stateCode": "US-TX",
      "latitude": 32.30603,
      "longitude": -101.95122
    },
    {
      "id": 5525886,
      "name": "Maverick",
      "nativeName": "Maverick County",
      "code": "US-TX-5525886",
      "countryId": 6252001,
      "countryCode": "US",
      "stateCode": "US-TX",
      "latitude": 28.74259,
      "longitude": -100.31451
    },
    {
      "id": 4709977,
      "name": "McCulloch",
      "nativeName": "McCulloch County",
      "code": "US-TX-4709977",
      "countryId": 6252001,
      "countryCode": "US",
      "stateCode": "US-TX",
      "latitude": 31.19887,
      "longitude": -99.34748
    },
    {
      "id": 4710229,
      "name": "McLennan",
      "nativeName": "McLennan County",
      "code": "US-TX-4710229",
      "countryId": 6252001,
      "countryCode": "US",
      "stateCode": "US-TX",
      "latitude": 31.55238,
      "longitude": -97.20179
    },
    {
      "id": 4710259,
      "name": "McMullen",
      "nativeName": "McMullen County",
      "code": "US-TX-4710259",
      "countryId": 6252001,
      "countryCode": "US",
      "stateCode": "US-TX",
      "latitude": 28.35269,
      "longitude": -98.56784
    },
    {
      "id": 4710490,
      "name": "Medina",
      "nativeName": "Medina County",
      "code": "US-TX-4710490",
      "countryId": 6252001,
      "countryCode": "US",
      "stateCode": "US-TX",
      "latitude": 29.3557,
      "longitude": -99.11013
    },
    {
      "id": 4710698,
      "name": "Menard",
      "nativeName": "Menard County",
      "code": "US-TX-4710698",
      "countryId": 6252001,
      "countryCode": "US",
      "stateCode": "US-TX",
      "latitude": 30.88978,
      "longitude": -99.82064
    },
    {
      "id": 5526341,
      "name": "Midland",
      "nativeName": "Midland County",
      "code": "US-TX-5526341",
      "countryId": 6252001,
      "countryCode": "US",
      "stateCode": "US-TX",
      "latitude": 31.86917,
      "longitude": -102.03162
    },
    {
      "id": 4711286,
      "name": "Milam",
      "nativeName": "Milam County",
      "code": "US-TX-4711286",
      "countryId": 6252001,
      "countryCode": "US",
      "stateCode": "US-TX",
      "latitude": 30.78634,
      "longitude": -96.97685
    },
    {
      "id": 4711560,
      "name": "Mills",
      "nativeName": "Mills County",
      "code": "US-TX-4711560",
      "countryId": 6252001,
      "countryCode": "US",
      "stateCode": "US-TX",
      "latitude": 31.49519,
      "longitude": -98.59546
    },
    {
      "id": 5526473,
      "name": "Mitchell",
      "nativeName": "Mitchell County",
      "code": "US-TX-5526473",
      "countryId": 6252001,
      "countryCode": "US",
      "stateCode": "US-TX",
      "latitude": 32.30621,
      "longitude": -100.92123
    },
    {
      "id": 4711974,
      "name": "Montague",
      "nativeName": "Montague County",
      "code": "US-TX-4711974",
      "countryId": 6252001,
      "countryCode": "US",
      "stateCode": "US-TX",
      "latitude": 33.67563,
      "longitude": -97.72465
    },
    {
      "id": 4712041,
      "name": "Montgomery",
      "nativeName": "Montgomery County",
      "code": "US-TX-4712041",
      "countryId": 6252001,
      "countryCode": "US",
      "stateCode": "US-TX",
      "latitude": 30.30021,
      "longitude": -95.50301
    },
    {
      "id": 5526589,
      "name": "Moore",
      "nativeName": "Moore County",
      "code": "US-TX-5526589",
      "countryId": 6252001,
      "countryCode": "US",
      "stateCode": "US-TX",
      "latitude": 35.83769,
      "longitude": -101.89292
    },
    {
      "id": 4712390,
      "name": "Morris",
      "nativeName": "Morris County",
      "code": "US-TX-4712390",
      "countryId": 6252001,
      "countryCode": "US",
      "stateCode": "US-TX",
      "latitude": 33.11348,
      "longitude": -94.73265
    },
    {
      "id": 5526681,
      "name": "Motley",
      "nativeName": "Motley County",
      "code": "US-TX-5526681",
      "countryId": 6252001,
      "countryCode": "US",
      "stateCode": "US-TX",
      "latitude": 34.07409,
      "longitude": -100.77983
    },
    {
      "id": 4713738,
      "name": "Nacogdoches",
      "nativeName": "Nacogdoches County",
      "code": "US-TX-4713738",
      "countryId": 6252001,
      "countryCode": "US",
      "stateCode": "US-TX",
      "latitude": 31.61598,
      "longitude": -94.61587
    },
    {
      "id": 4713849,
      "name": "Navarro",
      "nativeName": "Navarro County",
      "code": "US-TX-4713849",
      "countryId": 6252001,
      "countryCode": "US",
      "stateCode": "US-TX",
      "latitude": 32.04693,
      "longitude": -96.47249
    },
    {
      "id": 4714720,
      "name": "Newton",
      "nativeName": "Newton County",
      "code": "US-TX-4714720",
      "countryId": 6252001,
      "countryCode": "US",
      "stateCode": "US-TX",
      "latitude": 30.78631,
      "longitude": -93.74474
    },
    {
      "id": 5527151,
      "name": "Nolan",
      "nativeName": "Nolan County",
      "code": "US-TX-5527151",
      "countryId": 6252001,
      "countryCode": "US",
      "stateCode": "US-TX",
      "latitude": 32.30349,
      "longitude": -100.40605
    },
    {
      "id": 4715635,
      "name": "Nueces",
      "nativeName": "Nueces County",
      "code": "US-TX-4715635",
      "countryId": 6252001,
      "countryCode": "US",
      "stateCode": "US-TX",
      "latitude": 27.73506,
      "longitude": -97.51632
    },
    {
      "id": 5527543,
      "name": "Ochiltree",
      "nativeName": "Ochiltree County",
      "code": "US-TX-5527543",
      "countryId": 6252001,
      "countryCode": "US",
      "stateCode": "US-TX",
      "latitude": 36.27841,
      "longitude": -100.81565
    },
    {
      "id": 5527746,
      "name": "Oldham",
      "nativeName": "Oldham County",
      "code": "US-TX-5527746",
      "countryId": 6252001,
      "countryCode": "US",
      "stateCode": "US-TX",
      "latitude": 35.40502,
      "longitude": -102.60287
    },
    {
      "id": 4716826,
      "name": "Orange",
      "nativeName": "Orange County",
      "code": "US-TX-4716826",
      "countryId": 6252001,
      "countryCode": "US",
      "stateCode": "US-TX",
      "latitude": 30.12131,
      "longitude": -93.8939
    },
    {
      "id": 4717377,
      "name": "Palo Pinto",
      "nativeName": "Palo Pinto County",
      "code": "US-TX-4717377",
      "countryId": 6252001,
      "countryCode": "US",
      "stateCode": "US-TX",
      "latitude": 32.75318,
      "longitude": -98.31302
    },
    {
      "id": 4717434,
      "name": "Panola",
      "nativeName": "Panola County",
      "code": "US-TX-4717434",
      "countryId": 6252001,
      "countryCode": "US",
      "stateCode": "US-TX",
      "latitude": 32.16236,
      "longitude": -94.30565
    },
    {
      "id": 4717644,
      "name": "Parker",
      "nativeName": "Parker County",
      "code": "US-TX-4717644",
      "countryId": 6252001,
      "countryCode": "US",
      "stateCode": "US-TX",
      "latitude": 32.77765,
      "longitude": -97.8051
    },
    {
      "id": 5528077,
      "name": "Parmer",
      "nativeName": "Parmer County",
      "code": "US-TX-5528077",
      "countryId": 6252001,
      "countryCode": "US",
      "stateCode": "US-TX",
      "latitude": 34.5301,
      "longitude": -102.78452
    },
    {
      "id": 5528185,
      "name": "Pecos",
      "nativeName": "Pecos County",
      "code": "US-TX-5528185",
      "countryId": 6252001,
      "countryCode": "US",
      "stateCode": "US-TX",
      "latitude": 30.78106,
      "longitude": -102.72357
    },
    {
      "id": 5528613,
      "name": "Potter",
      "nativeName": "Potter County",
      "code": "US-TX-5528613",
      "countryId": 6252001,
      "countryCode": "US",
      "stateCode": "US-TX",
      "latitude": 35.40127,
      "longitude": -101.894
    },
    {
      "id": 5528673,
      "name": "Presidio",
      "nativeName": "Presidio County",
      "code": "US-TX-5528673",
      "countryId": 6252001,
      "countryCode": "US",
      "stateCode": "US-TX",
      "latitude": 29.9998,
      "longitude": -104.24052
    },
    {
      "id": 5528909,
      "name": "Randall",
      "nativeName": "Randall County",
      "code": "US-TX-5528909",
      "countryId": 6252001,
      "countryCode": "US",
      "stateCode": "US-TX",
      "latitude": 34.96585,
      "longitude": -101.89695
    },
    {
      "id": 5528987,
      "name": "Reagan",
      "nativeName": "Reagan County",
      "code": "US-TX-5528987",
      "countryId": 6252001,
      "countryCode": "US",
      "stateCode": "US-TX",
      "latitude": 31.36619,
      "longitude": -101.52301
    },
    {
      "id": 5529174,
      "name": "Reeves",
      "nativeName": "Reeves County",
      "code": "US-TX-5529174",
      "countryId": 6252001,
      "countryCode": "US",
      "stateCode": "US-TX",
      "latitude": 31.32318,
      "longitude": -103.69317
    },
    {
      "id": 5529403,
      "name": "Roberts",
      "nativeName": "Roberts County",
      "code": "US-TX-5529403",
      "countryId": 6252001,
      "countryCode": "US",
      "stateCode": "US-TX",
      "latitude": 35.83849,
      "longitude": -100.81344
    },
    {
      "id": 4723147,
      "name": "Robertson",
      "nativeName": "Robertson County",
      "code": "US-TX-4723147",
      "countryId": 6252001,
      "countryCode": "US",
      "stateCode": "US-TX",
      "latitude": 31.02704,
      "longitude": -96.51279
    },
    {
      "id": 4723410,
      "name": "Rockwall",
      "nativeName": "Rockwall County",
      "code": "US-TX-4723410",
      "countryId": 6252001,
      "countryCode": "US",
      "stateCode": "US-TX",
      "latitude": 32.89773,
      "longitude": -96.40777
    },
    {
      "id": 4724312,
      "name": "Runnels",
      "nativeName": "Runnels County",
      "code": "US-TX-4724312",
      "countryId": 6252001,
      "countryCode": "US",
      "stateCode": "US-TX",
      "latitude": 31.8311,
      "longitude": -99.97623
    },
    {
      "id": 4724363,
      "name": "Rusk",
      "nativeName": "Rusk County",
      "code": "US-TX-4724363",
      "countryId": 6252001,
      "countryCode": "US",
      "stateCode": "US-TX",
      "latitude": 32.10772,
      "longitude": -94.76188
    },
    {
      "id": 4724540,
      "name": "Sabine",
      "nativeName": "Sabine County",
      "code": "US-TX-4724540",
      "countryId": 6252001,
      "countryCode": "US",
      "stateCode": "US-TX",
      "latitude": 31.3432,
      "longitude": -93.8518
    },
    {
      "id": 4726259,
      "name": "San Augustine",
      "nativeName": "San Augustine County",
      "code": "US-TX-4726259",
      "countryId": 6252001,
      "countryCode": "US",
      "stateCode": "US-TX",
      "latitude": 31.39422,
      "longitude": -94.16819
    },
    {
      "id": 4726377,
      "name": "San Jacinto",
      "nativeName": "San Jacinto County",
      "code": "US-TX-4726377",
      "countryId": 6252001,
      "countryCode": "US",
      "stateCode": "US-TX",
      "latitude": 30.57953,
      "longitude": -95.1669
    },
    {
      "id": 4726521,
      "name": "San Patricio",
      "nativeName": "San Patricio County",
      "code": "US-TX-4726521",
      "countryId": 6252001,
      "countryCode": "US",
      "stateCode": "US-TX",
      "latitude": 28.00878,
      "longitude": -97.51827
    },
    {
      "id": 4726585,
      "name": "San Saba",
      "nativeName": "San Saba County",
      "code": "US-TX-4726585",
      "countryId": 6252001,
      "countryCode": "US",
      "stateCode": "US-TX",
      "latitude": 31.1552,
      "longitude": -98.81758
    },
    {
      "id": 5530333,
      "name": "Schleicher",
      "nativeName": "Schleicher County",
      "code": "US-TX-5530333",
      "countryId": 6252001,
      "countryCode": "US",
      "stateCode": "US-TX",
      "latitude": 30.89745,
      "longitude": -100.53855
    },
    {
      "id": 5530399,
      "name": "Scurry",
      "nativeName": "Scurry County",
      "code": "US-TX-5530399",
      "countryId": 6252001,
      "countryCode": "US",
      "stateCode": "US-TX",
      "latitude": 32.74632,
      "longitude": -100.91641
    },
    {
      "id": 5530618,
      "name": "Sherman",
      "nativeName": "Sherman County",
      "code": "US-TX-5530618",
      "countryId": 6252001,
      "countryCode": "US",
      "stateCode": "US-TX",
      "latitude": 36.27771,
      "longitude": -101.89348
    },
    {
      "id": 5531748,
      "name": "Sterling",
      "nativeName": "Sterling County",
      "code": "US-TX-5531748",
      "countryId": 6252001,
      "countryCode": "US",
      "stateCode": "US-TX",
      "latitude": 31.82788,
      "longitude": -101.05001
    },
    {
      "id": 5531802,
      "name": "Stonewall",
      "nativeName": "Stonewall County",
      "code": "US-TX-5531802",
      "countryId": 6252001,
      "countryCode": "US",
      "stateCode": "US-TX",
      "latitude": 33.17912,
      "longitude": -100.25331
    },
    {
      "id": 5531955,
      "name": "Sutton",
      "nativeName": "Sutton County",
      "code": "US-TX-5531955",
      "countryId": 6252001,
      "countryCode": "US",
      "stateCode": "US-TX",
      "latitude": 30.49829,
      "longitude": -100.53819
    },
    {
      "id": 5531988,
      "name": "Swisher",
      "nativeName": "Swisher County",
      "code": "US-TX-5531988",
      "countryId": 6252001,
      "countryCode": "US",
      "stateCode": "US-TX",
      "latitude": 34.53039,
      "longitude": -101.73503
    },
    {
      "id": 5532186,
      "name": "Terrell",
      "nativeName": "Terrell County",
      "code": "US-TX-5532186",
      "countryId": 6252001,
      "countryCode": "US",
      "stateCode": "US-TX",
      "latitude": 30.22496,
      "longitude": -102.07649
    },
    {
      "id": 5532197,
      "name": "Terry",
      "nativeName": "Terry County",
      "code": "US-TX-5532197",
      "countryId": 6252001,
      "countryCode": "US",
      "stateCode": "US-TX",
      "latitude": 33.17381,
      "longitude": -102.3352
    },
    {
      "id": 5532405,
      "name": "Tom Green",
      "nativeName": "Tom Green County",
      "code": "US-TX-5532405",
      "countryId": 6252001,
      "countryCode": "US",
      "stateCode": "US-TX",
      "latitude": 31.4044,
      "longitude": -100.46207
    },
    {
      "id": 5532876,
      "name": "Upton",
      "nativeName": "Upton County",
      "code": "US-TX-5532876",
      "countryId": 6252001,
      "countryCode": "US",
      "stateCode": "US-TX",
      "latitude": 31.36873,
      "longitude": -102.04304
    },
    {
      "id": 5532889,
      "name": "Val Verde",
      "nativeName": "Val Verde County",
      "code": "US-TX-5532889",
      "countryId": 6252001,
      "countryCode": "US",
      "stateCode": "US-TX",
      "latitude": 29.89296,
      "longitude": -101.15172
    },
    {
      "id": 5533109,
      "name": "Ward",
      "nativeName": "Ward County",
      "code": "US-TX-5533109",
      "countryId": 6252001,
      "countryCode": "US",
      "stateCode": "US-TX",
      "latitude": 31.50947,
      "longitude": -103.10243
    },
    {
      "id": 4740399,
      "name": "Webb",
      "nativeName": "Webb County",
      "code": "US-TX-4740399",
      "countryId": 6252001,
      "countryCode": "US",
      "stateCode": "US-TX",
      "latitude": 27.76106,
      "longitude": -99.33157
    },
    {
      "id": 4741328,
      "name": "Wharton",
      "nativeName": "Wharton County",
      "code": "US-TX-4741328",
      "countryId": 6252001,
      "countryCode": "US",
      "stateCode": "US-TX",
      "latitude": 29.27786,
      "longitude": -96.2221
    },
    {
      "id": 5533544,
      "name": "Wheeler",
      "nativeName": "Wheeler County",
      "code": "US-TX-5533544",
      "countryId": 6252001,
      "countryCode": "US",
      "stateCode": "US-TX",
      "latitude": 35.40128,
      "longitude": -100.26965
    },
    {
      "id": 4741751,
      "name": "Wichita",
      "nativeName": "Wichita County",
      "code": "US-TX-4741751",
      "countryId": 6252001,
      "countryCode": "US",
      "stateCode": "US-TX",
      "latitude": 33.98798,
      "longitude": -98.70361
    },
    {
      "id": 4741797,
      "name": "Wilbarger",
      "nativeName": "Wilbarger County",
      "code": "US-TX-4741797",
      "countryId": 6252001,
      "countryCode": "US",
      "stateCode": "US-TX",
      "latitude": 34.08072,
      "longitude": -99.24108
    },
    {
      "id": 4741939,
      "name": "Willacy",
      "nativeName": "Willacy County",
      "code": "US-TX-4741939",
      "countryId": 6252001,
      "countryCode": "US",
      "stateCode": "US-TX",
      "latitude": 26.47701,
      "longitude": -97.59182
    },
    {
      "id": 4742143,
      "name": "Williamson",
      "nativeName": "Williamson County",
      "code": "US-TX-4742143",
      "countryId": 6252001,
      "countryCode": "US",
      "stateCode": "US-TX",
      "latitude": 30.64804,
      "longitude": -97.60076
    },
    {
      "id": 4742425,
      "name": "Wilson",
      "nativeName": "Wilson County",
      "code": "US-TX-4742425",
      "countryId": 6252001,
      "countryCode": "US",
      "stateCode": "US-TX",
      "latitude": 29.17401,
      "longitude": -98.08657
    },
    {
      "id": 5534055,
      "name": "Winkler",
      "nativeName": "Winkler County",
      "code": "US-TX-5534055",
      "countryId": 6252001,
      "countryCode": "US",
      "stateCode": "US-TX",
      "latitude": 31.85005,
      "longitude": -103.04817
    },
    {
      "id": 4742676,
      "name": "Wise",
      "nativeName": "Wise County",
      "code": "US-TX-4742676",
      "countryId": 6252001,
      "countryCode": "US",
      "stateCode": "US-TX",
      "latitude": 33.2159,
      "longitude": -97.65445
    },
    {
      "id": 4742850,
      "name": "Wood",
      "nativeName": "Wood County",
      "code": "US-TX-4742850",
      "countryId": 6252001,
      "countryCode": "US",
      "stateCode": "US-TX",
      "latitude": 32.78641,
      "longitude": -95.38206
    },
    {
      "id": 5534225,
      "name": "Yoakum",
      "nativeName": "Yoakum County",
      "code": "US-TX-5534225",
      "countryId": 6252001,
      "countryCode": "US",
      "stateCode": "US-TX",
      "latitude": 33.17297,
      "longitude": -102.8278
    },
    {
      "id": 4743474,
      "name": "Young",
      "nativeName": "Young County",
      "code": "US-TX-4743474",
      "countryId": 6252001,
      "countryCode": "US",
      "stateCode": "US-TX",
      "latitude": 33.1767,
      "longitude": -98.68777
    },
    {
      "id": 4743577,
      "name": "Zapata",
      "nativeName": "Zapata County",
      "code": "US-TX-4743577",
      "countryId": 6252001,
      "countryCode": "US",
      "stateCode": "US-TX",
      "latitude": 27.00078,
      "longitude": -99.16861
    },
    {
      "id": 4743595,
      "name": "Zavala",
      "nativeName": "Zavala County",
      "code": "US-TX-4743595",
      "countryId": 6252001,
      "countryCode": "US",
      "stateCode": "US-TX",
      "latitude": 28.86621,
      "longitude": -99.7606
    }
  ]
}