{
  "stateId": 4662168,
  "stateCode": "US-TN",
  "countryCode": "US",
  "cities": [
    {
      "id": 4602643,
      "name": "Anderson",
      "nativeName": "Anderson County",
      "code": "US-TN-4602643",
      "countryId": 6252001,
      "countryCode": "US",
      "stateCode": "US-TN",
      "latitude": 36.11844,
      "longitude": -84.19846
    },
    {
      "id": 4829092,
      "name": "Bedford",
      "nativeName": "Bedford County",
      "code": "US-TN-4829092",
      "countryId": 6252001,
      "countryCode": "US",
      "stateCode": "US-TN",
      "latitude": 35.5138,
      "longitude": -86.45889
    },
    {
      "id": 4605583,
      "name": "Benton",
      "nativeName": "Benton County",
      "code": "US-TN-4605583",
      "countryId": 6252001,
      "countryCode": "US",
      "stateCode": "US-TN",
      "latitude": 36.06978,
      "longitude": -88.06827
    },
    {
      "id": 4607097,
      "name": "Bledsoe",
      "nativeName": "Bledsoe County",
      "code": "US-TN-4607097",
      "countryId": 6252001,
      "countryCode": "US",
      "stateCode": "US-TN",
      "latitude": 35.59642,
      "longitude": -85.20516
    },
    {
      "id": 4607192,
      "name": "Blount",
      "nativeName": "Blount County",
      "code": "US-TN-4607192",
      "countryId": 6252001,
      "countryCode": "US",
      "stateCode": "US-TN",
      "latitude": 35.68724,
      "longitude": -83.92553
    },
    {
      "id": 4608185,
      "name": "Bradley",
      "nativeName": "Bradley County",
      "code": "US-TN-4608185",
      "countryId": 6252001,
      "countryCode": "US",
      "stateCode": "US-TN",
      "latitude": 35.15411,
      "longitude": -84.8596
    },
    {
      "id": 4050506,
      "name": "Campbell",
      "nativeName": "Campbell County",
      "code": "US-TN-4050506",
      "countryId": 6252001,
      "countryCode": "US",
      "stateCode": "US-TN",
      "latitude": 36.40351,
      "longitude": -84.14938
    },
    {
      "id": 4611179,
      "name": "Cannon",
      "nativeName": "Cannon County",
      "code": "US-TN-4611179",
      "countryId": 6252001,
      "countryCode": "US",
      "stateCode": "US-TN",
      "latitude": 35.80868,
      "longitude": -86.06174
    },
    {
      "id": 4611490,
      "name": "Carroll",
      "nativeName": "Carroll County",
      "code": "US-TN-4611490",
      "countryId": 6252001,
      "countryCode": "US",
      "stateCode": "US-TN",
      "latitude": 35.97317,
      "longitude": -88.45026
    },
    {
      "id": 4611599,
      "name": "Carter",
      "nativeName": "Carter County",
      "code": "US-TN-4611599",
      "countryId": 6252001,
      "countryCode": "US",
      "stateCode": "US-TN",
      "latitude": 36.29272,
      "longitude": -82.12743
    },
    {
      "id": 4612891,
      "name": "Cheatham",
      "nativeName": "Cheatham County",
      "code": "US-TN-4612891",
      "countryId": 6252001,
      "countryCode": "US",
      "stateCode": "US-TN",
      "latitude": 36.26117,
      "longitude": -87.08678
    },
    {
      "id": 4613057,
      "name": "Chester",
      "nativeName": "Chester County",
      "code": "US-TN-4613057",
      "countryId": 6252001,
      "countryCode": "US",
      "stateCode": "US-TN",
      "latitude": 35.42175,
      "longitude": -88.61346
    },
    {
      "id": 4613750,
      "name": "Claiborne",
      "nativeName": "Claiborne County",
      "code": "US-TN-4613750",
      "countryId": 6252001,
      "countryCode": "US",
      "stateCode": "US-TN",
      "latitude": 36.48585,
      "longitude": -83.66042
    },
    {
      "id": 4613912,
      "name": "Clay",
      "nativeName": "Clay County",
      "code": "US-TN-4613912",
      "countryId": 6252001,
      "countryCode": "US",
      "stateCode": "US-TN",
      "latitude": 36.55116,
      "longitude": -85.54386
    },
    {
      "id": 4614441,
      "name": "Cocke",
      "nativeName": "Cocke County",
      "code": "US-TN-4614441",
      "countryId": 6252001,
      "countryCode": "US",
      "stateCode": "US-TN",
      "latitude": 35.92542,
      "longitude": -83.12116
    },
    {
      "id": 4614466,
      "name": "Coffee",
      "nativeName": "Coffee County",
      "code": "US-TN-4614466",
      "countryId": 6252001,
      "countryCode": "US",
      "stateCode": "US-TN",
      "latitude": 35.49062,
      "longitude": -86.07476
    },
    {
      "id": 4616263,
      "name": "Crockett",
      "nativeName": "Crockett County",
      "code": "US-TN-4616263",
      "countryId": 6252001,
      "countryCode": "US",
      "stateCode": "US-TN",
      "latitude": 35.81354,
      "longitude": -89.13953
    },
    {
      "id": 4616678,
      "name": "Cumberland",
      "nativeName": "Cumberland County",
      "code": "US-TN-4616678",
      "countryId": 6252001,
      "countryCode": "US",
      "stateCode": "US-TN",
      "latitude": 35.95039,
      "longitude": -84.99835
    },
    {
      "id": 4617305,
      "name": "Davidson",
      "nativeName": "Davidson County",
      "code": "US-TN-4617305",
      "countryId": 6252001,
      "countryCode": "US",
      "stateCode": "US-TN",
      "latitude": 36.17069,
      "longitude": -86.77753
    },
    {
      "id": 4617573,
      "name": "DeKalb",
      "nativeName": "DeKalb County",
      "code": "US-TN-4617573",
      "countryId": 6252001,
      "countryCode": "US",
      "stateCode": "US-TN",
      "latitude": 35.97986,
      "longitude": -85.83275
    },
    {
      "id": 4617654,
      "name": "Decatur",
      "nativeName": "Decatur County",
      "code": "US-TN-4617654",
      "countryId": 6252001,
      "countryCode": "US",
      "stateCode": "US-TN",
      "latitude": 35.60302,
      "longitude": -88.10877
    },
    {
      "id": 4618068,
      "name": "Dickson",
      "nativeName": "Dickson County",
      "code": "US-TN-4618068",
      "countryId": 6252001,
      "countryCode": "US",
      "stateCode": "US-TN",
      "latitude": 36.14905,
      "longitude": -87.35666
    },
    {
      "id": 4619773,
      "name": "Dyer",
      "nativeName": "Dyer County",
      "code": "US-TN-4619773",
      "countryId": 6252001,
      "countryCode": "US",
      "stateCode": "US-TN",
      "latitude": 36.05906,
      "longitude": -89.41377
    },
    {
      "id": 4621908,
      "name": "Fayette",
      "nativeName": "Fayette County",
      "code": "US-TN-4621908",
      "countryId": 6252001,
      "countryCode": "US",
      "stateCode": "US-TN",
      "latitude": 35.19708,
      "longitude": -89.41437
    },
    {
      "id": 4621984,
      "name": "Fentress",
      "nativeName": "Fentress County",
      "code": "US-TN-4621984",
      "countryId": 6252001,
      "countryCode": "US",
      "stateCode": "US-TN",
      "latitude": 36.38049,
      "longitude": -84.93246
    },
    {
      "id": 4623574,
      "name": "Franklin",
      "nativeName": "Franklin County",
      "code": "US-TN-4623574",
      "countryId": 6252001,
      "countryCode": "US",
      "stateCode": "US-TN",
      "latitude": 35.15496,
      "longitude": -86.09218
    },
    {
      "id": 4624666,
      "name": "Gibson",
      "nativeName": "Gibson County",
      "code": "US-TN-4624666",
      "countryId": 6252001,
      "countryCode": "US",
      "stateCode": "US-TN",
      "latitude": 35.99661,
      "longitude": -88.93262
    },
    {
      "id": 4624737,
      "name": "Giles",
      "nativeName": "Giles County",
      "code": "US-TN-4624737",
      "countryId": 6252001,
      "countryCode": "US",
      "stateCode": "US-TN",
      "latitude": 35.20215,
      "longitude": -87.03478
    },
    {
      "id": 4625620,
      "name": "Grainger",
      "nativeName": "Grainger County",
      "code": "US-TN-4625620",
      "countryId": 6252001,
      "countryCode": "US",
      "stateCode": "US-TN",
      "latitude": 36.27625,
      "longitude": -83.50962
    },
    {
      "id": 4626324,
      "name": "Greene",
      "nativeName": "Greene County",
      "code": "US-TN-4626324",
      "countryId": 6252001,
      "countryCode": "US",
      "stateCode": "US-TN",
      "latitude": 36.17536,
      "longitude": -82.84582
    },
    {
      "id": 4626743,
      "name": "Grundy",
      "nativeName": "Grundy County",
      "code": "US-TN-4626743",
      "countryId": 6252001,
      "countryCode": "US",
      "stateCode": "US-TN",
      "latitude": 35.38837,
      "longitude": -85.72258
    },
    {
      "id": 4627251,
      "name": "Hamblen",
      "nativeName": "Hamblen County",
      "code": "US-TN-4627251",
      "countryId": 6252001,
      "countryCode": "US",
      "stateCode": "US-TN",
      "latitude": 36.21715,
      "longitude": -83.26666
    },
    {
      "id": 4627306,
      "name": "Hamilton",
      "nativeName": "Hamilton County",
      "code": "US-TN-4627306",
      "countryId": 6252001,
      "countryCode": "US",
      "stateCode": "US-TN",
      "latitude": 35.18086,
      "longitude": -85.16479
    },
    {
      "id": 4627427,
      "name": "Hancock",
      "nativeName": "Hancock County",
      "code": "US-TN-4627427",
      "countryId": 6252001,
      "countryCode": "US",
      "stateCode": "US-TN",
      "latitude": 36.52365,
      "longitude": -83.22183
    },
    {
      "id": 4627590,
      "name": "Hardeman",
      "nativeName": "Hardeman County",
      "code": "US-TN-4627590",
      "countryId": 6252001,
      "countryCode": "US",
      "stateCode": "US-TN",
      "latitude": 35.20687,
      "longitude": -88.99308
    },
    {
      "id": 4627625,
      "name": "Hardin",
      "nativeName": "Hardin County",
      "code": "US-TN-4627625",
      "countryId": 6252001,
      "countryCode": "US",
      "stateCode": "US-TN",
      "latitude": 35.19868,
      "longitude": -88.18448
    },
    {
      "id": 4628325,
      "name": "Hawkins",
      "nativeName": "Hawkins County",
      "code": "US-TN-4628325",
      "countryId": 6252001,
      "countryCode": "US",
      "stateCode": "US-TN",
      "latitude": 36.44117,
      "longitude": -82.94468
    },
    {
      "id": 4628456,
      "name": "Haywood",
      "nativeName": "Haywood County",
      "code": "US-TN-4628456",
      "countryId": 6252001,
      "countryCode": "US",
      "stateCode": "US-TN",
      "latitude": 35.58322,
      "longitude": -89.28384
    },
    {
      "id": 4628715,
      "name": "Henderson",
      "nativeName": "Henderson County",
      "code": "US-TN-4628715",
      "countryId": 6252001,
      "countryCode": "US",
      "stateCode": "US-TN",
      "latitude": 35.65426,
      "longitude": -88.38799
    },
    {
      "id": 4628829,
      "name": "Henry",
      "nativeName": "Henry County",
      "code": "US-TN-4628829",
      "countryId": 6252001,
      "countryCode": "US",
      "stateCode": "US-TN",
      "latitude": 36.33183,
      "longitude": -88.30122
    },
    {
      "id": 4629047,
      "name": "Hickman",
      "nativeName": "Hickman County",
      "code": "US-TN-4629047",
      "countryId": 6252001,
      "countryCode": "US",
      "stateCode": "US-TN",
      "latitude": 35.80325,
      "longitude": -87.47331
    },
    {
      "id": 4630950,
      "name": "Houston",
      "nativeName": "Houston County",
      "code": "US-TN-4630950",
      "countryId": 6252001,
      "countryCode": "US",
      "stateCode": "US-TN",
      "latitude": 36.28597,
      "longitude": -87.71704
    },
    {
      "id": 4631309,
      "name": "Humphreys",
      "nativeName": "Humphreys County",
      "code": "US-TN-4631309",
      "countryId": 6252001,
      "countryCode": "US",
      "stateCode": "US-TN",
      "latitude": 36.04082,
      "longitude": -87.77563
    },
    {
      "id": 4632660,
      "name": "Jackson",
      "nativeName": "Jackson County",
      "code": "US-TN-4632660",
      "countryId": 6252001,
      "countryCode": "US",
      "stateCode": "US-TN",
      "latitude": 36.35921,
      "longitude": -85.67315
    },
    {
      "id": 4632934,
      "name": "Jefferson",
      "nativeName": "Jefferson County",
      "code": "US-TN-4632934",
      "countryId": 6252001,
      "countryCode": "US",
      "stateCode": "US-TN",
      "latitude": 36.05099,
      "longitude": -83.44631
    },
    {
      "id": 4633430,
      "name": "Johnson",
      "nativeName": "Johnson County",
      "code": "US-TN-4633430",
      "countryId": 6252001,
      "countryCode": "US",
      "stateCode": "US-TN",
      "latitude": 36.45494,
      "longitude": -81.85175
    },
    {
      "id": 4634931,
      "name": "Knox",
      "nativeName": "Knox County",
      "code": "US-TN-4634931",
      "countryId": 6252001,
      "countryCode": "US",
      "stateCode": "US-TN",
      "latitude": 35.99322,
      "longitude": -83.93709
    },
    {
      "id": 4635138,
      "name": "Lake",
      "nativeName": "Lake County",
      "code": "US-TN-4635138",
      "countryId": 6252001,
      "countryCode": "US",
      "stateCode": "US-TN",
      "latitude": 36.33538,
      "longitude": -89.49347
    },
    {
      "id": 4635615,
      "name": "Lauderdale",
      "nativeName": "Lauderdale County",
      "code": "US-TN-4635615",
      "countryId": 6252001,
      "countryCode": "US",
      "stateCode": "US-TN",
      "latitude": 35.76101,
      "longitude": -89.63144
    },
    {
      "id": 4635830,
      "name": "Lawrence",
      "nativeName": "Lawrence County",
      "code": "US-TN-4635830",
      "countryId": 6252001,
      "countryCode": "US",
      "stateCode": "US-TN",
      "latitude": 35.21727,
      "longitude": -87.39559
    },
    {
      "id": 4636403,
      "name": "Lewis",
      "nativeName": "Lewis County",
      "code": "US-TN-4636403",
      "countryId": 6252001,
      "countryCode": "US",
      "stateCode": "US-TN",
      "latitude": 35.52728,
      "longitude": -87.4931
    },
    {
      "id": 4636884,
      "name": "Lincoln",
      "nativeName": "Lincoln County",
      "code": "US-TN-4636884",
      "countryId": 6252001,
      "countryCode": "US",
      "stateCode": "US-TN",
      "latitude": 35.14052,
      "longitude": -86.58894
    },
    {
      "id": 4638283,
      "name": "Loudon",
      "nativeName": "Loudon County",
      "code": "US-TN-4638283",
      "countryId": 6252001,
      "countryCode": "US",
      "stateCode": "US-TN",
      "latitude": 35.73478,
      "longitude": -84.31187
    },
    {
      "id": 4638991,
      "name": "Macon",
      "nativeName": "Macon County",
      "code": "US-TN-4638991",
      "countryId": 6252001,
      "countryCode": "US",
      "stateCode": "US-TN",
      "latitude": 36.53203,
      "longitude": -86.00727
    },
    {
      "id": 4639045,
      "name": "Madison",
      "nativeName": "Madison County",
      "code": "US-TN-4639045",
      "countryId": 6252001,
      "countryCode": "US",
      "stateCode": "US-TN",
      "latitude": 35.60814,
      "longitude": -88.83847
    },
    {
      "id": 4639514,
      "name": "Marion",
      "nativeName": "Marion County",
      "code": "US-TN-4639514",
      "countryId": 6252001,
      "countryCode": "US",
      "stateCode": "US-TN",
      "latitude": 35.12935,
      "longitude": -85.62203
    },
    {
      "id": 4639630,
      "name": "Marshall",
      "nativeName": "Marshall County",
      "code": "US-TN-4639630",
      "countryId": 6252001,
      "countryCode": "US",
      "stateCode": "US-TN",
      "latitude": 35.46886,
      "longitude": -86.76502
    },
    {
      "id": 4640041,
      "name": "Maury",
      "nativeName": "Maury County",
      "code": "US-TN-4640041",
      "countryId": 6252001,
      "countryCode": "US",
      "stateCode": "US-TN",
      "latitude": 35.61694,
      "longitude": -87.07701
    },
    {
      "id": 4640873,
      "name": "McMinn",
      "nativeName": "McMinn County",
      "code": "US-TN-4640873",
      "countryId": 6252001,
      "countryCode": "US",
      "stateCode": "US-TN",
      "latitude": 35.42475,
      "longitude": -84.61747
    },
    {
      "id": 4640921,
      "name": "McNairy",
      "nativeName": "McNairy County",
      "code": "US-TN-4640921",
      "countryId": 6252001,
      "countryCode": "US",
      "stateCode": "US-TN",
      "latitude": 35.17545,
      "longitude": -88.56364
    },
    {
      "id": 4641148,
      "name": "Meigs",
      "nativeName": "Meigs County",
      "code": "US-TN-4641148",
      "countryId": 6252001,
      "countryCode": "US",
      "stateCode": "US-TN",
      "latitude": 35.51283,
      "longitude": -84.81339
    },
    {
      "id": 4642365,
      "name": "Monroe",
      "nativeName": "Monroe County",
      "code": "US-TN-4642365",
      "countryId": 6252001,
      "countryCode": "US",
      "stateCode": "US-TN",
      "latitude": 35.44265,
      "longitude": -84.25279
    },
    {
      "id": 4642445,
      "name": "Montgomery",
      "nativeName": "Montgomery County",
      "code": "US-TN-4642445",
      "countryId": 6252001,
      "countryCode": "US",
      "stateCode": "US-TN",
      "latitude": 36.49686,
      "longitude": -87.38289
    },
    {
      "id": 4642600,
      "name": "Moore",
      "nativeName": "Moore County",
      "code": "US-TN-4642600",
      "countryId": 6252001,
      "countryCode": "US",
      "stateCode": "US-TN",
      "latitude": 35.28462,
      "longitude": -86.35877
    },
    {
      "id": 4642752,
      "name": "Morgan",
      "nativeName": "Morgan County",
      "code": "US-TN-4642752",
      "countryId": 6252001,
      "countryCode": "US",
      "stateCode": "US-TN",
      "latitude": 36.13502,
      "longitude": -84.6492
    },
    {
      "id": 4646779,
      "name": "Obion",
      "nativeName": "Obion County",
      "code": "US-TN-4646779",
      "countryId": 6252001,
      "countryCode": "US",
      "stateCode": "US-TN",
      "latitude": 36.35825,
      "longitude": -89.1488
    },
    {
      "id": 4647552,
      "name": "Overton",
      "nativeName": "Overton County",
      "code": "US-TN-4647552",
      "countryId": 6252001,
      "countryCode": "US",
      "stateCode": "US-TN",
      "latitude": 36.345,
      "longitude": -85.28808
    },
    {
      "id": 4648830,
      "name": "Perry",
      "nativeName": "Perry County",
      "code": "US-TN-4648830",
      "countryId": 6252001,
      "countryCode": "US",
      "stateCode": "US-TN",
      "latitude": 35.64263,
      "longitude": -87.85897
    },
    {
      "id": 4649175,
      "name": "Pickett",
      "nativeName": "Pickett County",
      "code": "US-TN-4649175",
      "countryId": 6252001,
      "countryCode": "US",
      "stateCode": "US-TN",
      "latitude": 36.55841,
      "longitude": -85.07499
    },
    {
      "id": 4650495,
      "name": "Polk",
      "nativeName": "Polk County",
      "code": "US-TN-4650495",
      "countryId": 6252001,
      "countryCode": "US",
      "stateCode": "US-TN",
      "latitude": 35.1199,
      "longitude": -84.5233
    },
    {
      "id": 4651744,
      "name": "Putnam",
      "nativeName": "Putnam County",
      "code": "US-TN-4651744",
      "countryId": 6252001,
      "countryCode": "US",
      "stateCode": "US-TN",
      "latitude": 36.14083,
      "longitude": -85.49519
    },
    {
      "id": 4652809,
      "name": "Rhea",
      "nativeName": "Rhea County",
      "code": "US-TN-4652809",
      "countryId": 6252001,
      "countryCode": "US",
      "stateCode": "US-TN",
      "latitude": 35.60871,
      "longitude": -84.9244
    },
    {
      "id": 4653455,
      "name": "Roane",
      "nativeName": "Roane County",
      "code": "US-TN-4653455",
      "countryId": 6252001,
      "countryCode": "US",
      "stateCode": "US-TN",
      "latitude": 35.84786,
      "longitude": -84.52324
    },
    {
      "id": 4653638,
      "name": "Robertson",
      "nativeName": "Robertson County",
      "code": "US-TN-4653638",
      "countryId": 6252001,
      "countryCode": "US",
      "stateCode": "US-TN",
      "latitude": 36.52546,
      "longitude": -86.87057
    },
    {
      "id": 4654962,
      "name": "Rutherford",
      "nativeName": "Rutherford County",
      "code": "US-TN-4654962",
      "countryId": 6252001,
      "countryCode": "US",
      "stateCode": "US-TN",
      "latitude": 35.8427,
      "longitude": -86.41674
    },
    {
      "id": 4656214,
      "name": "Scott",
      "nativeName": "Scott County",
      "code": "US-TN-4656214",
      "countryId": 6252001,
      "countryCode": "US",
      "stateCode": "US-TN",
      "latitude": 36.42854,
      "longitude": -84.50352
    },
    {
      "id": 4656461,
      "name": "Sequatchie",
      "nativeName": "Sequatchie County",
      "code": "US-TN-4656461",
      "countryId": 6252001,
      "countryCode": "US",
      "stateCode": "US-TN",
      "latitude": 35.37115,
      "longitude": -85.41059
    },
    {
      "id": 4656568,
      "name": "Sevier",
      "nativeName": "Sevier County",
      "code": "US-TN-4656568",
      "countryId": 6252001,
      "countryCode": "US",
      "stateCode": "US-TN",
      "latitude": 35.78466,
      "longitude": -83.52418
    },
    {
      "id": 4657046,
      "name": "Shelby",
      "nativeName": "Shelby County",
      "code": "US-TN-4657046",
      "countryId": 6252001,
      "countryCode": "US",
      "stateCode": "US-TN",
      "latitude": 35.184,
      "longitude": -89.8956
    },
    {
      "id": 4658423,
      "name": "Smith",
      "nativeName": "Smith County",
      "code": "US-TN-4658423",
      "countryId": 6252001,
      "countryCode": "US",
      "stateCode": "US-TN",
      "latitude": 36.25053,
      "longitude": -85.95671
    },
    {
      "id": 4660056,
      "name": "Stewart",
      "nativeName": "Stewart County",
      "code": "US-TN-4660056",
      "countryId": 6252001,
      "countryCode": "US",
      "stateCode": "US-TN",
      "latitude": 36.5011,
      "longitude": -87.83846
    },
    {
      "id": 4660813,
      "name": "Sullivan",
      "nativeName": "Sullivan County",
      "code": "US-TN-4660813",
      "countryId": 6252001,
      "countryCode": "US",
      "stateCode": "US-TN",
      "latitude": 36.51292,
      "longitude": -82.30414
    },
    {
      "id": 4661017,
      "name": "Sumner",
      "nativeName": "Sumner County",
      "code": "US-TN-4661017",
      "countryId": 6252001,
      "countryCode": "US",
      "stateCode": "US-TN",
      "latitude": 36.46941,
      "longitude": -86.46036
    },
    {
      "id": 4662784,
      "name": "Tipton",
      "nativeName": "Tipton County",
      "code": "US-TN-4662784",
      "countryId": 6252001,
      "countryCode": "US",
      "stateCode": "US-TN",
      "latitude": 35.49687,
      "longitude": -89.75924
    },
    {
      "id": 4663355,
      "name": "Trousdale",
      "nativeName": "Trousdale County",
      "code": "US-TN-4663355",
      "countryId": 6252001,
      "countryCode": "US",
      "stateCode": "US-TN",
      "latitude": 36.39204,
      "longitude": -86.15675
    },
    {
      "id": 4663934,
      "name": "Unicoi",
      "nativeName": "Unicoi County",
      "code": "US-TN-4663934",
      "countryId": 6252001,
      "countryCode": "US",
      "stateCode": "US-TN",
      "latitude": 36.11082,
      "longitude": -82.43224
    },
    {
      "id": 4664043,
      "name": "Union",
      "nativeName": "Union County",
      "code": "US-TN-4664043",
      "countryId": 6252001,
      "countryCode": "US",
      "stateCode": "US-TN",
      "latitude": 36.28787,
      "longitude": -83.83751
    },
    {
      "id": 4664489,
      "name": "Van Buren",
      "nativeName": "Van Buren County",
      "code": "US-TN-4664489",
      "countryId": 6252001,
      "countryCode": "US",
      "stateCode": "US-TN",
      "latitude": 35.69598,
      "longitude": -85.45261
    },
    {
      "id": 4665884,
      "name": "Warren",
      "nativeName": "Warren County",
      "code": "US-TN-4665884",
      "countryId": 6252001,
      "countryCode": "US",
      "stateCode": "US-TN",
      "latitude": 35.67868,
      "longitude": -85.7785
    },
    {
      "id": 4665975,
      "name": "Washington",
      "nativeName": "Washington County",
      "code": "US-TN-4665975",
      "countryId": 6252001,
      "countryCode": "US",
      "stateCode": "US-TN",
      "latitude": 36.2933,
      "longitude": -82.49743
    },
    {
      "id": 4666233,
      "name": "Wayne",
      "nativeName": "Wayne County",
      "code": "US-TN-4666233",
      "countryId": 6252001,
      "countryCode": "US",
      "stateCode": "US-TN",
      "latitude": 35.23992,
      "longitude": -87.78801
    },
    {
      "id": 4666265,
      "name": "Weakley",
      "nativeName": "Weakley County",
      "code": "US-TN-4666265",
      "countryId": 6252001,
      "countryCode": "US",
      "stateCode": "US-TN",
      "latitude": 36.2983,
      "longitude": -88.71774
    },
    {
      "id": 4667226,
      "name": "White",
      "nativeName": "White County",
      "code": "US-TN-4667226",
      "countryId": 6252001,
      "countryCode": "US",
      "stateCode": "US-TN",
      "latitude": 35.92635,
      "longitude": -85.45518
    },
    {
      "id": 4668054,
      "name": "Williamson",
      "nativeName": "Williamson County",
      "code": "US-TN-4668054",
      "countryId": 6252001,
      "countryCode": "US",
      "stateCode": "US-TN",
      "latitude": 35.89378,
      "longitude": -86.8986
    },
    {
      "id": 4668271,
      "name": "Wilson",
      "nativeName": "Wilson County",
      "code": "US-TN-4668271",
      "countryId": 6252001,
      "countryCode": "US",
      "stateCode": "US-TN",
      "latitude": 36.15486,
      "longitude": -86.29763
    }
  ]
}