{
  "stateId": 6254928,
  "stateCode": "US-VA",
  "countryCode": "US",
  "cities": [
    {
      "id": 4743865,
      "name": "Accomack",
      "nativeName": "Accomack County",
      "code": "US-VA-4743865",
      "countryId": 6252001,
      "countryCode": "US",
      "stateCode": "US-VA",
      "latitude": 37.76494,
      "longitude": -75.75656
    },
    {
      "id": 4744031,
      "name": "Albemarle",
      "nativeName": "Albemarle County",
      "code": "US-VA-4744031",
      "countryId": 6252001,
      "countryCode": "US",
      "stateCode": "US-VA",
      "latitude": 38.02289,
      "longitude": -78.55654
    },
    {
      "id": 4744106,
      "name": "Alexandria",
      "nativeName": "City of Alexandria",
      "code": "US-VA-4744106",
      "countryId": 6252001,
      "countryCode": "US",
      "stateCode": "US-VA",
      "latitude": 38.80484,
      "longitude": -77.04692
    },
    {
      "id": 4744139,
      "name": "Alleghany",
      "nativeName": "Alleghany County",
      "code": "US-VA-4744139",
      "countryId": 6252001,
      "countryCode": "US",
      "stateCode": "US-VA",
      "latitude": 37.7876,
      "longitude": -80.00699
    },
    {
      "id": 4744308,
      "name": "Amelia",
      "nativeName": "Amelia County",
      "code": "US-VA-4744308",
      "countryId": 6252001,
      "countryCode": "US",
      "stateCode": "US-VA",
      "latitude": 37.33603,
      "longitude": -77.97614
    },
    {
      "id": 4744328,
      "name": "Amherst",
      "nativeName": "Amherst County",
      "code": "US-VA-4744328",
      "countryId": 6252001,
      "countryCode": "US",
      "stateCode": "US-VA",
      "latitude": 37.60477,
      "longitude": -79.14511
    },
    {
      "id": 4744616,
      "name": "Appomattox",
      "nativeName": "Appomattox County",
      "code": "US-VA-4744616",
      "countryId": 6252001,
      "countryCode": "US",
      "stateCode": "US-VA",
      "latitude": 37.37229,
      "longitude": -78.81212
    },
    {
      "id": 4744725,
      "name": "Arlington",
      "nativeName": "Arlington County",
      "code": "US-VA-4744725",
      "countryId": 6252001,
      "countryCode": "US",
      "stateCode": "US-VA",
      "latitude": 38.87862,
      "longitude": -77.10096
    },
    {
      "id": 4745015,
      "name": "Augusta",
      "nativeName": "Augusta County",
      "code": "US-VA-4745015",
      "countryId": 6252001,
      "countryCode": "US",
      "stateCode": "US-VA",
      "latitude": 38.16452,
      "longitude": -79.13383
    },
    {
      "id": 4745776,
      "name": "Bath",
      "nativeName": "Bath County",
      "code": "US-VA-4745776",
      "countryId": 6252001,
      "countryCode": "US",
      "stateCode": "US-VA",
      "latitude": 38.05869,
      "longitude": -79.74109
    },
    {
      "id": 4746270,
      "name": "Bedford",
      "nativeName": "Bedford County",
      "code": "US-VA-4746270",
      "countryId": 6252001,
      "countryCode": "US",
      "stateCode": "US-VA",
      "latitude": 37.31494,
      "longitude": -79.52422
    },
    {
      "id": 4747931,
      "name": "Bland",
      "nativeName": "Bland County",
      "code": "US-VA-4747931",
      "countryId": 6252001,
      "countryCode": "US",
      "stateCode": "US-VA",
      "latitude": 37.13397,
      "longitude": -81.13028
    },
    {
      "id": 4748452,
      "name": "Botetourt",
      "nativeName": "Botetourt County",
      "code": "US-VA-4748452",
      "countryId": 6252001,
      "countryCode": "US",
      "stateCode": "US-VA",
      "latitude": 37.55712,
      "longitude": -79.81233
    },
    {
      "id": 4749005,
      "name": "Bristol",
      "nativeName": "City of Bristol",
      "code": "US-VA-4749005",
      "countryId": 6252001,
      "countryCode": "US",
      "stateCode": "US-VA",
      "latitude": 36.59649,
      "longitude": -82.18847
    },
    {
      "id": 4749396,
      "name": "Brunswick",
      "nativeName": "Brunswick County",
      "code": "US-VA-4749396",
      "countryId": 6252001,
      "countryCode": "US",
      "stateCode": "US-VA",
      "latitude": 36.76478,
      "longitude": -77.85902
    },
    {
      "id": 4749535,
      "name": "Buchanan",
      "nativeName": "Buchanan County",
      "code": "US-VA-4749535",
      "countryId": 6252001,
      "countryCode": "US",
      "stateCode": "US-VA",
      "latitude": 37.26663,
      "longitude": -82.03603
    },
    {
      "id": 4749657,
      "name": "Buckingham",
      "nativeName": "Buckingham County",
      "code": "US-VA-4749657",
      "countryId": 6252001,
      "countryCode": "US",
      "stateCode": "US-VA",
      "latitude": 37.57224,
      "longitude": -78.52871
    },
    {
      "id": 4749725,
      "name": "Buena Vista",
      "nativeName": "City of Buena Vista",
      "code": "US-VA-4749725",
      "countryId": 6252001,
      "countryCode": "US",
      "stateCode": "US-VA",
      "latitude": 37.7343,
      "longitude": -79.35392
    },
    {
      "id": 4750738,
      "name": "Campbell",
      "nativeName": "Campbell County",
      "code": "US-VA-4750738",
      "countryId": 6252001,
      "countryCode": "US",
      "stateCode": "US-VA",
      "latitude": 37.20564,
      "longitude": -79.09635
    },
    {
      "id": 4751013,
      "name": "Caroline",
      "nativeName": "Caroline County",
      "code": "US-VA-4751013",
      "countryId": 6252001,
      "countryCode": "US",
      "stateCode": "US-VA",
      "latitude": 38.02682,
      "longitude": -77.34696
    },
    {
      "id": 4751058,
      "name": "Carroll",
      "nativeName": "Carroll County",
      "code": "US-VA-4751058",
      "countryId": 6252001,
      "countryCode": "US",
      "stateCode": "US-VA",
      "latitude": 36.73154,
      "longitude": -80.7339
    },
    {
      "id": 4752002,
      "name": "Charles City",
      "nativeName": "Charles City County",
      "code": "US-VA-4752002",
      "countryId": 6252001,
      "countryCode": "US",
      "stateCode": "US-VA",
      "latitude": 37.35435,
      "longitude": -77.05913
    },
    {
      "id": 4752025,
      "name": "Charlotte",
      "nativeName": "Charlotte County",
      "code": "US-VA-4752025",
      "countryId": 6252001,
      "countryCode": "US",
      "stateCode": "US-VA",
      "latitude": 37.01161,
      "longitude": -78.66164
    },
    {
      "id": 4752046,
      "name": "Charlottesville",
      "nativeName": "City of Charlottesville",
      "code": "US-VA-4752046",
      "countryId": 6252001,
      "countryCode": "US",
      "stateCode": "US-VA",
      "latitude": 38.02931,
      "longitude": -78.47668
    },
    {
      "id": 4752215,
      "name": "Chesapeake",
      "nativeName": "City of Chesapeake",
      "code": "US-VA-4752215",
      "countryId": 6252001,
      "countryCode": "US",
      "stateCode": "US-VA",
      "latitude": 36.68765,
      "longitude": -76.31216
    },
    {
      "id": 4752255,
      "name": "Chesterfield",
      "nativeName": "Chesterfield County",
      "code": "US-VA-4752255",
      "countryId": 6252001,
      "countryCode": "US",
      "stateCode": "US-VA",
      "latitude": 37.37852,
      "longitude": -77.58694
    },
    {
      "id": 4758109,
      "name": "City of Fairfax",
      "nativeName": "City of Fairfax",
      "code": "US-VA-4758109",
      "countryId": 6252001,
      "countryCode": "US",
      "stateCode": "US-VA",
      "latitude": 38.84622,
      "longitude": -77.30637
    },
    {
      "id": 4760031,
      "name": "City of Franklin",
      "nativeName": "City of Franklin",
      "code": "US-VA-4760031",
      "countryId": 6252001,
      "countryCode": "US",
      "stateCode": "US-VA",
      "latitude": 36.67765,
      "longitude": -76.92246
    },
    {
      "id": 4781756,
      "name": "City of Richmond",
      "nativeName": "City of Richmond",
      "code": "US-VA-4781756",
      "countryId": 6252001,
      "countryCode": "US",
      "stateCode": "US-VA",
      "latitude": 37.55376,
      "longitude": -77.46026
    },
    {
      "id": 4782241,
      "name": "City of Roanoke",
      "nativeName": "City of Roanoke",
      "code": "US-VA-4782241",
      "countryId": 6252001,
      "countryCode": "US",
      "stateCode": "US-VA",
      "latitude": 37.27097,
      "longitude": -79.94143
    },
    {
      "id": 4752978,
      "name": "Clarke",
      "nativeName": "Clarke County",
      "code": "US-VA-4752978",
      "countryId": 6252001,
      "countryCode": "US",
      "stateCode": "US-VA",
      "latitude": 39.11226,
      "longitude": -77.99673
    },
    {
      "id": 4753684,
      "name": "Colonial Heights",
      "nativeName": "City of Colonial Heights",
      "code": "US-VA-4753684",
      "countryId": 6252001,
      "countryCode": "US",
      "stateCode": "US-VA",
      "latitude": 37.24404,
      "longitude": -77.41026
    },
    {
      "id": 4754373,
      "name": "Covington",
      "nativeName": "City of Covington",
      "code": "US-VA-4754373",
      "countryId": 6252001,
      "countryCode": "US",
      "stateCode": "US-VA",
      "latitude": 37.79346,
      "longitude": -79.99395
    },
    {
      "id": 4754544,
      "name": "Craig",
      "nativeName": "Craig County",
      "code": "US-VA-4754544",
      "countryId": 6252001,
      "countryCode": "US",
      "stateCode": "US-VA",
      "latitude": 37.48125,
      "longitude": -80.21234
    },
    {
      "id": 4754972,
      "name": "Culpeper",
      "nativeName": "Culpeper County",
      "code": "US-VA-4754972",
      "countryId": 6252001,
      "countryCode": "US",
      "stateCode": "US-VA",
      "latitude": 38.48606,
      "longitude": -77.95589
    },
    {
      "id": 4754992,
      "name": "Cumberland",
      "nativeName": "Cumberland County",
      "code": "US-VA-4754992",
      "countryId": 6252001,
      "countryCode": "US",
      "stateCode": "US-VA",
      "latitude": 37.5121,
      "longitude": -78.24496
    },
    {
      "id": 4755298,
      "name": "Danville",
      "nativeName": "City of Danville",
      "code": "US-VA-4755298",
      "countryId": 6252001,
      "countryCode": "US",
      "stateCode": "US-VA",
      "latitude": 36.58597,
      "longitude": -79.39502
    },
    {
      "id": 4755865,
      "name": "Dickenson",
      "nativeName": "Dickenson County",
      "code": "US-VA-4755865",
      "countryId": 6252001,
      "countryCode": "US",
      "stateCode": "US-VA",
      "latitude": 37.12574,
      "longitude": -82.35035
    },
    {
      "id": 4755976,
      "name": "Dinwiddie",
      "nativeName": "Dinwiddie County",
      "code": "US-VA-4755976",
      "countryId": 6252001,
      "countryCode": "US",
      "stateCode": "US-VA",
      "latitude": 37.0759,
      "longitude": -77.63236
    },
    {
      "id": 4757688,
      "name": "Emporia",
      "nativeName": "City of Emporia",
      "code": "US-VA-4757688",
      "countryId": 6252001,
      "countryCode": "US",
      "stateCode": "US-VA",
      "latitude": 36.68598,
      "longitude": -77.54248
    },
    {
      "id": 4757844,
      "name": "Essex",
      "nativeName": "Essex County",
      "code": "US-VA-4757844",
      "countryId": 6252001,
      "countryCode": "US",
      "stateCode": "US-VA",
      "latitude": 37.93906,
      "longitude": -76.9409
    },
    {
      "id": 4758041,
      "name": "Fairfax",
      "nativeName": "Fairfax County",
      "code": "US-VA-4758041",
      "countryId": 6252001,
      "countryCode": "US",
      "stateCode": "US-VA",
      "latitude": 38.83469,
      "longitude": -77.27622
    },
    {
      "id": 4758398,
      "name": "Falls Church",
      "nativeName": "City of Falls Church",
      "code": "US-VA-4758398",
      "countryId": 6252001,
      "countryCode": "US",
      "stateCode": "US-VA",
      "latitude": 38.88233,
      "longitude": -77.17109
    },
    {
      "id": 4758541,
      "name": "Fauquier",
      "nativeName": "Fauquier County",
      "code": "US-VA-4758541",
      "countryId": 6252001,
      "countryCode": "US",
      "stateCode": "US-VA",
      "latitude": 38.73855,
      "longitude": -77.80927
    },
    {
      "id": 4759449,
      "name": "Floyd",
      "nativeName": "Floyd County",
      "code": "US-VA-4759449",
      "countryId": 6252001,
      "countryCode": "US",
      "stateCode": "US-VA",
      "latitude": 36.93149,
      "longitude": -80.36255
    },
    {
      "id": 4759468,
      "name": "Fluvanna",
      "nativeName": "Fluvanna County",
      "code": "US-VA-4759468",
      "countryId": 6252001,
      "countryCode": "US",
      "stateCode": "US-VA",
      "latitude": 37.84187,
      "longitude": -78.27745
    },
    {
      "id": 4759996,
      "name": "Franklin",
      "nativeName": "Franklin County",
      "code": "US-VA-4759996",
      "countryId": 6252001,
      "countryCode": "US",
      "stateCode": "US-VA",
      "latitude": 36.99194,
      "longitude": -79.88104
    },
    {
      "id": 4760052,
      "name": "Frederick",
      "nativeName": "Frederick County",
      "code": "US-VA-4760052",
      "countryId": 6252001,
      "countryCode": "US",
      "stateCode": "US-VA",
      "latitude": 39.20456,
      "longitude": -78.26258
    },
    {
      "id": 4760084,
      "name": "Fredericksburg",
      "nativeName": "City of Fredericksburg",
      "code": "US-VA-4760084",
      "countryId": 6252001,
      "countryCode": "US",
      "stateCode": "US-VA",
      "latitude": 38.30318,
      "longitude": -77.46054
    },
    {
      "id": 4760382,
      "name": "Galax",
      "nativeName": "City of Galax",
      "code": "US-VA-4760382",
      "countryId": 6252001,
      "countryCode": "US",
      "stateCode": "US-VA",
      "latitude": 36.66124,
      "longitude": -80.92397
    },
    {
      "id": 4760832,
      "name": "Giles",
      "nativeName": "Giles County",
      "code": "US-VA-4760832",
      "countryId": 6252001,
      "countryCode": "US",
      "stateCode": "US-VA",
      "latitude": 37.31403,
      "longitude": -80.70374
    },
    {
      "id": 4761164,
      "name": "Gloucester",
      "nativeName": "Gloucester County",
      "code": "US-VA-4761164",
      "countryId": 6252001,
      "countryCode": "US",
      "stateCode": "US-VA",
      "latitude": 37.40121,
      "longitude": -76.52297
    },
    {
      "id": 4761280,
      "name": "Goochland",
      "nativeName": "Goochland County",
      "code": "US-VA-4761280",
      "countryId": 6252001,
      "countryCode": "US",
      "stateCode": "US-VA",
      "latitude": 37.72198,
      "longitude": -77.91636
    },
    {
      "id": 4761913,
      "name": "Grayson",
      "nativeName": "Grayson County",
      "code": "US-VA-4761913",
      "countryId": 6252001,
      "countryCode": "US",
      "stateCode": "US-VA",
      "latitude": 36.65659,
      "longitude": -81.22505
    },
    {
      "id": 4762187,
      "name": "Greene",
      "nativeName": "Greene County",
      "code": "US-VA-4762187",
      "countryId": 6252001,
      "countryCode": "US",
      "stateCode": "US-VA",
      "latitude": 38.2976,
      "longitude": -78.46688
    },
    {
      "id": 4762246,
      "name": "Greensville",
      "nativeName": "Greensville County",
      "code": "US-VA-4762246",
      "countryId": 6252001,
      "countryCode": "US",
      "stateCode": "US-VA",
      "latitude": 36.67585,
      "longitude": -77.55958
    },
    {
      "id": 4762757,
      "name": "Halifax",
      "nativeName": "Halifax County",
      "code": "US-VA-4762757",
      "countryId": 6252001,
      "countryCode": "US",
      "stateCode": "US-VA",
      "latitude": 36.76695,
      "longitude": -78.93662
    },
    {
      "id": 4762929,
      "name": "Hampton",
      "nativeName": "City of Hampton",
      "code": "US-VA-4762929",
      "countryId": 6252001,
      "countryCode": "US",
      "stateCode": "US-VA",
      "latitude": 37.06265,
      "longitude": -76.333
    },
    {
      "id": 4762988,
      "name": "Hanover",
      "nativeName": "Hanover County",
      "code": "US-VA-4762988",
      "countryId": 6252001,
      "countryCode": "US",
      "stateCode": "US-VA",
      "latitude": 37.76015,
      "longitude": -77.49087
    },
    {
      "id": 4763237,
      "name": "Harrisonburg",
      "nativeName": "City of Harrisonburg",
      "code": "US-VA-4763237",
      "countryId": 6252001,
      "countryCode": "US",
      "stateCode": "US-VA",
      "latitude": 38.44957,
      "longitude": -78.86892
    },
    {
      "id": 4763688,
      "name": "Henrico",
      "nativeName": "Henrico County",
      "code": "US-VA-4763688",
      "countryId": 6252001,
      "countryCode": "US",
      "stateCode": "US-VA",
      "latitude": 37.45771,
      "longitude": -77.29646
    },
    {
      "id": 4763710,
      "name": "Henry",
      "nativeName": "Henry County",
      "code": "US-VA-4763710",
      "countryId": 6252001,
      "countryCode": "US",
      "stateCode": "US-VA",
      "latitude": 36.6847,
      "longitude": -79.98152
    },
    {
      "id": 4764100,
      "name": "Highland",
      "nativeName": "Highland County",
      "code": "US-VA-4764100",
      "countryId": 6252001,
      "countryCode": "US",
      "stateCode": "US-VA",
      "latitude": 38.36233,
      "longitude": -79.56854
    },
    {
      "id": 4764849,
      "name": "Hopewell",
      "nativeName": "City of Hopewell",
      "code": "US-VA-4764849",
      "countryId": 6252001,
      "countryCode": "US",
      "stateCode": "US-VA",
      "latitude": 37.30432,
      "longitude": -77.2872
    },
    {
      "id": 4766205,
      "name": "Isle of Wight",
      "nativeName": "Isle of Wight County",
      "code": "US-VA-4766205",
      "countryId": 6252001,
      "countryCode": "US",
      "stateCode": "US-VA",
      "latitude": 36.90673,
      "longitude": -76.70913
    },
    {
      "id": 4766447,
      "name": "James City",
      "nativeName": "James City County",
      "code": "US-VA-4766447",
      "countryId": 6252001,
      "countryCode": "US",
      "stateCode": "US-VA",
      "latitude": 37.31332,
      "longitude": -76.77376
    },
    {
      "id": 4767772,
      "name": "King George",
      "nativeName": "King George County",
      "code": "US-VA-4767772",
      "countryId": 6252001,
      "countryCode": "US",
      "stateCode": "US-VA",
      "latitude": 38.27374,
      "longitude": -77.15651
    },
    {
      "id": 4767790,
      "name": "King William",
      "nativeName": "King William County",
      "code": "US-VA-4767790",
      "countryId": 6252001,
      "countryCode": "US",
      "stateCode": "US-VA",
      "latitude": 37.7066,
      "longitude": -77.08839
    },
    {
      "id": 4767793,
      "name": "King and Queen",
      "nativeName": "King and Queen County",
      "code": "US-VA-4767793",
      "countryId": 6252001,
      "countryCode": "US",
      "stateCode": "US-VA",
      "latitude": 37.71862,
      "longitude": -76.89527
    },
    {
      "id": 4768515,
      "name": "Lancaster",
      "nativeName": "Lancaster County",
      "code": "US-VA-4768515",
      "countryId": 6252001,
      "countryCode": "US",
      "stateCode": "US-VA",
      "latitude": 37.70171,
      "longitude": -76.42023
    },
    {
      "id": 4769028,
      "name": "Lee",
      "nativeName": "Lee County",
      "code": "US-VA-4769028",
      "countryId": 6252001,
      "countryCode": "US",
      "stateCode": "US-VA",
      "latitude": 36.70545,
      "longitude": -83.12853
    },
    {
      "id": 4769352,
      "name": "Lexington",
      "nativeName": "City of Lexington",
      "code": "US-VA-4769352",
      "countryId": 6252001,
      "countryCode": "US",
      "stateCode": "US-VA",
      "latitude": 37.77309,
      "longitude": -79.45244
    },
    {
      "id": 4770746,
      "name": "Loudoun",
      "nativeName": "Loudoun County",
      "code": "US-VA-4770746",
      "countryId": 6252001,
      "countryCode": "US",
      "stateCode": "US-VA",
      "latitude": 39.09068,
      "longitude": -77.63572
    },
    {
      "id": 4770767,
      "name": "Louisa",
      "nativeName": "Louisa County",
      "code": "US-VA-4770767",
      "countryId": 6252001,
      "countryCode": "US",
      "stateCode": "US-VA",
      "latitude": 37.97821,
      "longitude": -77.96298
    },
    {
      "id": 4771000,
      "name": "Lunenburg",
      "nativeName": "Lunenburg County",
      "code": "US-VA-4771000",
      "countryId": 6252001,
      "countryCode": "US",
      "stateCode": "US-VA",
      "latitude": 36.94621,
      "longitude": -78.24057
    },
    {
      "id": 4771099,
      "name": "Lynchburg",
      "nativeName": "City of Lynchburg",
      "code": "US-VA-4771099",
      "countryId": 6252001,
      "countryCode": "US",
      "stateCode": "US-VA",
      "latitude": 37.41375,
      "longitude": -79.14225
    },
    {
      "id": 4771240,
      "name": "Madison",
      "nativeName": "Madison County",
      "code": "US-VA-4771240",
      "countryId": 6252001,
      "countryCode": "US",
      "stateCode": "US-VA",
      "latitude": 38.41369,
      "longitude": -78.27924
    },
    {
      "id": 4771426,
      "name": "Manassas",
      "nativeName": "City of Manassas",
      "code": "US-VA-4771426",
      "countryId": 6252001,
      "countryCode": "US",
      "stateCode": "US-VA",
      "latitude": 38.75095,
      "longitude": -77.47527
    },
    {
      "id": 4771421,
      "name": "Manassas Park",
      "nativeName": "City of Manassas Park",
      "code": "US-VA-4771421",
      "countryId": 6252001,
      "countryCode": "US",
      "stateCode": "US-VA",
      "latitude": 38.784,
      "longitude": -77.46971
    },
    {
      "id": 4771819,
      "name": "Martinsville",
      "nativeName": "City of Martinsville",
      "code": "US-VA-4771819",
      "countryId": 6252001,
      "countryCode": "US",
      "stateCode": "US-VA",
      "latitude": 36.69153,
      "longitude": -79.87254
    },
    {
      "id": 4771977,
      "name": "Mathews",
      "nativeName": "Mathews County",
      "code": "US-VA-4771977",
      "countryId": 6252001,
      "countryCode": "US",
      "stateCode": "US-VA",
      "latitude": 37.41731,
      "longitude": -76.27129
    },
    {
      "id": 4772586,
      "name": "Mecklenburg",
      "nativeName": "Mecklenburg County",
      "code": "US-VA-4772586",
      "countryId": 6252001,
      "countryCode": "US",
      "stateCode": "US-VA",
      "latitude": 36.68036,
      "longitude": -78.36273
    },
    {
      "id": 4772915,
      "name": "Middlesex",
      "nativeName": "Middlesex County",
      "code": "US-VA-4772915",
      "countryId": 6252001,
      "countryCode": "US",
      "stateCode": "US-VA",
      "latitude": 37.59737,
      "longitude": -76.57814
    },
    {
      "id": 4773711,
      "name": "Montgomery",
      "nativeName": "Montgomery County",
      "code": "US-VA-4773711",
      "countryId": 6252001,
      "countryCode": "US",
      "stateCode": "US-VA",
      "latitude": 37.17404,
      "longitude": -80.387
    },
    {
      "id": 4775610,
      "name": "Nelson",
      "nativeName": "Nelson County",
      "code": "US-VA-4775610",
      "countryId": 6252001,
      "countryCode": "US",
      "stateCode": "US-VA",
      "latitude": 37.78741,
      "longitude": -78.88676
    },
    {
      "id": 4775834,
      "name": "New Kent",
      "nativeName": "New Kent County",
      "code": "US-VA-4775834",
      "countryId": 6252001,
      "countryCode": "US",
      "stateCode": "US-VA",
      "latitude": 37.50514,
      "longitude": -76.99713
    },
    {
      "id": 4776037,
      "name": "Newport News",
      "nativeName": "City of Newport News",
      "code": "US-VA-4776037",
      "countryId": 6252001,
      "countryCode": "US",
      "stateCode": "US-VA",
      "latitude": 37.06265,
      "longitude": -76.50801
    },
    {
      "id": 4776242,
      "name": "Norfolk",
      "nativeName": "City of Norfolk",
      "code": "US-VA-4776242",
      "countryId": 6252001,
      "countryCode": "US",
      "stateCode": "US-VA",
      "latitude": 36.89126,
      "longitude": -76.26188
    },
    {
      "id": 4776500,
      "name": "Northampton",
      "nativeName": "Northampton County",
      "code": "US-VA-4776500",
      "countryId": 6252001,
      "countryCode": "US",
      "stateCode": "US-VA",
      "latitude": 37.30078,
      "longitude": -75.92854
    },
    {
      "id": 4776564,
      "name": "Northumberland",
      "nativeName": "Northumberland County",
      "code": "US-VA-4776564",
      "countryId": 6252001,
      "countryCode": "US",
      "stateCode": "US-VA",
      "latitude": 37.88244,
      "longitude": -76.47171
    },
    {
      "id": 4776591,
      "name": "Norton",
      "nativeName": "City of Norton",
      "code": "US-VA-4776591",
      "countryId": 6252001,
      "countryCode": "US",
      "stateCode": "US-VA",
      "latitude": 36.93343,
      "longitude": -82.62905
    },
    {
      "id": 4776629,
      "name": "Nottoway",
      "nativeName": "Nottoway County",
      "code": "US-VA-4776629",
      "countryId": 6252001,
      "countryCode": "US",
      "stateCode": "US-VA",
      "latitude": 37.14306,
      "longitude": -78.05126
    },
    {
      "id": 4777457,
      "name": "Orange",
      "nativeName": "Orange County",
      "code": "US-VA-4777457",
      "countryId": 6252001,
      "countryCode": "US",
      "stateCode": "US-VA",
      "latitude": 38.24624,
      "longitude": -78.01349
    },
    {
      "id": 4777756,
      "name": "Page",
      "nativeName": "Page County",
      "code": "US-VA-4777756",
      "countryId": 6252001,
      "countryCode": "US",
      "stateCode": "US-VA",
      "latitude": 38.61998,
      "longitude": -78.48413
    },
    {
      "id": 4778096,
      "name": "Patrick",
      "nativeName": "Patrick County",
      "code": "US-VA-4778096",
      "countryId": 6252001,
      "countryCode": "US",
      "stateCode": "US-VA",
      "latitude": 36.67833,
      "longitude": -80.28435
    },
    {
      "id": 4778642,
      "name": "Petersburg",
      "nativeName": "City of Petersburg",
      "code": "US-VA-4778642",
      "countryId": 6252001,
      "countryCode": "US",
      "stateCode": "US-VA",
      "latitude": 37.22793,
      "longitude": -77.40193
    },
    {
      "id": 4779336,
      "name": "Pittsylvania",
      "nativeName": "Pittsylvania County",
      "code": "US-VA-4779336",
      "countryId": 6252001,
      "countryCode": "US",
      "stateCode": "US-VA",
      "latitude": 36.82133,
      "longitude": -79.39711
    },
    {
      "id": 4779934,
      "name": "Poquoson",
      "nativeName": "City of Poquoson",
      "code": "US-VA-4779934",
      "countryId": 6252001,
      "countryCode": "US",
      "stateCode": "US-VA",
      "latitude": 37.12237,
      "longitude": -76.34578
    },
    {
      "id": 4780019,
      "name": "Portsmouth",
      "nativeName": "City of Portsmouth",
      "code": "US-VA-4780019",
      "countryId": 6252001,
      "countryCode": "US",
      "stateCode": "US-VA",
      "latitude": 36.83649,
      "longitude": -76.30795
    },
    {
      "id": 4780225,
      "name": "Powhatan",
      "nativeName": "Powhatan County",
      "code": "US-VA-4780225",
      "countryId": 6252001,
      "countryCode": "US",
      "stateCode": "US-VA",
      "latitude": 37.5502,
      "longitude": -77.91519
    },
    {
      "id": 4780362,
      "name": "Prince Edward",
      "nativeName": "Prince Edward County",
      "code": "US-VA-4780362",
      "countryId": 6252001,
      "countryCode": "US",
      "stateCode": "US-VA",
      "latitude": 37.2243,
      "longitude": -78.44108
    },
    {
      "id": 4780374,
      "name": "Prince George",
      "nativeName": "Prince George County",
      "code": "US-VA-4780374",
      "countryId": 6252001,
      "countryCode": "US",
      "stateCode": "US-VA",
      "latitude": 37.18653,
      "longitude": -77.22413
    },
    {
      "id": 4780384,
      "name": "Prince William",
      "nativeName": "Prince William County",
      "code": "US-VA-4780384",
      "countryId": 6252001,
      "countryCode": "US",
      "stateCode": "US-VA",
      "latitude": 38.70167,
      "longitude": -77.47766
    },
    {
      "id": 4780581,
      "name": "Pulaski",
      "nativeName": "Pulaski County",
      "code": "US-VA-4780581",
      "countryId": 6252001,
      "countryCode": "US",
      "stateCode": "US-VA",
      "latitude": 37.06361,
      "longitude": -80.71434
    },
    {
      "id": 4780851,
      "name": "Radford",
      "nativeName": "City of Radford",
      "code": "US-VA-4780851",
      "countryId": 6252001,
      "countryCode": "US",
      "stateCode": "US-VA",
      "latitude": 37.13179,
      "longitude": -80.57645
    },
    {
      "id": 4781039,
      "name": "Rappahannock",
      "nativeName": "Rappahannock County",
      "code": "US-VA-4781039",
      "countryId": 6252001,
      "countryCode": "US",
      "stateCode": "US-VA",
      "latitude": 38.68471,
      "longitude": -78.15925
    },
    {
      "id": 4781725,
      "name": "Richmond",
      "nativeName": "Richmond County",
      "code": "US-VA-4781725",
      "countryId": 6252001,
      "countryCode": "US",
      "stateCode": "US-VA",
      "latitude": 37.93705,
      "longitude": -76.72968
    },
    {
      "id": 4782181,
      "name": "Roanoke",
      "nativeName": "Roanoke County",
      "code": "US-VA-4782181",
      "countryId": 6252001,
      "countryCode": "US",
      "stateCode": "US-VA",
      "latitude": 37.20907,
      "longitude": -80.05085
    },
    {
      "id": 4782531,
      "name": "Rockbridge",
      "nativeName": "Rockbridge County",
      "code": "US-VA-4782531",
      "countryId": 6252001,
      "countryCode": "US",
      "stateCode": "US-VA",
      "latitude": 37.81461,
      "longitude": -79.44758
    },
    {
      "id": 4782579,
      "name": "Rockingham",
      "nativeName": "Rockingham County",
      "code": "US-VA-4782579",
      "countryId": 6252001,
      "countryCode": "US",
      "stateCode": "US-VA",
      "latitude": 38.51213,
      "longitude": -78.87576
    },
    {
      "id": 4783267,
      "name": "Russell",
      "nativeName": "Russell County",
      "code": "US-VA-4783267",
      "countryId": 6252001,
      "countryCode": "US",
      "stateCode": "US-VA",
      "latitude": 36.93376,
      "longitude": -82.09564
    },
    {
      "id": 4784205,
      "name": "Salem",
      "nativeName": "City of Salem",
      "code": "US-VA-4784205",
      "countryId": 6252001,
      "countryCode": "US",
      "stateCode": "US-VA",
      "latitude": 37.29347,
      "longitude": -80.05476
    },
    {
      "id": 4784660,
      "name": "Scott",
      "nativeName": "Scott County",
      "code": "US-VA-4784660",
      "countryId": 6252001,
      "countryCode": "US",
      "stateCode": "US-VA",
      "latitude": 36.71422,
      "longitude": -82.60298
    },
    {
      "id": 4785252,
      "name": "Shenandoah",
      "nativeName": "Shenandoah County",
      "code": "US-VA-4785252",
      "countryId": 6252001,
      "countryCode": "US",
      "stateCode": "US-VA",
      "latitude": 38.85839,
      "longitude": -78.5706
    },
    {
      "id": 4786352,
      "name": "Smyth",
      "nativeName": "Smyth County",
      "code": "US-VA-4786352",
      "countryId": 6252001,
      "countryCode": "US",
      "stateCode": "US-VA",
      "latitude": 36.84388,
      "longitude": -81.53702
    },
    {
      "id": 4786735,
      "name": "Southampton",
      "nativeName": "Southampton County",
      "code": "US-VA-4786735",
      "countryId": 6252001,
      "countryCode": "US",
      "stateCode": "US-VA",
      "latitude": 36.7204,
      "longitude": -77.10609
    },
    {
      "id": 4786949,
      "name": "Spotsylvania",
      "nativeName": "Spotsylvania County",
      "code": "US-VA-4786949",
      "countryId": 6252001,
      "countryCode": "US",
      "stateCode": "US-VA",
      "latitude": 38.18502,
      "longitude": -77.65597
    },
    {
      "id": 4787248,
      "name": "Stafford",
      "nativeName": "Stafford County",
      "code": "US-VA-4787248",
      "countryId": 6252001,
      "countryCode": "US",
      "stateCode": "US-VA",
      "latitude": 38.4207,
      "longitude": -77.45743
    },
    {
      "id": 4787467,
      "name": "Staunton",
      "nativeName": "City of Staunton",
      "code": "US-VA-4787467",
      "countryId": 6252001,
      "countryCode": "US",
      "stateCode": "US-VA",
      "latitude": 38.14931,
      "longitude": -79.05963
    },
    {
      "id": 4788160,
      "name": "Suffolk",
      "nativeName": "City of Suffolk",
      "code": "US-VA-4788160",
      "countryId": 6252001,
      "countryCode": "US",
      "stateCode": "US-VA",
      "latitude": 36.70848,
      "longitude": -76.60801
    },
    {
      "id": 4788433,
      "name": "Surry",
      "nativeName": "Surry County",
      "code": "US-VA-4788433",
      "countryId": 6252001,
      "countryCode": "US",
      "stateCode": "US-VA",
      "latitude": 37.11691,
      "longitude": -76.88831
    },
    {
      "id": 4788448,
      "name": "Sussex",
      "nativeName": "Sussex County",
      "code": "US-VA-4788448",
      "countryId": 6252001,
      "countryCode": "US",
      "stateCode": "US-VA",
      "latitude": 36.92175,
      "longitude": -77.26179
    },
    {
      "id": 4788970,
      "name": "Tazewell",
      "nativeName": "Tazewell County",
      "code": "US-VA-4788970",
      "countryId": 6252001,
      "countryCode": "US",
      "stateCode": "US-VA",
      "latitude": 37.12497,
      "longitude": -81.56066
    },
    {
      "id": 4791271,
      "name": "Virginia Beach",
      "nativeName": "City of Virginia Beach",
      "code": "US-VA-4791271",
      "countryId": 6252001,
      "countryCode": "US",
      "stateCode": "US-VA",
      "latitude": 36.73765,
      "longitude": -76.00521
    },
    {
      "id": 4792238,
      "name": "Warren",
      "nativeName": "Warren County",
      "code": "US-VA-4792238",
      "countryId": 6252001,
      "countryCode": "US",
      "stateCode": "US-VA",
      "latitude": 38.90878,
      "longitude": -78.20746
    },
    {
      "id": 4792315,
      "name": "Washington",
      "nativeName": "Washington County",
      "code": "US-VA-4792315",
      "countryId": 6252001,
      "countryCode": "US",
      "stateCode": "US-VA",
      "latitude": 36.72448,
      "longitude": -81.95966
    },
    {
      "id": 4792534,
      "name": "Waynesboro",
      "nativeName": "City of Waynesboro",
      "code": "US-VA-4792534",
      "countryId": 6252001,
      "countryCode": "US",
      "stateCode": "US-VA",
      "latitude": 38.06847,
      "longitude": -78.88947
    },
    {
      "id": 4793032,
      "name": "Westmoreland",
      "nativeName": "Westmoreland County",
      "code": "US-VA-4793032",
      "countryId": 6252001,
      "countryCode": "US",
      "stateCode": "US-VA",
      "latitude": 38.11282,
      "longitude": -76.79991
    },
    {
      "id": 4793872,
      "name": "Williamsburg",
      "nativeName": "City of Williamsburg",
      "code": "US-VA-4793872",
      "countryId": 6252001,
      "countryCode": "US",
      "stateCode": "US-VA",
      "latitude": 37.2707,
      "longitude": -76.70746
    },
    {
      "id": 4794134,
      "name": "Winchester",
      "nativeName": "City of Winchester",
      "code": "US-VA-4794134",
      "countryId": 6252001,
      "countryCode": "US",
      "stateCode": "US-VA",
      "latitude": 39.18566,
      "longitude": -78.16333
    },
    {
      "id": 4794277,
      "name": "Wise",
      "nativeName": "Wise County",
      "code": "US-VA-4794277",
      "countryId": 6252001,
      "countryCode": "US",
      "stateCode": "US-VA",
      "latitude": 36.97522,
      "longitude": -82.62124
    },
    {
      "id": 4794827,
      "name": "Wythe",
      "nativeName": "Wythe County",
      "code": "US-VA-4794827",
      "countryId": 6252001,
      "countryCode": "US",
      "stateCode": "US-VA",
      "latitude": 36.91713,
      "longitude": -81.07859
    },
    {
      "id": 4794943,
      "name": "York",
      "nativeName": "York County",
      "code": "US-VA-4794943",
      "countryId": 6252001,
      "countryCode": "US",
      "stateCode": "US-VA",
      "latitude": 37.22541,
      "longitude": -76.52046
    }
  ]
}