{
  "countryId": 6252001,
  "countryCode": "US",
  "states": [
    {
      "id": 4829764,
      "name": "Alabama",
      "nativeName": "Alabama",
      "code": "US-AL",
      "internalCode": "AL",
      "countryId": 6252001,
      "countryCode": "US",
      "latitude": 32.75041,
      "longitude": -86.75026
    },
    {
      "id": 5879092,
      "name": "Alaska",
      "nativeName": "Alaska",
      "code": "US-AK",
      "internalCode": "AK",
      "countryId": 6252001,
      "countryCode": "US",
      "latitude": 64.00028,
      "longitude": -150.00028
    },
    {
      "id": 5551752,
      "name": "Arizona",
      "nativeName": "Arizona",
      "code": "US-AZ",
      "internalCode": "AZ",
      "countryId": 6252001,
      "countryCode": "US",
      "latitude": 34.5003,
      "longitude": -111.50098
    },
    {
      "id": 4099753,
      "name": "Arkansas",
      "nativeName": "Arkansas",
      "code": "US-AR",
      "internalCode": "AR",
      "countryId": 6252001,
      "countryCode": "US",
      "latitude": 34.75037,
      "longitude": -92.50044
    },
    {
      "id": 5332921,
      "name": "California",
      "nativeName": "California",
      "code": "US-CA",
      "internalCode": "CA",
      "countryId": 6252001,
      "countryCode": "US",
      "latitude": 37.25022,
      "longitude": -119.75126
    },
    {
      "id": 5417618,
      "name": "Colorado",
      "nativeName": "Colorado",
      "code": "US-CO",
      "internalCode": "CO",
      "countryId": 6252001,
      "countryCode": "US",
      "latitude": 39.00027,
      "longitude": -105.50083
    },
    {
      "id": 4831725,
      "name": "Connecticut",
      "nativeName": "Connecticut",
      "code": "US-CT",
      "internalCode": "CT",
      "countryId": 6252001,
      "countryCode": "US",
      "latitude": 41.66704,
      "longitude": -72.66648
    },
    {
      "id": 4142224,
      "name": "Delaware",
      "nativeName": "Delaware",
      "code": "US-DE",
      "internalCode": "DE",
      "countryId": 6252001,
      "countryCode": "US",
      "latitude": 39.00039,
      "longitude": -75.49992
    },
    {
      "id": 4138106,
      "name": "District of Columbia",
      "nativeName": "District of Columbia",
      "code": "US-DC",
      "internalCode": "DC",
      "countryId": 6252001,
      "countryCode": "US",
      "latitude": 38.91706,
      "longitude": -77.00025
    },
    {
      "id": 4155751,
      "name": "Florida",
      "nativeName": "Florida",
      "code": "US-FL",
      "internalCode": "FL",
      "countryId": 6252001,
      "countryCode": "US",
      "latitude": 28.75054,
      "longitude": -82.5001
    },
    {
      "id": 4197000,
      "name": "Georgia",
      "nativeName": "Georgia",
      "code": "US-GA",
      "internalCode": "GA",
      "countryId": 6252001,
      "countryCode": "US",
      "latitude": 32.75042,
      "longitude": -83.50018
    },
    {
      "id": 5855797,
      "name": "Hawaii",
      "nativeName": "Hawaii",
      "code": "US-HI",
      "internalCode": "HI",
      "countryId": 6252001,
      "countryCode": "US",
      "latitude": 20.78785,
      "longitude": -156.38612
    },
    {
      "id": 5596512,
      "name": "Idaho",
      "nativeName": "Idaho",
      "code": "US-ID",
      "internalCode": "ID",
      "countryId": 6252001,
      "countryCode": "US",
      "latitude": 44.5002,
      "longitude": -114.25118
    },
    {
      "id": 4896861,
      "name": "Illinois",
      "nativeName": "Illinois",
      "code": "US-IL",
      "internalCode": "IL",
      "countryId": 6252001,
      "countryCode": "US",
      "latitude": 40.00032,
      "longitude": -89.25037
    },
    {
      "id": 4921868,
      "name": "Indiana",
      "nativeName": "Indiana",
      "code": "US-IN",
      "internalCode": "IN",
      "countryId": 6252001,
      "countryCode": "US",
      "latitude": 40.00032,
      "longitude": -86.25027
    },
    {
      "id": 4862182,
      "name": "Iowa",
      "nativeName": "Iowa",
      "code": "US-IA",
      "internalCode": "IA",
      "countryId": 6252001,
      "countryCode": "US",
      "latitude": 42.00027,
      "longitude": -93.50049
    },
    {
      "id": 4273857,
      "name": "Kansas",
      "nativeName": "Kansas",
      "code": "US-KS",
      "internalCode": "KS",
      "countryId": 6252001,
      "countryCode": "US",
      "latitude": 38.50029,
      "longitude": -98.50063
    },
    {
      "id": 6254925,
      "name": "Kentucky",
      "nativeName": "Kentucky",
      "code": "US-KY",
      "internalCode": "KY",
      "countryId": 6252001,
      "countryCode": "US",
      "latitude": 38.20042,
      "longitude": -84.87762
    },
    {
      "id": 4331987,
      "name": "Louisiana",
      "nativeName": "Louisiana",
      "code": "US-LA",
      "internalCode": "LA",
      "countryId": 6252001,
      "countryCode": "US",
      "latitude": 31.00047,
      "longitude": -92.0004
    },
    {
      "id": 4971068,
      "name": "Maine",
      "nativeName": "Maine",
      "code": "US-ME",
      "internalCode": "ME",
      "countryId": 6252001,
      "countryCode": "US",
      "latitude": 45.50032,
      "longitude": -69.24977
    },
    {
      "id": 4361885,
      "name": "Maryland",
      "nativeName": "Maryland",
      "code": "US-MD",
      "internalCode": "MD",
      "countryId": 6252001,
      "countryCode": "US",
      "latitude": 39.00039,
      "longitude": -76.74997
    },
    {
      "id": 6254926,
      "name": "Massachusetts",
      "nativeName": "Massachusetts",
      "code": "US-MA",
      "internalCode": "MA",
      "countryId": 6252001,
      "countryCode": "US",
      "latitude": 42.36565,
      "longitude": -71.10832
    },
    {
      "id": 5001836,
      "name": "Michigan",
      "nativeName": "Michigan",
      "code": "US-MI",
      "internalCode": "MI",
      "countryId": 6252001,
      "countryCode": "US",
      "latitude": 44.25029,
      "longitude": -85.50033
    },
    {
      "id": 5037779,
      "name": "Minnesota",
      "nativeName": "Minnesota",
      "code": "US-MN",
      "internalCode": "MN",
      "countryId": 6252001,
      "countryCode": "US",
      "latitude": 46.25024,
      "longitude": -94.25055
    },
    {
      "id": 4436296,
      "name": "Mississippi",
      "nativeName": "Mississippi",
      "code": "US-MS",
      "internalCode": "MS",
      "countryId": 6252001,
      "countryCode": "US",
      "latitude": 32.75041,
      "longitude": -89.75036
    },
    {
      "id": 4398678,
      "name": "Missouri",
      "nativeName": "Missouri",
      "code": "US-MO",
      "internalCode": "MO",
      "countryId": 6252001,
      "countryCode": "US",
      "latitude": 38.25031,
      "longitude": -92.50046
    },
    {
      "id": 5667009,
      "name": "Montana",
      "nativeName": "Montana",
      "code": "US-MT",
      "internalCode": "MT",
      "countryId": 6252001,
      "countryCode": "US",
      "latitude": 47.00025,
      "longitude": -109.75102
    },
    {
      "id": 5073708,
      "name": "Nebraska",
      "nativeName": "Nebraska",
      "code": "US-NE",
      "internalCode": "NE",
      "countryId": 6252001,
      "countryCode": "US",
      "latitude": 41.50028,
      "longitude": -99.75067
    },
    {
      "id": 5509151,
      "name": "Nevada",
      "nativeName": "Nevada",
      "code": "US-NV",
      "internalCode": "NV",
      "countryId": 6252001,
      "countryCode": "US",
      "latitude": 39.25021,
      "longitude": -116.75119
    },
    {
      "id": 5090174,
      "name": "New Hampshire",
      "nativeName": "New Hampshire",
      "code": "US-NH",
      "internalCode": "NH",
      "countryId": 6252001,
      "countryCode": "US",
      "latitude": 43.66702,
      "longitude": -71.4998
    },
    {
      "id": 5101760,
      "name": "New Jersey",
      "nativeName": "New Jersey",
      "code": "US-NJ",
      "internalCode": "NJ",
      "countryId": 6252001,
      "countryCode": "US",
      "latitude": 40.16706,
      "longitude": -74.49987
    },
    {
      "id": 5481136,
      "name": "New Mexico",
      "nativeName": "New Mexico",
      "code": "US-NM",
      "internalCode": "NM",
      "countryId": 6252001,
      "countryCode": "US",
      "latitude": 34.50034,
      "longitude": -106.00085
    },
    {
      "id": 5128638,
      "name": "New York",
      "nativeName": "New York",
      "code": "US-NY",
      "internalCode": "NY",
      "countryId": 6252001,
      "countryCode": "US",
      "latitude": 43.00035,
      "longitude": -75.4999
    },
    {
      "id": 4482348,
      "name": "North Carolina",
      "nativeName": "North Carolina",
      "code": "US-NC",
      "internalCode": "NC",
      "countryId": 6252001,
      "countryCode": "US",
      "latitude": 35.50069,
      "longitude": -80.00032
    },
    {
      "id": 5690763,
      "name": "North Dakota",
      "nativeName": "North Dakota",
      "code": "US-ND",
      "internalCode": "ND",
      "countryId": 6252001,
      "countryCode": "US",
      "latitude": 47.50027,
      "longitude": -100.00068
    },
    {
      "id": 5165418,
      "name": "Ohio",
      "nativeName": "Ohio",
      "code": "US-OH",
      "internalCode": "OH",
      "countryId": 6252001,
      "countryCode": "US",
      "latitude": 40.25034,
      "longitude": -83.00018
    },
    {
      "id": 4544379,
      "name": "Oklahoma",
      "nativeName": "Oklahoma",
      "code": "US-OK",
      "internalCode": "OK",
      "countryId": 6252001,
      "countryCode": "US",
      "latitude": 35.49209,
      "longitude": -97.50328
    },
    {
      "id": 5744337,
      "name": "Oregon",
      "nativeName": "Oregon",
      "code": "US-OR",
      "internalCode": "OR",
      "countryId": 6252001,
      "countryCode": "US",
      "latitude": 44.00013,
      "longitude": -120.50139
    },
    {
      "id": 6254927,
      "name": "Pennsylvania",
      "nativeName": "Pennsylvania",
      "code": "US-PA",
      "internalCode": "PA",
      "countryId": 6252001,
      "countryCode": "US",
      "latitude": 40.8,
      "longitude": -77.7
    },
    {
      "id": 5224323,
      "name": "Rhode Island",
      "nativeName": "Rhode Island",
      "code": "US-RI",
      "internalCode": "RI",
      "countryId": 6252001,
      "countryCode": "US",
      "latitude": 41.75038,
      "longitude": -71.49978
    },
    {
      "id": 4597040,
      "name": "South Carolina",
      "nativeName": "South Carolina",
      "code": "US-SC",
      "internalCode": "SC",
      "countryId": 6252001,
      "countryCode": "US",
      "latitude": 34.00043,
      "longitude": -81.00009
    },
    {
      "id": 5769223,
      "name": "South Dakota",
      "nativeName": "South Dakota",
      "code": "US-SD",
      "internalCode": "SD",
      "countryId": 6252001,
      "countryCode": "US",
      "latitude": 44.50026,
      "longitude": -100.25069
    },
    {
      "id": 4662168,
      "name": "Tennessee",
      "nativeName": "Tennessee",
      "code": "US-TN",
      "internalCode": "TN",
      "countryId": 6252001,
      "countryCode": "US",
      "latitude": 35.75035,
      "longitude": -86.25027
    },
    {
      "id": 4736286,
      "name": "Texas",
      "nativeName": "Texas",
      "code": "US-TX",
      "internalCode": "TX",
      "countryId": 6252001,
      "countryCode": "US",
      "latitude": 31.25044,
      "longitude": -99.25061
    },
    {
      "id": 5549030,
      "name": "Utah",
      "nativeName": "Utah",
      "code": "US-UT",
      "internalCode": "UT",
      "countryId": 6252001,
      "countryCode": "US",
      "latitude": 39.25024,
      "longitude": -111.75103
    },
    {
      "id": 5242283,
      "name": "Vermont",
      "nativeName": "Vermont",
      "code": "US-VT",
      "internalCode": "VT",
      "countryId": 6252001,
      "countryCode": "US",
      "latitude": 44.00034,
      "longitude": -72.74983
    },
    {
      "id": 6254928,
      "name": "Virginia",
      "nativeName": "Virginia",
      "code": "US-VA",
      "internalCode": "VA",
      "countryId": 6252001,
      "countryCode": "US",
      "latitude": 37.54812,
      "longitude": -77.44675
    },
    {
      "id": 5815135,
      "name": "Washington",
      "nativeName": "Washington",
      "code": "US-WA",
      "internalCode": "WA",
      "countryId": 6252001,
      "countryCode": "US",
      "latitude": 47.50012,
      "longitude": -120.50147
    },
    {
      "id": 4826850,
      "name": "West Virginia",
      "nativeName": "West Virginia",
      "code": "US-WV",
      "internalCode": "WV",
      "countryId": 6252001,
      "countryCode": "US",
      "latitude": 38.50038,
      "longitude": -80.50009
    },
    {
      "id": 5279468,
      "name": "Wisconsin",
      "nativeName": "Wisconsin",
      "code": "US-WI",
      "internalCode": "WI",
      "countryId": 6252001,
      "countryCode": "US",
      "latitude": 44.50024,
      "longitude": -90.00041
    },
    {
      "id": 5843591,
      "name": "Wyoming",
      "nativeName": "Wyoming",
      "code": "US-WY",
      "internalCode": "WY",
      "countryId": 6252001,
      "countryCode": "US",
      "latitude": 43.00024,
      "longitude": -107.5009
    }
  ]
}