{
  "stateId": 6418538,
  "stateCode": "DK-84",
  "countryCode": "DK",
  "cities": [
    {
      "id": 2624905,
      "name": "Albertslund Kommune",
      "nativeName": "Albertslund Kommune",
      "code": "DK-84-2624905",
      "countryId": 2623032,
      "countryCode": "DK",
      "stateCode": "DK-84",
      "latitude": 55.68022,
      "longitude": 12.34797
    },
    {
      "id": 2624844,
      "name": "Allerød Kommune",
      "nativeName": "Allerød Kommune",
      "code": "DK-84-2624844",
      "countryId": 2623032,
      "countryCode": "DK",
      "stateCode": "DK-84",
      "latitude": 55.85856,
      "longitude": 12.32558
    },
    {
      "id": 2624340,
      "name": "Ballerup Kommune",
      "nativeName": "Ballerup Kommune",
      "code": "DK-84-2624340",
      "countryId": 2623032,
      "countryCode": "DK",
      "stateCode": "DK-84",
      "latitude": 55.73248,
      "longitude": 12.35793
    },
    {
      "id": 2623665,
      "name": "Bornholm Kommune",
      "nativeName": "Bornholm Kommune",
      "code": "DK-84-2623665",
      "countryId": 2623032,
      "countryCode": "DK",
      "stateCode": "DK-84",
      "latitude": 55.12386,
      "longitude": 14.91115
    },
    {
      "id": 2623352,
      "name": "Brøndby Kommune",
      "nativeName": "Brøndby Kommune",
      "code": "DK-84-2623352",
      "countryId": 2623032,
      "countryCode": "DK",
      "stateCode": "DK-84",
      "latitude": 55.6429,
      "longitude": 12.41101
    },
    {
      "id": 2623170,
      "name": "Christiansø",
      "nativeName": "Christiansø",
      "code": "DK-84-2623170",
      "countryId": 2623032,
      "countryCode": "DK",
      "stateCode": "DK-84",
      "latitude": 55.31982,
      "longitude": 15.18783
    },
    {
      "id": 2618424,
      "name": "Copenhagen",
      "nativeName": "København",
      "code": "DK-84-2618424",
      "countryId": 2623032,
      "countryCode": "DK",
      "stateCode": "DK-84",
      "latitude": 55.6711,
      "longitude": 12.56529
    },
    {
      "id": 2622935,
      "name": "Dragør Kommune",
      "nativeName": "Dragør Kommune",
      "code": "DK-84-2622935",
      "countryId": 2623032,
      "countryCode": "DK",
      "stateCode": "DK-84",
      "latitude": 55.58233,
      "longitude": 12.62756
    },
    {
      "id": 6543948,
      "name": "Egedal Kommune",
      "nativeName": "Egedal Kommune",
      "code": "DK-84-6543948",
      "countryId": 2623032,
      "countryCode": "DK",
      "stateCode": "DK-84",
      "latitude": 55.75556,
      "longitude": 12.22778
    },
    {
      "id": 6543940,
      "name": "Fredensborg Kommune",
      "nativeName": "Fredensborg Kommune",
      "code": "DK-84-6543940",
      "countryId": 2623032,
      "countryCode": "DK",
      "stateCode": "DK-84",
      "latitude": 55.95,
      "longitude": 12.45
    },
    {
      "id": 2621941,
      "name": "Frederiksberg Kommune",
      "nativeName": "Frederiksberg Kommune",
      "code": "DK-84-2621941",
      "countryId": 2623032,
      "countryCode": "DK",
      "stateCode": "DK-84",
      "latitude": 55.67856,
      "longitude": 12.52216
    },
    {
      "id": 2621911,
      "name": "Frederikssund Kommune",
      "nativeName": "Frederikssund Kommune",
      "code": "DK-84-2621911",
      "countryId": 2623032,
      "countryCode": "DK",
      "stateCode": "DK-84",
      "latitude": 55.80957,
      "longitude": 12.04038
    },
    {
      "id": 6543927,
      "name": "Furesø Kommune",
      "nativeName": "Furesø Kommune",
      "code": "DK-84-6543927",
      "countryId": 2623032,
      "countryCode": "DK",
      "stateCode": "DK-84",
      "latitude": 55.78333,
      "longitude": 12.34167
    },
    {
      "id": 2621514,
      "name": "Gentofte Kommune",
      "nativeName": "Gentofte Kommune",
      "code": "DK-84-2621514",
      "countryId": 2623032,
      "countryCode": "DK",
      "stateCode": "DK-84",
      "latitude": 55.75,
      "longitude": 12.55
    },
    {
      "id": 2621394,
      "name": "Gladsaxe Municipality",
      "nativeName": "Gladsaxe Municipality",
      "code": "DK-84-2621394",
      "countryId": 2623032,
      "countryCode": "DK",
      "stateCode": "DK-84",
      "latitude": 55.76667,
      "longitude": 12.43333
    },
    {
      "id": 2621354,
      "name": "Glostrup Kommune",
      "nativeName": "Glostrup Kommune",
      "code": "DK-84-2621354",
      "countryId": 2623032,
      "countryCode": "DK",
      "stateCode": "DK-84",
      "latitude": 55.68188,
      "longitude": 12.41018
    },
    {
      "id": 6543945,
      "name": "Gribskov Kommune",
      "nativeName": "Gribskov Kommune",
      "code": "DK-84-6543945",
      "countryId": 2623032,
      "countryCode": "DK",
      "stateCode": "DK-84",
      "latitude": 56.05833,
      "longitude": 12.24167
    },
    {
      "id": 6543941,
      "name": "Halsnæs Kommune",
      "nativeName": "Halsnæs Kommune",
      "code": "DK-84-6543941",
      "countryId": 2623032,
      "countryCode": "DK",
      "stateCode": "DK-84",
      "latitude": 55.96765,
      "longitude": 11.94214
    },
    {
      "id": 2620469,
      "name": "Helsingør Kommune",
      "nativeName": "Helsingør Kommune",
      "code": "DK-84-2620469",
      "countryId": 2623032,
      "countryCode": "DK",
      "stateCode": "DK-84",
      "latitude": 56.05,
      "longitude": 12.5
    },
    {
      "id": 2620430,
      "name": "Herlev Kommune",
      "nativeName": "Herlev Kommune",
      "code": "DK-84-2620430",
      "countryId": 2623032,
      "countryCode": "DK",
      "stateCode": "DK-84",
      "latitude": 55.73317,
      "longitude": 12.43106
    },
    {
      "id": 2620321,
      "name": "Hillerød Kommune",
      "nativeName": "Hillerød Kommune",
      "code": "DK-84-2620321",
      "countryId": 2623032,
      "countryCode": "DK",
      "stateCode": "DK-84",
      "latitude": 55.92319,
      "longitude": 12.23794
    },
    {
      "id": 2619527,
      "name": "Hvidovre Kommune",
      "nativeName": "Hvidovre Kommune",
      "code": "DK-84-2619527",
      "countryId": 2623032,
      "countryCode": "DK",
      "stateCode": "DK-84",
      "latitude": 55.63166,
      "longitude": 12.46615
    },
    {
      "id": 6543938,
      "name": "Høje-Taastrup Kommune",
      "nativeName": "Høje-Taastrup Kommune",
      "code": "DK-84-6543938",
      "countryId": 2623032,
      "countryCode": "DK",
      "stateCode": "DK-84",
      "latitude": 55.65643,
      "longitude": 12.24854
    },
    {
      "id": 2619762,
      "name": "Hørsholm Kommune",
      "nativeName": "Hørsholm Kommune",
      "code": "DK-84-2619762",
      "countryId": 2623032,
      "countryCode": "DK",
      "stateCode": "DK-84",
      "latitude": 55.88759,
      "longitude": 12.48566
    },
    {
      "id": 2619378,
      "name": "Ishøj Kommune",
      "nativeName": "Ishøj Kommune",
      "code": "DK-84-2619378",
      "countryId": 2623032,
      "countryCode": "DK",
      "stateCode": "DK-84",
      "latitude": 55.62299,
      "longitude": 12.30567
    },
    {
      "id": 2617227,
      "name": "Lyngby-Tårbæk Kommune",
      "nativeName": "Lyngby-Tårbæk Kommune",
      "code": "DK-84-2617227",
      "countryId": 2623032,
      "countryCode": "DK",
      "stateCode": "DK-84",
      "latitude": 55.78456,
      "longitude": 12.50508
    },
    {
      "id": 6543943,
      "name": "Rudersdal Kommune",
      "nativeName": "Rudersdal Kommune",
      "code": "DK-84-6543943",
      "countryId": 2623032,
      "countryCode": "DK",
      "stateCode": "DK-84",
      "latitude": 55.825,
      "longitude": 12.49167
    },
    {
      "id": 2614677,
      "name": "Rødovre Kommune",
      "nativeName": "Rødovre Kommune",
      "code": "DK-84-2614677",
      "countryId": 2623032,
      "countryCode": "DK",
      "stateCode": "DK-84",
      "latitude": 55.68852,
      "longitude": 12.44834
    },
    {
      "id": 2611861,
      "name": "Tårnby Kommune",
      "nativeName": "Tårnby Kommune",
      "code": "DK-84-2611861",
      "countryId": 2623032,
      "countryCode": "DK",
      "stateCode": "DK-84",
      "latitude": 55.60391,
      "longitude": 12.59599
    },
    {
      "id": 2610788,
      "name": "Vallensbæk Kommune",
      "nativeName": "Vallensbæk Kommune",
      "code": "DK-84-2610788",
      "countryId": 2623032,
      "countryCode": "DK",
      "stateCode": "DK-84",
      "latitude": 55.63128,
      "longitude": 12.37369
    }
  ]
}