{
  "stateId": 1653315,
  "stateCode": "LA-SV",
  "countryCode": "LA",
  "cities": [
    {
      "id": 1904784,
      "name": "Muang Alsaphangthong",
      "nativeName": "Muang Alsaphangthong",
      "code": "LA-SV-1904784",
      "countryId": 1655842,
      "countryCode": "LA",
      "stateCode": "LA-SV",
      "latitude": 16.72645,
      "longitude": 105.39326
    },
    {
      "id": 1904786,
      "name": "Muang Atsaphan",
      "nativeName": "Muang Atsaphan",
      "code": "LA-SV-1904786",
      "countryId": 1655842,
      "countryCode": "LA",
      "stateCode": "LA-SV",
      "latitude": 16.9474,
      "longitude": 105.4029
    },
    {
      "id": 1657816,
      "name": "Muang Champhon",
      "nativeName": "Muang Champhon",
      "code": "LA-SV-1657816",
      "countryId": 1655842,
      "countryCode": "LA",
      "stateCode": "LA-SV",
      "latitude": 16.49363,
      "longitude": 105.2202
    },
    {
      "id": 1654616,
      "name": "Muang Nong",
      "nativeName": "Muang Nong",
      "code": "LA-SV-1654616",
      "countryId": 1655842,
      "countryCode": "LA",
      "stateCode": "LA-SV",
      "latitude": 16.38458,
      "longitude": 106.50419
    },
    {
      "id": 1904783,
      "name": "Muang Outhoumphon",
      "nativeName": "Muang Outhoumphon",
      "code": "LA-SV-1904783",
      "countryId": 1655842,
      "countryCode": "LA",
      "stateCode": "LA-SV",
      "latitude": 16.66667,
      "longitude": 105.05
    },
    {
      "id": 1653916,
      "name": "Muang Phin",
      "nativeName": "Muang Phin",
      "code": "LA-SV-1653916",
      "countryId": 1655842,
      "countryCode": "LA",
      "stateCode": "LA-SV",
      "latitude": 16.44316,
      "longitude": 106.03019
    },
    {
      "id": 1653070,
      "name": "Muang Songkhon",
      "nativeName": "Muang Songkhon",
      "code": "LA-SV-1653070",
      "countryId": 1655842,
      "countryCode": "LA",
      "stateCode": "LA-SV",
      "latitude": 16.17116,
      "longitude": 105.30729
    },
    {
      "id": 1904777,
      "name": "Muang Thapangthong",
      "nativeName": "Muang Thapangthong",
      "code": "LA-SV-1904777",
      "countryId": 1655842,
      "countryCode": "LA",
      "stateCode": "LA-SV",
      "latitude": 16.09132,
      "longitude": 105.81038
    },
    {
      "id": 1904787,
      "name": "Muang Vilabouli",
      "nativeName": "Muang Vilabouli",
      "code": "LA-SV-1904787",
      "countryId": 1655842,
      "countryCode": "LA",
      "stateCode": "LA-SV",
      "latitude": 16.94067,
      "longitude": 105.93677
    },
    {
      "id": 1904785,
      "name": "Muang Xaibouli",
      "nativeName": "Muang Xaibouli",
      "code": "LA-SV-1904785",
      "countryId": 1655842,
      "countryCode": "LA",
      "stateCode": "LA-SV",
      "latitude": 16.94432,
      "longitude": 104.92312
    },
    {
      "id": 10375959,
      "name": "Muang Xayphoothong",
      "nativeName": "Muang Xayphoothong",
      "code": "LA-SV-10375959",
      "countryId": 1655842,
      "countryCode": "LA",
      "stateCode": "LA-SV",
      "latitude": 16.3737,
      "longitude": 105.02165
    },
    {
      "id": 1652095,
      "name": "Muang Xépôn",
      "nativeName": "Muang Xépôn",
      "code": "LA-SV-1652095",
      "countryId": 1655842,
      "countryCode": "LA",
      "stateCode": "LA-SV",
      "latitude": 16.76113,
      "longitude": 106.33757
    },
    {
      "id": 1904780,
      "name": "Muang Xônbouli",
      "nativeName": "Muang Xônbouli",
      "code": "LA-SV-1904780",
      "countryId": 1655842,
      "countryCode": "LA",
      "stateCode": "LA-SV",
      "latitude": 16.40036,
      "longitude": 105.57388
    },
    {
      "id": 10375967,
      "name": "Savannakhet",
      "nativeName": "Kaysone Phomvihane",
      "code": "LA-SV-10375967",
      "countryId": 1655842,
      "countryCode": "LA",
      "stateCode": "LA-SV",
      "latitude": 16.54943,
      "longitude": 104.82339
    },
    {
      "id": 7648078,
      "name": "Thaphalanxay",
      "nativeName": "Thaphalanxay",
      "code": "LA-SV-7648078",
      "countryId": 1655842,
      "countryCode": "LA",
      "stateCode": "LA-SV",
      "latitude": 16.7,
      "longitude": 105.6
    }
  ]
}