{
  "stateId": 7533609,
  "stateCode": "HK-HSO",
  "countryCode": "HK",
  "cities": [
    {
      "id": 1819757,
      "name": "Aberdeen",
      "nativeName": "Aberdeen",
      "code": "HK-HSO-1819757",
      "countryId": 1819730,
      "countryCode": "HK",
      "stateCode": "HK-HSO",
      "latitude": 22.24802,
      "longitude": 114.15289
    },
    {
      "id": 12719790,
      "name": "Aberdeen Centre",
      "nativeName": "Aberdeen Centre",
      "code": "HK-HSO-12719790",
      "countryId": 1819730,
      "countryCode": "HK",
      "stateCode": "HK-HSO",
      "latitude": 22.24842,
      "longitude": 114.15406
    },
    {
      "id": 12719431,
      "name": "Ap Lei Chau Estate",
      "nativeName": "Ap Lei Chau Estate",
      "code": "HK-HSO-12719431",
      "countryId": 1819730,
      "countryCode": "HK",
      "stateCode": "HK-HSO",
      "latitude": 22.24473,
      "longitude": 114.15052
    },
    {
      "id": 12719800,
      "name": "Baguio Villa",
      "nativeName": "Baguio Villa",
      "code": "HK-HSO-12719800",
      "countryId": 1819730,
      "countryCode": "HK",
      "stateCode": "HK-HSO",
      "latitude": 22.26234,
      "longitude": 114.13364
    },
    {
      "id": 12719794,
      "name": "Broadview Court",
      "nativeName": "Broadview Court",
      "code": "HK-HSO-12719794",
      "countryId": 1819730,
      "countryCode": "HK",
      "stateCode": "HK-HSO",
      "latitude": 22.24269,
      "longitude": 114.16566
    },
    {
      "id": 12719795,
      "name": "Chi Fu Fa Yuen",
      "nativeName": "Chi Fu Fa Yuen",
      "code": "HK-HSO-12719795",
      "countryId": 1819730,
      "countryCode": "HK",
      "stateCode": "HK-HSO",
      "latitude": 22.25582,
      "longitude": 114.13928
    },
    {
      "id": 9172573,
      "name": "Deep Water Bay",
      "nativeName": "Deep Water Bay",
      "code": "HK-HSO-9172573",
      "countryId": 1819730,
      "countryCode": "HK",
      "stateCode": "HK-HSO",
      "latitude": 22.25018,
      "longitude": 114.18344
    },
    {
      "id": 1819735,
      "name": "Hok Tsui Wan",
      "nativeName": "Hok Tsui Wan",
      "code": "HK-HSO-1819735",
      "countryId": 1819730,
      "countryCode": "HK",
      "stateCode": "HK-HSO",
      "latitude": 22.21667,
      "longitude": 114.25
    },
    {
      "id": 11748064,
      "name": "Hok-Tsui Tsuen",
      "nativeName": "Hok-Tsui Tsuen",
      "code": "HK-HSO-11748064",
      "countryId": 1819730,
      "countryCode": "HK",
      "stateCode": "HK-HSO",
      "latitude": 22.20985,
      "longitude": 114.24592
    },
    {
      "id": 12719796,
      "name": "Ka Lung Court",
      "nativeName": "Ka Lung Court",
      "code": "HK-HSO-12719796",
      "countryId": 1819730,
      "countryCode": "HK",
      "stateCode": "HK-HSO",
      "latitude": 22.24948,
      "longitude": 114.13869
    },
    {
      "id": 10862426,
      "name": "Kellet Bay",
      "nativeName": "Kellet Bay",
      "code": "HK-HSO-10862426",
      "countryId": 1819730,
      "countryCode": "HK",
      "stateCode": "HK-HSO",
      "latitude": 22.25041,
      "longitude": 114.13881
    },
    {
      "id": 1819546,
      "name": "Lan Nai Wan",
      "nativeName": "Lan Nai Wan",
      "code": "HK-HSO-1819546",
      "countryId": 1819730,
      "countryCode": "HK",
      "stateCode": "HK-HSO",
      "latitude": 22.2411,
      "longitude": 114.23542
    },
    {
      "id": 12640693,
      "name": "Lei Tung",
      "nativeName": "Lei Tung",
      "code": "HK-HSO-12640693",
      "countryId": 1819730,
      "countryCode": "HK",
      "stateCode": "HK-HSO",
      "latitude": 22.24052,
      "longitude": 114.15757
    },
    {
      "id": 12719787,
      "name": "Lei Tung Estate",
      "nativeName": "Lei Tung Estate",
      "code": "HK-HSO-12719787",
      "countryId": 1819730,
      "countryCode": "HK",
      "stateCode": "HK-HSO",
      "latitude": 22.24115,
      "longitude": 114.15523
    },
    {
      "id": 1819482,
      "name": "Long Ke",
      "nativeName": "Long Ke",
      "code": "HK-HSO-1819482",
      "countryId": 1819730,
      "countryCode": "HK",
      "stateCode": "HK-HSO",
      "latitude": 22.37636,
      "longitude": 114.37504
    },
    {
      "id": 1819277,
      "name": "Ngan Hang",
      "nativeName": "Ngan Hang",
      "code": "HK-HSO-1819277",
      "countryId": 1819730,
      "countryCode": "HK",
      "stateCode": "HK-HSO",
      "latitude": 22.23111,
      "longitude": 114.23687
    },
    {
      "id": 1819138,
      "name": "Pak Tam",
      "nativeName": "Pak Tam",
      "code": "HK-HSO-1819138",
      "countryId": 1819730,
      "countryCode": "HK",
      "stateCode": "HK-HSO",
      "latitude": 22.40958,
      "longitude": 114.31728
    },
    {
      "id": 1819136,
      "name": "Pak Tam Chung",
      "nativeName": "Pak Tam Chung",
      "code": "HK-HSO-1819136",
      "countryId": 1819730,
      "countryCode": "HK",
      "stateCode": "HK-HSO",
      "latitude": 22.39889,
      "longitude": 114.32064
    },
    {
      "id": 1819091,
      "name": "Pok Fu Lam",
      "nativeName": "Pok Fu Lam",
      "code": "HK-HSO-1819091",
      "countryId": 1819730,
      "countryCode": "HK",
      "stateCode": "HK-HSO",
      "latitude": 22.26861,
      "longitude": 114.12924
    },
    {
      "id": 12719802,
      "name": "Pokfulam Gardens",
      "nativeName": "Pokfulam Gardens",
      "code": "HK-HSO-12719802",
      "countryId": 1819730,
      "countryCode": "HK",
      "stateCode": "HK-HSO",
      "latitude": 22.25776,
      "longitude": 114.13751
    },
    {
      "id": 1818480,
      "name": "Repulse Bay",
      "nativeName": "Repulse Bay",
      "code": "HK-HSO-1818480",
      "countryId": 1819730,
      "countryCode": "HK",
      "stateCode": "HK-HSO",
      "latitude": 22.23655,
      "longitude": 114.19954
    },
    {
      "id": 12719788,
      "name": "Residence Bel-air",
      "nativeName": "Residence Bel-air",
      "code": "HK-HSO-12719788",
      "countryId": 1819730,
      "countryCode": "HK",
      "stateCode": "HK-HSO",
      "latitude": 22.25466,
      "longitude": 114.13289
    },
    {
      "id": 1819032,
      "name": "Sai Wan",
      "nativeName": "Sai Wan",
      "code": "HK-HSO-1819032",
      "countryId": 1819730,
      "countryCode": "HK",
      "stateCode": "HK-HSO",
      "latitude": 22.39629,
      "longitude": 114.37056
    },
    {
      "id": 1818883,
      "name": "Shek O",
      "nativeName": "Shek O",
      "code": "HK-HSO-1818883",
      "countryId": 1819730,
      "countryCode": "HK",
      "stateCode": "HK-HSO",
      "latitude": 22.23344,
      "longitude": 114.25121
    },
    {
      "id": 1818880,
      "name": "Shek Pai Wan Estate",
      "nativeName": "Shek Pai Wan Estate",
      "code": "HK-HSO-1818880",
      "countryId": 1819730,
      "countryCode": "HK",
      "stateCode": "HK-HSO",
      "latitude": 22.2493,
      "longitude": 114.15812
    },
    {
      "id": 1818827,
      "name": "Sheung Yiu",
      "nativeName": "Sheung Yiu",
      "code": "HK-HSO-1818827",
      "countryId": 1819730,
      "countryCode": "HK",
      "stateCode": "HK-HSO",
      "latitude": 22.3916,
      "longitude": 114.32289
    },
    {
      "id": 1818818,
      "name": "Shouson Hill",
      "nativeName": "Shouson Hill",
      "code": "HK-HSO-1818818",
      "countryId": 1819730,
      "countryCode": "HK",
      "stateCode": "HK-HSO",
      "latitude": 22.24843,
      "longitude": 114.17993
    },
    {
      "id": 12719432,
      "name": "South Horizons",
      "nativeName": "South Horizons",
      "code": "HK-HSO-12719432",
      "countryId": 1819730,
      "countryCode": "HK",
      "stateCode": "HK-HSO",
      "latitude": 22.24383,
      "longitude": 114.14828
    },
    {
      "id": 12719791,
      "name": "South Horizons (Estate)",
      "nativeName": "South Horizons (Estate)",
      "code": "HK-HSO-12719791",
      "countryId": 1819730,
      "countryCode": "HK",
      "stateCode": "HK-HSO",
      "latitude": 22.24411,
      "longitude": 114.14616
    },
    {
      "id": 12719789,
      "name": "South Wave Court",
      "nativeName": "South Wave Court",
      "code": "HK-HSO-12719789",
      "countryId": 1819730,
      "countryCode": "HK",
      "stateCode": "HK-HSO",
      "latitude": 22.24463,
      "longitude": 114.16623
    },
    {
      "id": 1819980,
      "name": "Stanley",
      "nativeName": "Chek Chue",
      "code": "HK-HSO-1819980",
      "countryId": 1819730,
      "countryCode": "HK",
      "stateCode": "HK-HSO",
      "latitude": 22.21849,
      "longitude": 114.21241
    },
    {
      "id": 1818650,
      "name": "Tai Tam",
      "nativeName": "Tai Tam",
      "code": "HK-HSO-1818650",
      "countryId": 1819730,
      "countryCode": "HK",
      "stateCode": "HK-HSO",
      "latitude": 22.21997,
      "longitude": 114.21336
    },
    {
      "id": 1818557,
      "name": "Tin Wan",
      "nativeName": "Tin Wan",
      "code": "HK-HSO-1818557",
      "countryId": 1819730,
      "countryCode": "HK",
      "stateCode": "HK-HSO",
      "latitude": 22.25113,
      "longitude": 114.14726
    },
    {
      "id": 12719785,
      "name": "Tin Wan Estate",
      "nativeName": "Tin Wan Estate",
      "code": "HK-HSO-12719785",
      "countryId": 1819730,
      "countryCode": "HK",
      "stateCode": "HK-HSO",
      "latitude": 22.25073,
      "longitude": 114.1487
    },
    {
      "id": 1818525,
      "name": "To Tei Wan",
      "nativeName": "To Tei Wan",
      "code": "HK-HSO-1818525",
      "countryId": 1819730,
      "countryCode": "HK",
      "stateCode": "HK-HSO",
      "latitude": 22.22547,
      "longitude": 114.23809
    },
    {
      "id": 1818385,
      "name": "Wah Fu",
      "nativeName": "Wah Fu",
      "code": "HK-HSO-1818385",
      "countryId": 1819730,
      "countryCode": "HK",
      "stateCode": "HK-HSO",
      "latitude": 22.25474,
      "longitude": 114.13622
    },
    {
      "id": 12719541,
      "name": "Wah Kwai",
      "nativeName": "Wah Kwai",
      "code": "HK-HSO-12719541",
      "countryId": 1819730,
      "countryCode": "HK",
      "stateCode": "HK-HSO",
      "latitude": 22.25097,
      "longitude": 114.14005
    },
    {
      "id": 12719793,
      "name": "Wah Kwai Estate",
      "nativeName": "Wah Kwai Estate",
      "code": "HK-HSO-12719793",
      "countryId": 1819730,
      "countryCode": "HK",
      "stateCode": "HK-HSO",
      "latitude": 22.25044,
      "longitude": 114.13964
    },
    {
      "id": 10177127,
      "name": "Waterfall Bay",
      "nativeName": "Waterfall Bay",
      "code": "HK-HSO-10177127",
      "countryId": 1819730,
      "countryCode": "HK",
      "stateCode": "HK-HSO",
      "latitude": 22.25256,
      "longitude": 114.13374
    },
    {
      "id": 1818336,
      "name": "Wong Chuk Hang Kau Wai",
      "nativeName": "Wong Chuk Hang Kau Wai",
      "code": "HK-HSO-1818336",
      "countryId": 1819730,
      "countryCode": "HK",
      "stateCode": "HK-HSO",
      "latitude": 22.39847,
      "longitude": 114.28362
    },
    {
      "id": 1818335,
      "name": "Wong Chuk Hang San Wai",
      "nativeName": "Wong Chuk Hang San Wai",
      "code": "HK-HSO-1818335",
      "countryId": 1819730,
      "countryCode": "HK",
      "stateCode": "HK-HSO",
      "latitude": 22.24909,
      "longitude": 114.17741
    },
    {
      "id": 1818320,
      "name": "Wong Keng Tei",
      "nativeName": "Wong Keng Tei",
      "code": "HK-HSO-1818320",
      "countryId": 1819730,
      "countryCode": "HK",
      "stateCode": "HK-HSO",
      "latitude": 22.39442,
      "longitude": 114.31739
    },
    {
      "id": 12719799,
      "name": "Yue Fai Court",
      "nativeName": "Yue Fai Court",
      "code": "HK-HSO-12719799",
      "countryId": 1819730,
      "countryCode": "HK",
      "stateCode": "HK-HSO",
      "latitude": 22.2498,
      "longitude": 114.15678
    },
    {
      "id": 1818236,
      "name": "Yue Kwong Chuen",
      "nativeName": "Yue Kwong Chuen",
      "code": "HK-HSO-1818236",
      "countryId": 1819730,
      "countryCode": "HK",
      "stateCode": "HK-HSO",
      "latitude": 22.25158,
      "longitude": 114.15764
    },
    {
      "id": 12719798,
      "name": "Yue On Court",
      "nativeName": "Yue On Court",
      "code": "HK-HSO-12719798",
      "countryId": 1819730,
      "countryCode": "HK",
      "stateCode": "HK-HSO",
      "latitude": 22.24304,
      "longitude": 114.15746
    },
    {
      "id": 9172583,
      "name": "Wong Chuk Hang",
      "nativeName": "Wong Chuk Hang",
      "code": "HK-HSO-9172583",
      "countryId": 1819730,
      "countryCode": "HK",
      "stateCode": "HK-HSO",
      "latitude": 22.23981,
      "longitude": 114.17001
    }
  ]
}