{
  "stateId": 7533611,
  "stateCode": "HK-KSS",
  "countryCode": "HK",
  "cities": [
    {
      "id": 1818953,
      "name": "Sham Shui Po",
      "nativeName": "Sham Shui Po",
      "code": "HK-KSS-1818953",
      "countryId": 1819730,
      "countryCode": "HK",
      "stateCode": "HK-KSS",
      "latitude": 22.33023,
      "longitude": 114.15945
    },
    {
      "id": 12719576,
      "name": "Aqua Marine",
      "nativeName": "Aqua Marine",
      "code": "HK-KSS-12719576",
      "countryId": 1819730,
      "countryCode": "HK",
      "stateCode": "HK-KSS",
      "latitude": 22.33258,
      "longitude": 114.14867
    },
    {
      "id": 12719561,
      "name": "Banyan Garden",
      "nativeName": "Banyan Garden",
      "code": "HK-KSS-12719561",
      "countryId": 1819730,
      "countryCode": "HK",
      "stateCode": "HK-KSS",
      "latitude": 22.3346,
      "longitude": 114.14797
    },
    {
      "id": 12719577,
      "name": "Chak On Estate",
      "nativeName": "Chak On Estate",
      "code": "HK-KSS-12719577",
      "countryId": 1819730,
      "countryCode": "HK",
      "stateCode": "HK-KSS",
      "latitude": 22.34029,
      "longitude": 114.16454
    },
    {
      "id": 1819952,
      "name": "Cheung Sha Wan",
      "nativeName": "Cheung Sha Wan",
      "code": "HK-KSS-1819952",
      "countryId": 1819730,
      "countryCode": "HK",
      "stateCode": "HK-KSS",
      "latitude": 22.23296,
      "longitude": 114.0045
    },
    {
      "id": 12719563,
      "name": "Cheung Sha Wan Estate",
      "nativeName": "Cheung Sha Wan Estate",
      "code": "HK-KSS-12719563",
      "countryId": 1819730,
      "countryCode": "HK",
      "stateCode": "HK-KSS",
      "latitude": 22.33453,
      "longitude": 114.15623
    },
    {
      "id": 12719558,
      "name": "Fortune Estate",
      "nativeName": "Fortune Estate",
      "code": "HK-KSS-12719558",
      "countryId": 1819730,
      "countryCode": "HK",
      "stateCode": "HK-KSS",
      "latitude": 22.33556,
      "longitude": 114.15373
    },
    {
      "id": 12719572,
      "name": "Fu Cheong Estate",
      "nativeName": "Fu Cheong Estate",
      "code": "HK-KSS-12719572",
      "countryId": 1819730,
      "countryCode": "HK",
      "stateCode": "HK-KSS",
      "latitude": 22.32891,
      "longitude": 114.15399
    },
    {
      "id": 1819811,
      "name": "Ha Keng",
      "nativeName": "Ha Keng",
      "code": "HK-KSS-1819811",
      "countryId": 1819730,
      "countryCode": "HK",
      "stateCode": "HK-KSS",
      "latitude": 22.22153,
      "longitude": 114.00913
    },
    {
      "id": 12719569,
      "name": "Hoi Lai Estate",
      "nativeName": "Hoi Lai Estate",
      "code": "HK-KSS-12719569",
      "countryId": 1819730,
      "countryCode": "HK",
      "stateCode": "HK-KSS",
      "latitude": 22.33182,
      "longitude": 114.14667
    },
    {
      "id": 12719571,
      "name": "Hoi Lok Court",
      "nativeName": "Hoi Lok Court",
      "code": "HK-KSS-12719571",
      "countryId": 1819730,
      "countryCode": "HK",
      "stateCode": "HK-KSS",
      "latitude": 22.32781,
      "longitude": 114.14913
    },
    {
      "id": 12719568,
      "name": "Hoi Tat Estate",
      "nativeName": "Hoi Tat Estate",
      "code": "HK-KSS-12719568",
      "countryId": 1819730,
      "countryCode": "HK",
      "stateCode": "HK-KSS",
      "latitude": 22.33017,
      "longitude": 114.14946
    },
    {
      "id": 12719567,
      "name": "Hoi Ying Estate",
      "nativeName": "Hoi Ying Estate",
      "code": "HK-KSS-12719567",
      "countryId": 1819730,
      "countryCode": "HK",
      "stateCode": "HK-KSS",
      "latitude": 22.32853,
      "longitude": 114.14825
    },
    {
      "id": 1819567,
      "name": "Lai Chi Kok",
      "nativeName": "Lai Chi Kok",
      "code": "HK-KSS-1819567",
      "countryId": 1819730,
      "countryCode": "HK",
      "stateCode": "HK-KSS",
      "latitude": 22.3369,
      "longitude": 114.14031
    },
    {
      "id": 12719580,
      "name": "Lai Kok Estate",
      "nativeName": "Lai Kok Estate",
      "code": "HK-KSS-12719580",
      "countryId": 1819730,
      "countryCode": "HK",
      "stateCode": "HK-KSS",
      "latitude": 22.33227,
      "longitude": 114.15691
    },
    {
      "id": 12719578,
      "name": "Lai On Estate",
      "nativeName": "Lai On Estate",
      "code": "HK-KSS-12719578",
      "countryId": 1819730,
      "countryCode": "HK",
      "stateCode": "HK-KSS",
      "latitude": 22.33135,
      "longitude": 114.15857
    },
    {
      "id": 12719579,
      "name": "Lai Tsui Court",
      "nativeName": "Lai Tsui Court",
      "code": "HK-KSS-12719579",
      "countryId": 1819730,
      "countryCode": "HK",
      "stateCode": "HK-KSS",
      "latitude": 22.33376,
      "longitude": 114.15506
    },
    {
      "id": 12719557,
      "name": "Lei Cheng Uk Estate",
      "nativeName": "Lei Cheng Uk Estate",
      "code": "HK-KSS-12719557",
      "countryId": 1819730,
      "countryCode": "HK",
      "stateCode": "HK-KSS",
      "latitude": 22.33937,
      "longitude": 114.15921
    },
    {
      "id": 12719560,
      "name": "Liberte",
      "nativeName": "Liberte",
      "code": "HK-KSS-12719560",
      "countryId": 1819730,
      "countryCode": "HK",
      "stateCode": "HK-KSS",
      "latitude": 22.33465,
      "longitude": 114.14886
    },
    {
      "id": 1819439,
      "name": "Lung Mei",
      "nativeName": "Lung Mei",
      "code": "HK-KSS-1819439",
      "countryId": 1819730,
      "countryCode": "HK",
      "stateCode": "HK-KSS",
      "latitude": 22.22559,
      "longitude": 114.00083
    },
    {
      "id": 12719570,
      "name": "Manhattan Hill",
      "nativeName": "Manhattan Hill",
      "code": "HK-KSS-12719570",
      "countryId": 1819730,
      "countryCode": "HK",
      "stateCode": "HK-KSS",
      "latitude": 22.33458,
      "longitude": 114.14231
    },
    {
      "id": 12640681,
      "name": "Mei Foo",
      "nativeName": "Mei Foo",
      "code": "HK-KSS-12640681",
      "countryId": 1819730,
      "countryCode": "HK",
      "stateCode": "HK-KSS",
      "latitude": 22.33719,
      "longitude": 114.13856
    },
    {
      "id": 12719566,
      "name": "Mei Foo Sun Chuen",
      "nativeName": "Mei Foo Sun Chuen",
      "code": "HK-KSS-12719566",
      "countryId": 1819730,
      "countryCode": "HK",
      "stateCode": "HK-KSS",
      "latitude": 22.33636,
      "longitude": 114.14018
    },
    {
      "id": 12689055,
      "name": "Nam Cheong",
      "nativeName": "Nam Cheong",
      "code": "HK-KSS-12689055",
      "countryId": 1819730,
      "countryCode": "HK",
      "stateCode": "HK-KSS",
      "latitude": 22.32799,
      "longitude": 114.15389
    },
    {
      "id": 12719565,
      "name": "Nam Cheong Estate",
      "nativeName": "Nam Cheong Estate",
      "code": "HK-KSS-12719565",
      "countryId": 1819730,
      "countryCode": "HK",
      "stateCode": "HK-KSS",
      "latitude": 22.32593,
      "longitude": 114.15744
    },
    {
      "id": 12719564,
      "name": "Nam Shan Estate",
      "nativeName": "Nam Shan Estate",
      "code": "HK-KSS-12719564",
      "countryId": 1819730,
      "countryCode": "HK",
      "stateCode": "HK-KSS",
      "latitude": 22.33477,
      "longitude": 114.17182
    },
    {
      "id": 1819285,
      "name": "New Kowloon",
      "nativeName": "New Kowloon",
      "code": "HK-KSS-1819285",
      "countryId": 1819730,
      "countryCode": "HK",
      "stateCode": "HK-KSS",
      "latitude": 22.33333,
      "longitude": 114.15
    },
    {
      "id": 1819195,
      "name": "Pai Chong",
      "nativeName": "Pai Chong",
      "code": "HK-KSS-1819195",
      "countryId": 1819730,
      "countryCode": "HK",
      "stateCode": "HK-KSS",
      "latitude": 22.22686,
      "longitude": 114.01145
    },
    {
      "id": 1819134,
      "name": "Pak Tin",
      "nativeName": "Pak Tin",
      "code": "HK-KSS-1819134",
      "countryId": 1819730,
      "countryCode": "HK",
      "stateCode": "HK-KSS",
      "latitude": 22.33333,
      "longitude": 114.16667
    },
    {
      "id": 12719553,
      "name": "Pak Tin Estate",
      "nativeName": "Pak Tin Estate",
      "code": "HK-KSS-12719553",
      "countryId": 1819730,
      "countryCode": "HK",
      "stateCode": "HK-KSS",
      "latitude": 22.33713,
      "longitude": 114.16673
    },
    {
      "id": 12719549,
      "name": "Parc Oasis",
      "nativeName": "Parc Oasis",
      "code": "HK-KSS-12719549",
      "countryId": 1819730,
      "countryCode": "HK",
      "stateCode": "HK-KSS",
      "latitude": 22.33332,
      "longitude": 114.17488
    },
    {
      "id": 1818905,
      "name": "Shek Kip Mei",
      "nativeName": "Shek Kip Mei",
      "code": "HK-KSS-1818905",
      "countryId": 1819730,
      "countryCode": "HK",
      "stateCode": "HK-KSS",
      "latitude": 22.33146,
      "longitude": 114.16799
    },
    {
      "id": 12719555,
      "name": "Shek Kip Mei Estate",
      "nativeName": "Shek Kip Mei Estate",
      "code": "HK-KSS-12719555",
      "countryId": 1819730,
      "countryCode": "HK",
      "stateCode": "HK-KSS",
      "latitude": 22.33412,
      "longitude": 114.16531
    },
    {
      "id": 12640674,
      "name": "So Uk",
      "nativeName": "So Uk",
      "code": "HK-KSS-12640674",
      "countryId": 1819730,
      "countryCode": "HK",
      "stateCode": "HK-KSS",
      "latitude": 22.34131,
      "longitude": 114.15679
    },
    {
      "id": 12719581,
      "name": "So Uk Estate",
      "nativeName": "So Uk Estate",
      "code": "HK-KSS-12719581",
      "countryId": 1819730,
      "countryCode": "HK",
      "stateCode": "HK-KSS",
      "latitude": 22.34153,
      "longitude": 114.15653
    },
    {
      "id": 12719551,
      "name": "Tai Hang Estate (East & West)",
      "nativeName": "Tai Hang Estate (East & West)",
      "code": "HK-KSS-12719551",
      "countryId": 1819730,
      "countryCode": "HK",
      "stateCode": "HK-KSS",
      "latitude": 22.33209,
      "longitude": 114.17068
    },
    {
      "id": 1818704,
      "name": "Tai Long",
      "nativeName": "Tai Long",
      "code": "HK-KSS-1818704",
      "countryId": 1819730,
      "countryCode": "HK",
      "stateCode": "HK-KSS",
      "latitude": 22.22138,
      "longitude": 113.99736
    },
    {
      "id": 12719556,
      "name": "The Pacifica",
      "nativeName": "The Pacifica",
      "code": "HK-KSS-12719556",
      "countryId": 1819730,
      "countryCode": "HK",
      "stateCode": "HK-KSS",
      "latitude": 22.33448,
      "longitude": 114.14988
    },
    {
      "id": 12719552,
      "name": "Un Chau Estate",
      "nativeName": "Un Chau Estate",
      "code": "HK-KSS-12719552",
      "countryId": 1819730,
      "countryCode": "HK",
      "stateCode": "HK-KSS",
      "latitude": 22.33633,
      "longitude": 114.15616
    },
    {
      "id": 12719575,
      "name": "Wing Cheong Estate",
      "nativeName": "Wing Cheong Estate",
      "code": "HK-KSS-12719575",
      "countryId": 1819730,
      "countryCode": "HK",
      "stateCode": "HK-KSS",
      "latitude": 22.32928,
      "longitude": 114.15548
    },
    {
      "id": 1818264,
      "name": "Yau Yat Chuen",
      "nativeName": "Yau Yat Chuen",
      "code": "HK-KSS-1818264",
      "countryId": 1819730,
      "countryCode": "HK",
      "stateCode": "HK-KSS",
      "latitude": 22.33101,
      "longitude": 114.17413
    },
    {
      "id": 12719574,
      "name": "Cullinan West",
      "nativeName": "Cullinan West",
      "code": "HK-KSS-12719574",
      "countryId": 1819730,
      "countryCode": "HK",
      "stateCode": "HK-KSS",
      "latitude": 22.32702,
      "longitude": 114.15409
    }
  ]
}