{
  "stateId": 1818224,
  "stateCode": "HK-NYL",
  "countryCode": "HK",
  "cities": [
    {
      "id": 1818225,
      "name": "Yuen Long",
      "nativeName": "Yuen Long",
      "code": "HK-NYL-1818225",
      "countryId": 1819730,
      "countryCode": "HK",
      "stateCode": "HK-NYL",
      "latitude": 22.44518,
      "longitude": 114.02621
    },
    {
      "id": 1820048,
      "name": "A Kung Tin",
      "nativeName": "A Kung Tin",
      "code": "HK-NYL-1820048",
      "countryId": 1819730,
      "countryCode": "HK",
      "stateCode": "HK-NYL",
      "latitude": 22.45509,
      "longitude": 114.10118
    },
    {
      "id": 1820026,
      "name": "Au Tau",
      "nativeName": "Au Tau",
      "code": "HK-NYL-1820026",
      "countryId": 1819730,
      "countryCode": "HK",
      "stateCode": "HK-NYL",
      "latitude": 22.44491,
      "longitude": 114.0453
    },
    {
      "id": 1820004,
      "name": "Chai Kek",
      "nativeName": "Chai Kek",
      "code": "HK-NYL-1820004",
      "countryId": 1819730,
      "countryCode": "HK",
      "stateCode": "HK-NYL",
      "latitude": 22.44092,
      "longitude": 114.12845
    },
    {
      "id": 1819987,
      "name": "Chau Tau",
      "nativeName": "Chau Tau",
      "code": "HK-NYL-1819987",
      "countryId": 1819730,
      "countryCode": "HK",
      "stateCode": "HK-NYL",
      "latitude": 22.50657,
      "longitude": 114.0825
    },
    {
      "id": 1819963,
      "name": "Cheung Kong",
      "nativeName": "Cheung Kong",
      "code": "HK-NYL-1819963",
      "countryId": 1819730,
      "countryCode": "HK",
      "stateCode": "HK-NYL",
      "latitude": 22.44389,
      "longitude": 114.07326
    },
    {
      "id": 1819956,
      "name": "Cheung Po",
      "nativeName": "Cheung Po",
      "code": "HK-NYL-1819956",
      "countryId": 1819730,
      "countryCode": "HK",
      "stateCode": "HK-NYL",
      "latitude": 22.41659,
      "longitude": 114.07315
    },
    {
      "id": 1819928,
      "name": "Chuk Hang",
      "nativeName": "Chuk Hang",
      "code": "HK-NYL-1819928",
      "countryId": 1819730,
      "countryCode": "HK",
      "stateCode": "HK-NYL",
      "latitude": 22.44893,
      "longitude": 114.09853
    },
    {
      "id": 1819913,
      "name": "Chung Sam Wai",
      "nativeName": "Chung Sam Wai",
      "code": "HK-NYL-1819913",
      "countryId": 1819730,
      "countryCode": "HK",
      "stateCode": "HK-NYL",
      "latitude": 22.45391,
      "longitude": 114.02612
    },
    {
      "id": 12689069,
      "name": "Fairview Park",
      "nativeName": "Fairview Park",
      "code": "HK-NYL-12689069",
      "countryId": 1819730,
      "countryCode": "HK",
      "stateCode": "HK-NYL",
      "latitude": 22.46738,
      "longitude": 114.04766
    },
    {
      "id": 1819871,
      "name": "Fan Tin Tsuen",
      "nativeName": "Fan Tin Tsuen",
      "code": "HK-NYL-1819871",
      "countryId": 1819730,
      "countryCode": "HK",
      "stateCode": "HK-NYL",
      "latitude": 22.49922,
      "longitude": 114.07489
    },
    {
      "id": 1819827,
      "name": "Fu Tei San Tsuen",
      "nativeName": "Fu Tei San Tsuen",
      "code": "HK-NYL-1819827",
      "countryId": 1819730,
      "countryCode": "HK",
      "stateCode": "HK-NYL",
      "latitude": 22.40828,
      "longitude": 113.98047
    },
    {
      "id": 1819851,
      "name": "Fui Sha Wai",
      "nativeName": "Fui Sha Wai",
      "code": "HK-NYL-1819851",
      "countryId": 1819730,
      "countryCode": "HK",
      "stateCode": "HK-NYL",
      "latitude": 22.43778,
      "longitude": 114.00661
    },
    {
      "id": 1819846,
      "name": "Fuk Hing Lei",
      "nativeName": "Fuk Hing Lei",
      "code": "HK-NYL-1819846",
      "countryId": 1819730,
      "countryCode": "HK",
      "stateCode": "HK-NYL",
      "latitude": 22.47176,
      "longitude": 114.05991
    },
    {
      "id": 1819845,
      "name": "Fuk Hing Tsuen",
      "nativeName": "Fuk Hing Tsuen",
      "code": "HK-NYL-1819845",
      "countryId": 1819730,
      "countryCode": "HK",
      "stateCode": "HK-NYL",
      "latitude": 22.45544,
      "longitude": 114.02628
    },
    {
      "id": 1819843,
      "name": "Fuk Lo Tsuen",
      "nativeName": "Fuk Lo Tsuen",
      "code": "HK-NYL-1819843",
      "countryId": 1819730,
      "countryCode": "HK",
      "stateCode": "HK-NYL",
      "latitude": 22.46667,
      "longitude": 113.98333
    },
    {
      "id": 1819841,
      "name": "Fung Chi Heung",
      "nativeName": "Fung Chi Heung",
      "code": "HK-NYL-1819841",
      "countryId": 1819730,
      "countryCode": "HK",
      "stateCode": "HK-NYL",
      "latitude": 22.44775,
      "longitude": 114.0209
    },
    {
      "id": 1819838,
      "name": "Fung Ka Wai",
      "nativeName": "Fung Ka Wai",
      "code": "HK-NYL-1819838",
      "countryId": 1819730,
      "countryCode": "HK",
      "stateCode": "HK-NYL",
      "latitude": 22.45745,
      "longitude": 114.01353
    },
    {
      "id": 1819839,
      "name": "Fung Kat Heung",
      "nativeName": "Fung Kat Heung",
      "code": "HK-NYL-1819839",
      "countryId": 1819730,
      "countryCode": "HK",
      "stateCode": "HK-NYL",
      "latitude": 22.4572,
      "longitude": 114.05999
    },
    {
      "id": 1819837,
      "name": "Fung Kong Tsuen",
      "nativeName": "Fung Kong Tsuen",
      "code": "HK-NYL-1819837",
      "countryId": 1819730,
      "countryCode": "HK",
      "stateCode": "HK-NYL",
      "latitude": 22.4577,
      "longitude": 113.98497
    },
    {
      "id": 1819818,
      "name": "Ha Che",
      "nativeName": "Ha Che",
      "code": "HK-NYL-1819818",
      "countryId": 1819730,
      "countryCode": "HK",
      "stateCode": "HK-NYL",
      "latitude": 22.44941,
      "longitude": 114.09389
    },
    {
      "id": 1819817,
      "name": "Ha Chuk Yuen",
      "nativeName": "Ha Chuk Yuen",
      "code": "HK-NYL-1819817",
      "countryId": 1819730,
      "countryCode": "HK",
      "stateCode": "HK-NYL",
      "latitude": 22.48333,
      "longitude": 114.05
    },
    {
      "id": 1819801,
      "name": "Ha Mei San Tsuen",
      "nativeName": "Ha Mei San Tsuen",
      "code": "HK-NYL-1819801",
      "countryId": 1819730,
      "countryCode": "HK",
      "stateCode": "HK-NYL",
      "latitude": 22.45361,
      "longitude": 114.01157
    },
    {
      "id": 6958834,
      "name": "Ha Pak Nai",
      "nativeName": "Ha Pak Nai",
      "code": "HK-NYL-6958834",
      "countryId": 1819730,
      "countryCode": "HK",
      "stateCode": "HK-NYL",
      "latitude": 22.4279,
      "longitude": 113.94515
    },
    {
      "id": 1819782,
      "name": "Ha San Wai",
      "nativeName": "Ha San Wai",
      "code": "HK-NYL-1819782",
      "countryId": 1819730,
      "countryCode": "HK",
      "stateCode": "HK-NYL",
      "latitude": 22.46667,
      "longitude": 114.05
    },
    {
      "id": 1819775,
      "name": "Ha Tsuen",
      "nativeName": "Ha Tsuen",
      "code": "HK-NYL-1819775",
      "countryId": 1819730,
      "countryCode": "HK",
      "stateCode": "HK-NYL",
      "latitude": 22.44724,
      "longitude": 113.9916
    },
    {
      "id": 1819771,
      "name": "Ha Wai",
      "nativeName": "Ha Wai",
      "code": "HK-NYL-1819771",
      "countryId": 1819730,
      "countryCode": "HK",
      "stateCode": "HK-NYL",
      "latitude": 22.45,
      "longitude": 114.1
    },
    {
      "id": 1819769,
      "name": "Ha Wan Tsuen",
      "nativeName": "Ha Wan Tsuen",
      "code": "HK-NYL-1819769",
      "countryId": 1819730,
      "countryCode": "HK",
      "stateCode": "HK-NYL",
      "latitude": 22.51498,
      "longitude": 114.0739
    },
    {
      "id": 1819765,
      "name": "Ha Yau Tin",
      "nativeName": "Ha Yau Tin",
      "code": "HK-NYL-1819765",
      "countryId": 1819730,
      "countryCode": "HK",
      "stateCode": "HK-NYL",
      "latitude": 22.44016,
      "longitude": 114.03424
    },
    {
      "id": 1819790,
      "name": "Hang Hau Tsuen",
      "nativeName": "Hang Hau Tsuen",
      "code": "HK-NYL-1819790",
      "countryId": 1819730,
      "countryCode": "HK",
      "stateCode": "HK-NYL",
      "latitude": 22.46441,
      "longitude": 113.98166
    },
    {
      "id": 1819788,
      "name": "Hang Mei Tsuen",
      "nativeName": "Hang Mei Tsuen",
      "code": "HK-NYL-1819788",
      "countryId": 1819730,
      "countryCode": "HK",
      "stateCode": "HK-NYL",
      "latitude": 22.4447,
      "longitude": 114.00683
    },
    {
      "id": 1819786,
      "name": "Hang Tau Tsuen",
      "nativeName": "Hang Tau Tsuen",
      "code": "HK-NYL-1819786",
      "countryId": 1819730,
      "countryCode": "HK",
      "stateCode": "HK-NYL",
      "latitude": 22.44566,
      "longitude": 114.00908
    },
    {
      "id": 1819723,
      "name": "Ho Pui",
      "nativeName": "Ho Pui",
      "code": "HK-NYL-1819723",
      "countryId": 1819730,
      "countryCode": "HK",
      "stateCode": "HK-NYL",
      "latitude": 22.41292,
      "longitude": 114.06889
    },
    {
      "id": 1819725,
      "name": "Hong Mei Tsuen",
      "nativeName": "Hong Mei Tsuen",
      "code": "HK-NYL-1819725",
      "countryId": 1819730,
      "countryCode": "HK",
      "stateCode": "HK-NYL",
      "latitude": 22.45145,
      "longitude": 113.99054
    },
    {
      "id": 1819713,
      "name": "Hung Shui",
      "nativeName": "Hung Shui",
      "code": "HK-NYL-1819713",
      "countryId": 1819730,
      "countryCode": "HK",
      "stateCode": "HK-NYL",
      "latitude": 22.28333,
      "longitude": 114
    },
    {
      "id": 12640694,
      "name": "Hung Shui Kiu",
      "nativeName": "Hung Shui Kiu",
      "code": "HK-NYL-12640694",
      "countryId": 1819730,
      "countryCode": "HK",
      "stateCode": "HK-NYL",
      "latitude": 22.43163,
      "longitude": 113.98815
    },
    {
      "id": 1819712,
      "name": "Hung Tin",
      "nativeName": "Hung Tin",
      "code": "HK-NYL-1819712",
      "countryId": 1819730,
      "countryCode": "HK",
      "stateCode": "HK-NYL",
      "latitude": 22.4511,
      "longitude": 114.03373
    },
    {
      "id": 1819711,
      "name": "Hung Tso Tin",
      "nativeName": "Hung Tso Tin",
      "code": "HK-NYL-1819711",
      "countryId": 1819730,
      "countryCode": "HK",
      "stateCode": "HK-NYL",
      "latitude": 22.42404,
      "longitude": 114.03031
    },
    {
      "id": 1819710,
      "name": "Hung Uk Tsuen",
      "nativeName": "Hung Uk Tsuen",
      "code": "HK-NYL-1819710",
      "countryId": 1819730,
      "countryCode": "HK",
      "stateCode": "HK-NYL",
      "latitude": 22.44043,
      "longitude": 114.00364
    },
    {
      "id": 1819690,
      "name": "Kam Hing Wai",
      "nativeName": "Kam Hing Wai",
      "code": "HK-NYL-1819690",
      "countryId": 1819730,
      "countryCode": "HK",
      "stateCode": "HK-NYL",
      "latitude": 22.4428,
      "longitude": 114.06238
    },
    {
      "id": 1819685,
      "name": "Kam Tin",
      "nativeName": "Kam Tin",
      "code": "HK-NYL-1819685",
      "countryId": 1819730,
      "countryCode": "HK",
      "stateCode": "HK-NYL",
      "latitude": 22.44123,
      "longitude": 114.06019
    },
    {
      "id": 1819683,
      "name": "Kam Tsin Wai",
      "nativeName": "Kam Tsin Wai",
      "code": "HK-NYL-1819683",
      "countryId": 1819730,
      "countryCode": "HK",
      "stateCode": "HK-NYL",
      "latitude": 22.43285,
      "longitude": 114.07564
    },
    {
      "id": 1819677,
      "name": "Kat Hing Wai",
      "nativeName": "Kat Hing Wai",
      "code": "HK-NYL-1819677",
      "countryId": 1819730,
      "countryCode": "HK",
      "stateCode": "HK-NYL",
      "latitude": 22.43965,
      "longitude": 114.064
    },
    {
      "id": 1819644,
      "name": "Kei Lun Wai",
      "nativeName": "Kei Lun Wai",
      "code": "HK-NYL-1819644",
      "countryId": 1819730,
      "countryCode": "HK",
      "stateCode": "HK-NYL",
      "latitude": 22.41211,
      "longitude": 113.97414
    },
    {
      "id": 1819636,
      "name": "Kik Yeung Tsuen",
      "nativeName": "Kik Yeung Tsuen",
      "code": "HK-NYL-1819636",
      "countryId": 1819730,
      "countryCode": "HK",
      "stateCode": "HK-NYL",
      "latitude": 22.45,
      "longitude": 114.01667
    },
    {
      "id": 1819631,
      "name": "Kiu Sai",
      "nativeName": "Kiu Sai",
      "code": "HK-NYL-1819631",
      "countryId": 1819730,
      "countryCode": "HK",
      "stateCode": "HK-NYL",
      "latitude": 22.43333,
      "longitude": 114
    },
    {
      "id": 1819629,
      "name": "Kiu Tau Wai",
      "nativeName": "Kiu Tau Wai",
      "code": "HK-NYL-1819629",
      "countryId": 1819730,
      "countryCode": "HK",
      "stateCode": "HK-NYL",
      "latitude": 22.44344,
      "longitude": 114.00327
    },
    {
      "id": 1819614,
      "name": "Ko Po Tsuen",
      "nativeName": "Ko Po Tsuen",
      "code": "HK-NYL-1819614",
      "countryId": 1819730,
      "countryCode": "HK",
      "stateCode": "HK-NYL",
      "latitude": 22.44154,
      "longitude": 114.05576
    },
    {
      "id": 1819619,
      "name": "Kong Tau San Tsuen",
      "nativeName": "Kong Tau San Tsuen",
      "code": "HK-NYL-1819619",
      "countryId": 1819730,
      "countryCode": "HK",
      "stateCode": "HK-NYL",
      "latitude": 22.43489,
      "longitude": 114.03671
    },
    {
      "id": 1819618,
      "name": "Kong Tau Tsuen",
      "nativeName": "Kong Tau Tsuen",
      "code": "HK-NYL-1819618",
      "countryId": 1819730,
      "countryCode": "HK",
      "stateCode": "HK-NYL",
      "latitude": 22.43186,
      "longitude": 114.03845
    },
    {
      "id": 1819573,
      "name": "Kwun Yam Keng",
      "nativeName": "Kwun Yam Keng",
      "code": "HK-NYL-1819573",
      "countryId": 1819730,
      "countryCode": "HK",
      "stateCode": "HK-NYL",
      "latitude": 22.43347,
      "longitude": 114.1221
    },
    {
      "id": 1819558,
      "name": "Lam Hau",
      "nativeName": "Lam Hau",
      "code": "HK-NYL-1819558",
      "countryId": 1819730,
      "countryCode": "HK",
      "stateCode": "HK-NYL",
      "latitude": 22.43518,
      "longitude": 114.01945
    },
    {
      "id": 1819555,
      "name": "Lam Tei",
      "nativeName": "Lam Tei",
      "code": "HK-NYL-1819555",
      "countryId": 1819730,
      "countryCode": "HK",
      "stateCode": "HK-NYL",
      "latitude": 22.4188,
      "longitude": 113.98583
    },
    {
      "id": 1819527,
      "name": "Lei Uk Tsuen",
      "nativeName": "Lei Uk Tsuen",
      "code": "HK-NYL-1819527",
      "countryId": 1819730,
      "countryCode": "HK",
      "stateCode": "HK-NYL",
      "latitude": 22.43601,
      "longitude": 113.99387
    },
    {
      "id": 1819526,
      "name": "Lei Uk Tsuen",
      "nativeName": "Lei Uk Tsuen",
      "code": "HK-NYL-1819526",
      "countryId": 1819730,
      "countryCode": "HK",
      "stateCode": "HK-NYL",
      "latitude": 22.45,
      "longitude": 113.98333
    },
    {
      "id": 1819506,
      "name": "Lin Fa Tei",
      "nativeName": "Lin Fa Tei",
      "code": "HK-NYL-1819506",
      "countryId": 1819730,
      "countryCode": "HK",
      "stateCode": "HK-NYL",
      "latitude": 22.42744,
      "longitude": 114.08764
    },
    {
      "id": 1819467,
      "name": "Lo Uk Tsuen",
      "nativeName": "Lo Uk Tsuen",
      "code": "HK-NYL-1819467",
      "countryId": 1819730,
      "countryCode": "HK",
      "stateCode": "HK-NYL",
      "latitude": 22.43028,
      "longitude": 114.09633
    },
    {
      "id": 1819485,
      "name": "Lok Ma Chau",
      "nativeName": "Lok Ma Chau",
      "code": "HK-NYL-1819485",
      "countryId": 1819730,
      "countryCode": "HK",
      "stateCode": "HK-NYL",
      "latitude": 22.50946,
      "longitude": 114.07916
    },
    {
      "id": 1819432,
      "name": "Lung Tin Tsuen",
      "nativeName": "Lung Tin Tsuen",
      "code": "HK-NYL-1819432",
      "countryId": 1819730,
      "countryCode": "HK",
      "stateCode": "HK-NYL",
      "latitude": 22.43333,
      "longitude": 114.01667
    },
    {
      "id": 1819402,
      "name": "Ma On Kong",
      "nativeName": "Ma On Kong",
      "code": "HK-NYL-1819402",
      "countryId": 1819730,
      "countryCode": "HK",
      "stateCode": "HK-NYL",
      "latitude": 22.41493,
      "longitude": 114.06426
    },
    {
      "id": 1819392,
      "name": "Ma Tin Tsuen",
      "nativeName": "Ma Tin Tsuen",
      "code": "HK-NYL-1819392",
      "countryId": 1819730,
      "countryCode": "HK",
      "stateCode": "HK-NYL",
      "latitude": 22.43973,
      "longitude": 114.02283
    },
    {
      "id": 1819421,
      "name": "Mai Po Lo Wai",
      "nativeName": "Mai Po Lo Wai",
      "code": "HK-NYL-1819421",
      "countryId": 1819730,
      "countryCode": "HK",
      "stateCode": "HK-NYL",
      "latitude": 22.49371,
      "longitude": 114.06045
    },
    {
      "id": 1819420,
      "name": "Mai Po San Tsuen",
      "nativeName": "Mai Po San Tsuen",
      "code": "HK-NYL-1819420",
      "countryId": 1819730,
      "countryCode": "HK",
      "stateCode": "HK-NYL",
      "latitude": 22.49258,
      "longitude": 114.06035
    },
    {
      "id": 1819351,
      "name": "Mong Tseng Wai",
      "nativeName": "Mong Tseng Wai",
      "code": "HK-NYL-1819351",
      "countryId": 1819730,
      "countryCode": "HK",
      "stateCode": "HK-NYL",
      "latitude": 22.47755,
      "longitude": 114.00539
    },
    {
      "id": 1819332,
      "name": "Muk Kiu Tau",
      "nativeName": "Muk Kiu Tau",
      "code": "HK-NYL-1819332",
      "countryId": 1819730,
      "countryCode": "HK",
      "stateCode": "HK-NYL",
      "latitude": 22.42902,
      "longitude": 114.025
    },
    {
      "id": 1819324,
      "name": "Nai Wai",
      "nativeName": "Nai Wai",
      "code": "HK-NYL-1819324",
      "countryId": 1819730,
      "countryCode": "HK",
      "stateCode": "HK-NYL",
      "latitude": 22.42323,
      "longitude": 113.98933
    },
    {
      "id": 1819309,
      "name": "Nam Hang Tsuen",
      "nativeName": "Nam Hang Tsuen",
      "code": "HK-NYL-1819309",
      "countryId": 1819730,
      "countryCode": "HK",
      "stateCode": "HK-NYL",
      "latitude": 22.42391,
      "longitude": 114.03478
    },
    {
      "id": 1819301,
      "name": "Nam Pin Wai",
      "nativeName": "Nam Pin Wai",
      "code": "HK-NYL-1819301",
      "countryId": 1819730,
      "countryCode": "HK",
      "stateCode": "HK-NYL",
      "latitude": 22.45,
      "longitude": 114.03333
    },
    {
      "id": 1819296,
      "name": "Nam Sha Po",
      "nativeName": "Nam Sha Po",
      "code": "HK-NYL-1819296",
      "countryId": 1819730,
      "countryCode": "HK",
      "stateCode": "HK-NYL",
      "latitude": 22.48831,
      "longitude": 114.00156
    },
    {
      "id": 1819236,
      "name": "Ng Ka Tsuen",
      "nativeName": "Ng Ka Tsuen",
      "code": "HK-NYL-1819236",
      "countryId": 1819730,
      "countryCode": "HK",
      "stateCode": "HK-NYL",
      "latitude": 22.43727,
      "longitude": 114.07076
    },
    {
      "id": 1819223,
      "name": "Ng Tung Chai",
      "nativeName": "Ng Tung Chai",
      "code": "HK-NYL-1819223",
      "countryId": 1819730,
      "countryCode": "HK",
      "stateCode": "HK-NYL",
      "latitude": 22.43732,
      "longitude": 114.12669
    },
    {
      "id": 1819221,
      "name": "Ng Uk Tsuen",
      "nativeName": "Ng Uk Tsuen",
      "code": "HK-NYL-1819221",
      "countryId": 1819730,
      "countryCode": "HK",
      "stateCode": "HK-NYL",
      "latitude": 22.46549,
      "longitude": 114.02189
    },
    {
      "id": 1819239,
      "name": "Nga Yiu Tau",
      "nativeName": "Nga Yiu Tau",
      "code": "HK-NYL-1819239",
      "countryId": 1819730,
      "countryCode": "HK",
      "stateCode": "HK-NYL",
      "latitude": 22.42937,
      "longitude": 114.03896
    },
    {
      "id": 1819269,
      "name": "Ngau Hom",
      "nativeName": "Ngau Hom",
      "code": "HK-NYL-1819269",
      "countryId": 1819730,
      "countryCode": "HK",
      "stateCode": "HK-NYL",
      "latitude": 22.46541,
      "longitude": 113.98898
    },
    {
      "id": 1819268,
      "name": "Ngau Hom Sha",
      "nativeName": "Ngau Hom Sha",
      "code": "HK-NYL-1819268",
      "countryId": 1819730,
      "countryCode": "HK",
      "stateCode": "HK-NYL",
      "latitude": 22.44981,
      "longitude": 113.96653
    },
    {
      "id": 1819267,
      "name": "Ngau Hom Shek",
      "nativeName": "Ngau Hom Shek",
      "code": "HK-NYL-1819267",
      "countryId": 1819730,
      "countryCode": "HK",
      "stateCode": "HK-NYL",
      "latitude": 22.45382,
      "longitude": 113.97438
    },
    {
      "id": 1819266,
      "name": "Ngau Keng",
      "nativeName": "Ngau Keng",
      "code": "HK-NYL-1819266",
      "countryId": 1819730,
      "countryCode": "HK",
      "stateCode": "HK-NYL",
      "latitude": 22.43333,
      "longitude": 114.08333
    },
    {
      "id": 1819249,
      "name": "Ngau Tam Mei",
      "nativeName": "Ngau Tam Mei",
      "code": "HK-NYL-1819249",
      "countryId": 1819730,
      "countryCode": "HK",
      "stateCode": "HK-NYL",
      "latitude": 22.47498,
      "longitude": 114.07499
    },
    {
      "id": 1819202,
      "name": "On Lung Tsuen",
      "nativeName": "On Lung Tsuen",
      "code": "HK-NYL-1819202",
      "countryId": 1819730,
      "countryCode": "HK",
      "stateCode": "HK-NYL",
      "latitude": 22.50086,
      "longitude": 114.07567
    },
    {
      "id": 1819188,
      "name": "Pak Hok Chau",
      "nativeName": "Pak Hok Chau",
      "code": "HK-NYL-1819188",
      "countryId": 1819730,
      "countryCode": "HK",
      "stateCode": "HK-NYL",
      "latitude": 22.48858,
      "longitude": 114.04577
    },
    {
      "id": 1819164,
      "name": "Pak Ngau Shek",
      "nativeName": "Pak Ngau Shek",
      "code": "HK-NYL-1819164",
      "countryId": 1819730,
      "countryCode": "HK",
      "stateCode": "HK-NYL",
      "latitude": 22.44215,
      "longitude": 114.12339
    },
    {
      "id": 1819154,
      "name": "Pak Sha Tsai",
      "nativeName": "Pak Sha Tsai",
      "code": "HK-NYL-1819154",
      "countryId": 1819730,
      "countryCode": "HK",
      "stateCode": "HK-NYL",
      "latitude": 22.45,
      "longitude": 114.01667
    },
    {
      "id": 1819153,
      "name": "Pak Sha Tsuen",
      "nativeName": "Pak Sha Tsuen",
      "code": "HK-NYL-1819153",
      "countryId": 1819730,
      "countryCode": "HK",
      "stateCode": "HK-NYL",
      "latitude": 22.42106,
      "longitude": 114.02232
    },
    {
      "id": 1819148,
      "name": "Pak Sha Wo Liu",
      "nativeName": "Pak Sha Wo Liu",
      "code": "HK-NYL-1819148",
      "countryId": 1819730,
      "countryCode": "HK",
      "stateCode": "HK-NYL",
      "latitude": 22.41667,
      "longitude": 114.01667
    },
    {
      "id": 1819146,
      "name": "Pak Shek Au",
      "nativeName": "Pak Shek Au",
      "code": "HK-NYL-1819146",
      "countryId": 1819730,
      "countryCode": "HK",
      "stateCode": "HK-NYL",
      "latitude": 22.50552,
      "longitude": 114.0922
    },
    {
      "id": 1819125,
      "name": "Pang Ka Tsuen",
      "nativeName": "Pang Ka Tsuen",
      "code": "HK-NYL-1819125",
      "countryId": 1819730,
      "countryCode": "HK",
      "stateCode": "HK-NYL",
      "latitude": 22.4418,
      "longitude": 114.07387
    },
    {
      "id": 12689063,
      "name": "Pat Heung",
      "nativeName": "Pat Heung",
      "code": "HK-NYL-12689063",
      "countryId": 1819730,
      "countryCode": "HK",
      "stateCode": "HK-NYL",
      "latitude": 22.4461,
      "longitude": 114.09226
    },
    {
      "id": 1819101,
      "name": "Ping Shan",
      "nativeName": "Ping Shan",
      "code": "HK-NYL-1819101",
      "countryId": 1819730,
      "countryCode": "HK",
      "stateCode": "HK-NYL",
      "latitude": 22.44111,
      "longitude": 114.00608
    },
    {
      "id": 1819086,
      "name": "Po Lo Shan",
      "nativeName": "Po Lo Shan",
      "code": "HK-NYL-1819086",
      "countryId": 1819730,
      "countryCode": "HK",
      "stateCode": "HK-NYL",
      "latitude": 22.41943,
      "longitude": 114.08644
    },
    {
      "id": 1819078,
      "name": "Po Tong Ha",
      "nativeName": "Po Tong Ha",
      "code": "HK-NYL-1819078",
      "countryId": 1819730,
      "countryCode": "HK",
      "stateCode": "HK-NYL",
      "latitude": 22.41645,
      "longitude": 113.9717
    },
    {
      "id": 1819088,
      "name": "Pok Wai",
      "nativeName": "Pok Wai",
      "code": "HK-NYL-1819088",
      "countryId": 1819730,
      "countryCode": "HK",
      "stateCode": "HK-NYL",
      "latitude": 22.46597,
      "longitude": 114.05281
    },
    {
      "id": 1819067,
      "name": "Pun Uk Tsuen",
      "nativeName": "Pun Uk Tsuen",
      "code": "HK-NYL-1819067",
      "countryId": 1819730,
      "countryCode": "HK",
      "stateCode": "HK-NYL",
      "latitude": 22.5089,
      "longitude": 114.08331
    },
    {
      "id": 1819042,
      "name": "Sai Pin Wai",
      "nativeName": "Sai Pin Wai",
      "code": "HK-NYL-1819042",
      "countryId": 1819730,
      "countryCode": "HK",
      "stateCode": "HK-NYL",
      "latitude": 22.45,
      "longitude": 114.03333
    },
    {
      "id": 1819039,
      "name": "Sai Shan Tsuen",
      "nativeName": "Sai Shan Tsuen",
      "code": "HK-NYL-1819039",
      "countryId": 1819730,
      "countryCode": "HK",
      "stateCode": "HK-NYL",
      "latitude": 22.45,
      "longitude": 113.98333
    },
    {
      "id": 1819038,
      "name": "Sai Tau Wai",
      "nativeName": "Sai Tau Wai",
      "code": "HK-NYL-1819038",
      "countryId": 1819730,
      "countryCode": "HK",
      "stateCode": "HK-NYL",
      "latitude": 22.45308,
      "longitude": 114.025
    },
    {
      "id": 1819011,
      "name": "San Hei Tsuen",
      "nativeName": "San Hei Tsuen",
      "code": "HK-NYL-1819011",
      "countryId": 1819730,
      "countryCode": "HK",
      "stateCode": "HK-NYL",
      "latitude": 22.43933,
      "longitude": 114.00892
    },
    {
      "id": 1819009,
      "name": "San Hing Tsuen",
      "nativeName": "San Hing Tsuen",
      "code": "HK-NYL-1819009",
      "countryId": 1819730,
      "countryCode": "HK",
      "stateCode": "HK-NYL",
      "latitude": 22.46624,
      "longitude": 113.98656
    },
    {
      "id": 1819010,
      "name": "San Hing Tsuen",
      "nativeName": "San Hing Tsuen",
      "code": "HK-NYL-1819010",
      "countryId": 1819730,
      "countryCode": "HK",
      "stateCode": "HK-NYL",
      "latitude": 22.41811,
      "longitude": 113.97937
    },
    {
      "id": 1819005,
      "name": "San Lung Tsuen",
      "nativeName": "San Lung Tsuen",
      "code": "HK-NYL-1819005",
      "countryId": 1819730,
      "countryCode": "HK",
      "stateCode": "HK-NYL",
      "latitude": 22.49842,
      "longitude": 114.07288
    },
    {
      "id": 1819004,
      "name": "San Lung Wai",
      "nativeName": "San Lung Wai",
      "code": "HK-NYL-1819004",
      "countryId": 1819730,
      "countryCode": "HK",
      "stateCode": "HK-NYL",
      "latitude": 22.4458,
      "longitude": 114.09754
    },
    {
      "id": 1818996,
      "name": "San Tin",
      "nativeName": "San Tin",
      "code": "HK-NYL-1818996",
      "countryId": 1819730,
      "countryCode": "HK",
      "stateCode": "HK-NYL",
      "latitude": 22.50166,
      "longitude": 114.06932
    },
    {
      "id": 1818993,
      "name": "San Tin San Wai",
      "nativeName": "San Tin San Wai",
      "code": "HK-NYL-1818993",
      "countryId": 1819730,
      "countryCode": "HK",
      "stateCode": "HK-NYL",
      "latitude": 22.48333,
      "longitude": 114.05
    },
    {
      "id": 1818994,
      "name": "San Tin San Wai",
      "nativeName": "San Tin San Wai",
      "code": "HK-NYL-1818994",
      "countryId": 1819730,
      "countryCode": "HK",
      "stateCode": "HK-NYL",
      "latitude": 22.46667,
      "longitude": 114.05
    },
    {
      "id": 1818988,
      "name": "San Tsuen",
      "nativeName": "San Tsuen",
      "code": "HK-NYL-1818988",
      "countryId": 1819730,
      "countryCode": "HK",
      "stateCode": "HK-NYL",
      "latitude": 22.45,
      "longitude": 114
    },
    {
      "id": 1818979,
      "name": "San Uk Tsuen",
      "nativeName": "San Uk Tsuen",
      "code": "HK-NYL-1818979",
      "countryId": 1819730,
      "countryCode": "HK",
      "stateCode": "HK-NYL",
      "latitude": 22.44563,
      "longitude": 113.99166
    },
    {
      "id": 1818977,
      "name": "San Wai",
      "nativeName": "San Wai",
      "code": "HK-NYL-1818977",
      "countryId": 1819730,
      "countryCode": "HK",
      "stateCode": "HK-NYL",
      "latitude": 22.45185,
      "longitude": 113.9896
    },
    {
      "id": 1819352,
      "name": "Sha Kiu Tsuen",
      "nativeName": "Sha Kiu Tsuen",
      "code": "HK-NYL-1819352",
      "countryId": 1819730,
      "countryCode": "HK",
      "stateCode": "HK-NYL",
      "latitude": 22.48747,
      "longitude": 113.99891
    },
    {
      "id": 1818967,
      "name": "Sha Kong Miu",
      "nativeName": "Sha Kong Miu",
      "code": "HK-NYL-1818967",
      "countryId": 1819730,
      "countryCode": "HK",
      "stateCode": "HK-NYL",
      "latitude": 22.46667,
      "longitude": 113.98333
    },
    {
      "id": 1818966,
      "name": "Sha Kong Tsuen",
      "nativeName": "Sha Kong Tsuen",
      "code": "HK-NYL-1818966",
      "countryId": 1819730,
      "countryCode": "HK",
      "stateCode": "HK-NYL",
      "latitude": 22.46048,
      "longitude": 113.98003
    },
    {
      "id": 1818965,
      "name": "Sha Kong Wai",
      "nativeName": "Sha Kong Wai",
      "code": "HK-NYL-1818965",
      "countryId": 1819730,
      "countryCode": "HK",
      "stateCode": "HK-NYL",
      "latitude": 22.46224,
      "longitude": 113.99102
    },
    {
      "id": 1818964,
      "name": "Sha Kong Wai Tsai",
      "nativeName": "Sha Kong Wai Tsai",
      "code": "HK-NYL-1818964",
      "countryId": 1819730,
      "countryCode": "HK",
      "stateCode": "HK-NYL",
      "latitude": 22.46535,
      "longitude": 113.99241
    },
    {
      "id": 1818927,
      "name": "Sha Po",
      "nativeName": "Sha Po",
      "code": "HK-NYL-1818927",
      "countryId": 1819730,
      "countryCode": "HK",
      "stateCode": "HK-NYL",
      "latitude": 22.45329,
      "longitude": 114.05383
    },
    {
      "id": 1818925,
      "name": "Sha Po Ng Tsuen",
      "nativeName": "Sha Po Ng Tsuen",
      "code": "HK-NYL-1818925",
      "countryId": 1819730,
      "countryCode": "HK",
      "stateCode": "HK-NYL",
      "latitude": 22.45,
      "longitude": 114.05
    },
    {
      "id": 1818959,
      "name": "Sham Chung",
      "nativeName": "Sham Chung",
      "code": "HK-NYL-1818959",
      "countryId": 1819730,
      "countryCode": "HK",
      "stateCode": "HK-NYL",
      "latitude": 22.4336,
      "longitude": 114.02675
    },
    {
      "id": 1818942,
      "name": "Shan Ha Tsuen",
      "nativeName": "Shan Ha Tsuen",
      "code": "HK-NYL-1818942",
      "countryId": 1819730,
      "countryCode": "HK",
      "stateCode": "HK-NYL",
      "latitude": 22.43213,
      "longitude": 114.01543
    },
    {
      "id": 1818941,
      "name": "Shan Kai Wat",
      "nativeName": "Shan Kai Wat",
      "code": "HK-NYL-1818941",
      "countryId": 1819730,
      "countryCode": "HK",
      "stateCode": "HK-NYL",
      "latitude": 22.41667,
      "longitude": 113.96667
    },
    {
      "id": 1818935,
      "name": "Shan Pui",
      "nativeName": "Shan Pui",
      "code": "HK-NYL-1818935",
      "countryId": 1819730,
      "countryCode": "HK",
      "stateCode": "HK-NYL",
      "latitude": 22.44933,
      "longitude": 114.04054
    },
    {
      "id": 12719430,
      "name": "Shap Pat Heung",
      "nativeName": "Shap Pat Heung",
      "code": "HK-NYL-12719430",
      "countryId": 1819730,
      "countryCode": "HK",
      "stateCode": "HK-NYL",
      "latitude": 22.4248,
      "longitude": 114.03581
    },
    {
      "id": 1818901,
      "name": "Shek Kong",
      "nativeName": "Shek Kong",
      "code": "HK-NYL-1818901",
      "countryId": 1819730,
      "countryCode": "HK",
      "stateCode": "HK-NYL",
      "latitude": 22.43588,
      "longitude": 114.09483
    },
    {
      "id": 1818874,
      "name": "Shek Po Tsuen",
      "nativeName": "Shek Po Tsuen",
      "code": "HK-NYL-1818874",
      "countryId": 1819730,
      "countryCode": "HK",
      "stateCode": "HK-NYL",
      "latitude": 22.44052,
      "longitude": 113.99684
    },
    {
      "id": 1818872,
      "name": "Shek Tau Wai",
      "nativeName": "Shek Tau Wai",
      "code": "HK-NYL-1818872",
      "countryId": 1819730,
      "countryCode": "HK",
      "stateCode": "HK-NYL",
      "latitude": 22.43199,
      "longitude": 114.09638
    },
    {
      "id": 1818865,
      "name": "Shek Wu Tong",
      "nativeName": "Shek Wu Tong",
      "code": "HK-NYL-1818865",
      "countryId": 1819730,
      "countryCode": "HK",
      "stateCode": "HK-NYL",
      "latitude": 22.42658,
      "longitude": 114.07055
    },
    {
      "id": 1818864,
      "name": "Shek Wu Wai",
      "nativeName": "Shek Wu Wai",
      "code": "HK-NYL-1818864",
      "countryId": 1819730,
      "countryCode": "HK",
      "stateCode": "HK-NYL",
      "latitude": 22.49188,
      "longitude": 114.07117
    },
    {
      "id": 1818861,
      "name": "Sheung Che",
      "nativeName": "Sheung Che",
      "code": "HK-NYL-1818861",
      "countryId": 1819730,
      "countryCode": "HK",
      "stateCode": "HK-NYL",
      "latitude": 22.45054,
      "longitude": 114.09566
    },
    {
      "id": 1818860,
      "name": "Sheung Cheung Wai",
      "nativeName": "Sheung Cheung Wai",
      "code": "HK-NYL-1818860",
      "countryId": 1819730,
      "countryCode": "HK",
      "stateCode": "HK-NYL",
      "latitude": 22.44695,
      "longitude": 114.00747
    },
    {
      "id": 1818859,
      "name": "Sheung Chuk Yuen",
      "nativeName": "Sheung Chuk Yuen",
      "code": "HK-NYL-1818859",
      "countryId": 1819730,
      "countryCode": "HK",
      "stateCode": "HK-NYL",
      "latitude": 22.47482,
      "longitude": 114.05827
    },
    {
      "id": 1819166,
      "name": "Sheung Pak Nai",
      "nativeName": "Sheung Pak Nai",
      "code": "HK-NYL-1819166",
      "countryId": 1819730,
      "countryCode": "HK",
      "stateCode": "HK-NYL",
      "latitude": 22.4485,
      "longitude": 113.95688
    },
    {
      "id": 1818847,
      "name": "Sheung San Wai",
      "nativeName": "Sheung San Wai",
      "code": "HK-NYL-1818847",
      "countryId": 1819730,
      "countryCode": "HK",
      "stateCode": "HK-NYL",
      "latitude": 22.46667,
      "longitude": 114.05
    },
    {
      "id": 1818835,
      "name": "Sheung Tsuen",
      "nativeName": "Sheung Tsuen",
      "code": "HK-NYL-1818835",
      "countryId": 1819730,
      "countryCode": "HK",
      "stateCode": "HK-NYL",
      "latitude": 22.43301,
      "longitude": 114.09944
    },
    {
      "id": 1818834,
      "name": "Sheung Tsuen Lai Ka Tsz",
      "nativeName": "Sheung Tsuen Lai Ka Tsz",
      "code": "HK-NYL-1818834",
      "countryId": 1819730,
      "countryCode": "HK",
      "stateCode": "HK-NYL",
      "latitude": 22.43333,
      "longitude": 114.08333
    },
    {
      "id": 1818829,
      "name": "Sheung Yau Tin",
      "nativeName": "Sheung Yau Tin",
      "code": "HK-NYL-1818829",
      "countryId": 1819730,
      "countryCode": "HK",
      "stateCode": "HK-NYL",
      "latitude": 22.4389,
      "longitude": 114.03623
    },
    {
      "id": 1818819,
      "name": "Shing Uk Tsuen",
      "nativeName": "Shing Uk Tsuen",
      "code": "HK-NYL-1818819",
      "countryId": 1819730,
      "countryCode": "HK",
      "stateCode": "HK-NYL",
      "latitude": 22.46249,
      "longitude": 114.01827
    },
    {
      "id": 1818810,
      "name": "Shui Lau Tin",
      "nativeName": "Shui Lau Tin",
      "code": "HK-NYL-1818810",
      "countryId": 1819730,
      "countryCode": "HK",
      "stateCode": "HK-NYL",
      "latitude": 22.43098,
      "longitude": 114.08218
    },
    {
      "id": 1818809,
      "name": "Shui Mei",
      "nativeName": "Shui Mei",
      "code": "HK-NYL-1818809",
      "countryId": 1819730,
      "countryCode": "HK",
      "stateCode": "HK-NYL",
      "latitude": 22.44748,
      "longitude": 114.0626
    },
    {
      "id": 1818806,
      "name": "Shui Pin Tsuen",
      "nativeName": "Shui Pin Tsuen",
      "code": "HK-NYL-1818806",
      "countryId": 1819730,
      "countryCode": "HK",
      "stateCode": "HK-NYL",
      "latitude": 22.44346,
      "longitude": 114.02015
    },
    {
      "id": 1818805,
      "name": "Shui Pin Wai",
      "nativeName": "Shui Pin Wai",
      "code": "HK-NYL-1818805",
      "countryId": 1819730,
      "countryCode": "HK",
      "stateCode": "HK-NYL",
      "latitude": 22.44558,
      "longitude": 114.0202
    },
    {
      "id": 1818804,
      "name": "Shui Tau",
      "nativeName": "Shui Tau",
      "code": "HK-NYL-1818804",
      "countryId": 1819730,
      "countryCode": "HK",
      "stateCode": "HK-NYL",
      "latitude": 22.44558,
      "longitude": 114.06032
    },
    {
      "id": 1818803,
      "name": "Shui Tin Tsuen",
      "nativeName": "Shui Tin Tsuen",
      "code": "HK-NYL-1818803",
      "countryId": 1819730,
      "countryCode": "HK",
      "stateCode": "HK-NYL",
      "latitude": 22.44866,
      "longitude": 114.02082
    },
    {
      "id": 1818802,
      "name": "Shui Tsan Tin",
      "nativeName": "Shui Tsan Tin",
      "code": "HK-NYL-1818802",
      "countryId": 1819730,
      "countryCode": "HK",
      "stateCode": "HK-NYL",
      "latitude": 22.42586,
      "longitude": 114.08323
    },
    {
      "id": 1818800,
      "name": "Shui Tsiu Lo Wai",
      "nativeName": "Shui Tsiu Lo Wai",
      "code": "HK-NYL-1818800",
      "countryId": 1819730,
      "countryCode": "HK",
      "stateCode": "HK-NYL",
      "latitude": 22.42648,
      "longitude": 114.03349
    },
    {
      "id": 1818799,
      "name": "Shui Tsiu San Tsuen",
      "nativeName": "Shui Tsiu San Tsuen",
      "code": "HK-NYL-1818799",
      "countryId": 1819730,
      "countryCode": "HK",
      "stateCode": "HK-NYL",
      "latitude": 22.42525,
      "longitude": 114.02926
    },
    {
      "id": 1818798,
      "name": "Shui Wo",
      "nativeName": "Shui Wo",
      "code": "HK-NYL-1818798",
      "countryId": 1819730,
      "countryCode": "HK",
      "stateCode": "HK-NYL",
      "latitude": 22.44486,
      "longitude": 114.12674
    },
    {
      "id": 1818796,
      "name": "Sik Kong Tsuen",
      "nativeName": "Sik Kong Tsuen",
      "code": "HK-NYL-1818796",
      "countryId": 1819730,
      "countryCode": "HK",
      "stateCode": "HK-NYL",
      "latitude": 22.45062,
      "longitude": 113.9919
    },
    {
      "id": 1818795,
      "name": "Sik Kong Wai",
      "nativeName": "Sik Kong Wai",
      "code": "HK-NYL-1818795",
      "countryId": 1819730,
      "countryCode": "HK",
      "stateCode": "HK-NYL",
      "latitude": 22.44898,
      "longitude": 113.99131
    },
    {
      "id": 1818786,
      "name": "Siu Hang Tsuen",
      "nativeName": "Siu Hang Tsuen",
      "code": "HK-NYL-1818786",
      "countryId": 1819730,
      "countryCode": "HK",
      "stateCode": "HK-NYL",
      "latitude": 22.41436,
      "longitude": 113.97269
    },
    {
      "id": 1818747,
      "name": "Sz Tsz Uk",
      "nativeName": "Sz Tsz Uk",
      "code": "HK-NYL-1818747",
      "countryId": 1819730,
      "countryCode": "HK",
      "stateCode": "HK-NYL",
      "latitude": 22.45,
      "longitude": 114.03333
    },
    {
      "id": 1818586,
      "name": "Ta Shek Wu",
      "nativeName": "Ta Shek Wu",
      "code": "HK-NYL-1818586",
      "countryId": 1819730,
      "countryCode": "HK",
      "stateCode": "HK-NYL",
      "latitude": 22.46209,
      "longitude": 114.10659
    },
    {
      "id": 1818728,
      "name": "Tai Hong Tsuen",
      "nativeName": "Tai Hong Tsuen",
      "code": "HK-NYL-1818728",
      "countryId": 1819730,
      "countryCode": "HK",
      "stateCode": "HK-NYL",
      "latitude": 22.43909,
      "longitude": 114.06511
    },
    {
      "id": 1818727,
      "name": "Tai Hong Wai",
      "nativeName": "Tai Hong Wai",
      "code": "HK-NYL-1818727",
      "countryId": 1819730,
      "countryCode": "HK",
      "stateCode": "HK-NYL",
      "latitude": 22.44073,
      "longitude": 114.06434
    },
    {
      "id": 1818725,
      "name": "Tai Kei Leng",
      "nativeName": "Tai Kei Leng",
      "code": "HK-NYL-1818725",
      "countryId": 1819730,
      "countryCode": "HK",
      "stateCode": "HK-NYL",
      "latitude": 22.44003,
      "longitude": 114.03127
    },
    {
      "id": 1818724,
      "name": "Tai Kek",
      "nativeName": "Tai Kek",
      "code": "HK-NYL-1818724",
      "countryId": 1819730,
      "countryCode": "HK",
      "stateCode": "HK-NYL",
      "latitude": 22.41659,
      "longitude": 114.06967
    },
    {
      "id": 1818720,
      "name": "Tai Kong Po",
      "nativeName": "Tai Kong Po",
      "code": "HK-NYL-1818720",
      "countryId": 1819730,
      "countryCode": "HK",
      "stateCode": "HK-NYL",
      "latitude": 22.44708,
      "longitude": 114.07475
    },
    {
      "id": 1818659,
      "name": "Tai Shang Wai",
      "nativeName": "Tai Shang Wai",
      "code": "HK-NYL-1818659",
      "countryId": 1819730,
      "countryCode": "HK",
      "stateCode": "HK-NYL",
      "latitude": 22.48333,
      "longitude": 114.03333
    },
    {
      "id": 1818635,
      "name": "Tai Tong",
      "nativeName": "Tai Tong",
      "code": "HK-NYL-1818635",
      "countryId": 1819730,
      "countryCode": "HK",
      "stateCode": "HK-NYL",
      "latitude": 22.41718,
      "longitude": 114.02446
    },
    {
      "id": 1818633,
      "name": "Tai Tseng Wai",
      "nativeName": "Tai Tseng Wai",
      "code": "HK-NYL-1818633",
      "countryId": 1819730,
      "countryCode": "HK",
      "stateCode": "HK-NYL",
      "latitude": 22.46278,
      "longitude": 114.02149
    },
    {
      "id": 1818627,
      "name": "Tai Wai",
      "nativeName": "Tai Wai",
      "code": "HK-NYL-1818627",
      "countryId": 1819730,
      "countryCode": "HK",
      "stateCode": "HK-NYL",
      "latitude": 22.44668,
      "longitude": 114.03904
    },
    {
      "id": 1818607,
      "name": "Tam Kon Chau",
      "nativeName": "Tam Kon Chau",
      "code": "HK-NYL-1818607",
      "countryId": 1819730,
      "countryCode": "HK",
      "stateCode": "HK-NYL",
      "latitude": 22.49564,
      "longitude": 114.04898
    },
    {
      "id": 1818597,
      "name": "Tan Kwai Tsuen",
      "nativeName": "Tan Kwai Tsuen",
      "code": "HK-NYL-1818597",
      "countryId": 1819730,
      "countryCode": "HK",
      "stateCode": "HK-NYL",
      "latitude": 22.42752,
      "longitude": 113.99625
    },
    {
      "id": 1818575,
      "name": "Tin Fu Tsai",
      "nativeName": "Tin Fu Tsai",
      "code": "HK-NYL-1818575",
      "countryId": 1819730,
      "countryCode": "HK",
      "stateCode": "HK-NYL",
      "latitude": 22.39384,
      "longitude": 114.06375
    },
    {
      "id": 1818564,
      "name": "Tin Liu Tsuen",
      "nativeName": "Tin Liu Tsuen",
      "code": "HK-NYL-1818564",
      "countryId": 1819730,
      "countryCode": "HK",
      "stateCode": "HK-NYL",
      "latitude": 22.43191,
      "longitude": 114.02518
    },
    {
      "id": 1818560,
      "name": "Tin Sam",
      "nativeName": "Tin Sam",
      "code": "HK-NYL-1818560",
      "countryId": 1819730,
      "countryCode": "HK",
      "stateCode": "HK-NYL",
      "latitude": 22.42452,
      "longitude": 114.06972
    },
    {
      "id": 1818558,
      "name": "Tin Shui Wai",
      "nativeName": "Tin Shui Wai",
      "code": "HK-NYL-1818558",
      "countryId": 1819730,
      "countryCode": "HK",
      "stateCode": "HK-NYL",
      "latitude": 22.45679,
      "longitude": 114.00234
    },
    {
      "id": 1818555,
      "name": "Tit Hang",
      "nativeName": "Tit Hang",
      "code": "HK-NYL-1818555",
      "countryId": 1819730,
      "countryCode": "HK",
      "stateCode": "HK-NYL",
      "latitude": 22.51327,
      "longitude": 114.09046
    },
    {
      "id": 1819466,
      "name": "To Uk Tsuen",
      "nativeName": "To Uk Tsuen",
      "code": "HK-NYL-1819466",
      "countryId": 1819730,
      "countryCode": "HK",
      "stateCode": "HK-NYL",
      "latitude": 22.45107,
      "longitude": 113.99431
    },
    {
      "id": 1818523,
      "name": "To Yuen Wai",
      "nativeName": "To Yuen Wai",
      "code": "HK-NYL-1818523",
      "countryId": 1819730,
      "countryCode": "HK",
      "stateCode": "HK-NYL",
      "latitude": 22.41621,
      "longitude": 113.98502
    },
    {
      "id": 1818541,
      "name": "Tong Fong Tsuen",
      "nativeName": "Tong Fong Tsuen",
      "code": "HK-NYL-1818541",
      "countryId": 1819730,
      "countryCode": "HK",
      "stateCode": "HK-NYL",
      "latitude": 22.44282,
      "longitude": 114.00838
    },
    {
      "id": 1818531,
      "name": "Tong Tau Po",
      "nativeName": "Tong Tau Po",
      "code": "HK-NYL-1818531",
      "countryId": 1819730,
      "countryCode": "HK",
      "stateCode": "HK-NYL",
      "latitude": 22.42683,
      "longitude": 114.03872
    },
    {
      "id": 1818529,
      "name": "Tong Yan San Tsuen",
      "nativeName": "Tong Yan San Tsuen",
      "code": "HK-NYL-1818529",
      "countryId": 1819730,
      "countryCode": "HK",
      "stateCode": "HK-NYL",
      "latitude": 22.43502,
      "longitude": 114.01031
    },
    {
      "id": 1818516,
      "name": "Tsat Sing Kong",
      "nativeName": "Tsat Sing Kong",
      "code": "HK-NYL-1818516",
      "countryId": 1819730,
      "countryCode": "HK",
      "stateCode": "HK-NYL",
      "latitude": 22.4481,
      "longitude": 114.08087
    },
    {
      "id": 1818508,
      "name": "Tseung Kong Wai",
      "nativeName": "Tseung Kong Wai",
      "code": "HK-NYL-1818508",
      "countryId": 1819730,
      "countryCode": "HK",
      "stateCode": "HK-NYL",
      "latitude": 22.4511,
      "longitude": 113.98668
    },
    {
      "id": 1818493,
      "name": "Tsing Chuen Wai",
      "nativeName": "Tsing Chuen Wai",
      "code": "HK-NYL-1818493",
      "countryId": 1819730,
      "countryCode": "HK",
      "stateCode": "HK-NYL",
      "latitude": 22.43333,
      "longitude": 114.03333
    },
    {
      "id": 1818489,
      "name": "Tsing Lung Tsuen",
      "nativeName": "Tsing Lung Tsuen",
      "code": "HK-NYL-1818489",
      "countryId": 1819730,
      "countryCode": "HK",
      "stateCode": "HK-NYL",
      "latitude": 22.49663,
      "longitude": 114.07272
    },
    {
      "id": 1818451,
      "name": "Tsz Tin Tsuen",
      "nativeName": "Tsz Tin Tsuen",
      "code": "HK-NYL-1818451",
      "countryId": 1819730,
      "countryCode": "HK",
      "stateCode": "HK-NYL",
      "latitude": 22.41643,
      "longitude": 113.97631
    },
    {
      "id": 1818450,
      "name": "Tsz Tong Tsuen",
      "nativeName": "Tsz Tong Tsuen",
      "code": "HK-NYL-1818450",
      "countryId": 1819730,
      "countryCode": "HK",
      "stateCode": "HK-NYL",
      "latitude": 22.43906,
      "longitude": 114.06739
    },
    {
      "id": 1818441,
      "name": "Tuen Tsz Wai",
      "nativeName": "Tuen Tsz Wai",
      "code": "HK-NYL-1818441",
      "countryId": 1819730,
      "countryCode": "HK",
      "stateCode": "HK-NYL",
      "latitude": 22.42117,
      "longitude": 113.98039
    },
    {
      "id": 1818438,
      "name": "Tung Chan Wai",
      "nativeName": "Tung Chan Wai",
      "code": "HK-NYL-1818438",
      "countryId": 1819730,
      "countryCode": "HK",
      "stateCode": "HK-NYL",
      "latitude": 22.50233,
      "longitude": 114.07719
    },
    {
      "id": 1818417,
      "name": "Tung Shing Lei",
      "nativeName": "Tung Shing Lei",
      "code": "HK-NYL-1818417",
      "countryId": 1819730,
      "countryCode": "HK",
      "stateCode": "HK-NYL",
      "latitude": 22.44689,
      "longitude": 114.04671
    },
    {
      "id": 1818413,
      "name": "Tung Tau Tsuen",
      "nativeName": "Tung Tau Tsuen",
      "code": "HK-NYL-1818413",
      "countryId": 1819730,
      "countryCode": "HK",
      "stateCode": "HK-NYL",
      "latitude": 22.45291,
      "longitude": 114.02873
    },
    {
      "id": 1818381,
      "name": "Wai Tsai",
      "nativeName": "Wai Tsai",
      "code": "HK-NYL-1818381",
      "countryId": 1819730,
      "countryCode": "HK",
      "stateCode": "HK-NYL",
      "latitude": 22.48092,
      "longitude": 114.06208
    },
    {
      "id": 1818364,
      "name": "Wang Toi Shan",
      "nativeName": "Wang Toi Shan",
      "code": "HK-NYL-1818364",
      "countryId": 1819730,
      "countryCode": "HK",
      "stateCode": "HK-NYL",
      "latitude": 22.4425,
      "longitude": 114.09435
    },
    {
      "id": 1818987,
      "name": "Wang Toi Shan San Tsuen",
      "nativeName": "Wang Toi Shan San Tsuen",
      "code": "HK-NYL-1818987",
      "countryId": 1819730,
      "countryCode": "HK",
      "stateCode": "HK-NYL",
      "latitude": 22.44397,
      "longitude": 114.097
    },
    {
      "id": 1818354,
      "name": "Wing Lung Wai",
      "nativeName": "Wing Lung Wai",
      "code": "HK-NYL-1818354",
      "countryId": 1819730,
      "countryCode": "HK",
      "stateCode": "HK-NYL",
      "latitude": 22.4404,
      "longitude": 114.06854
    },
    {
      "id": 1818353,
      "name": "Wing Ning Lei",
      "nativeName": "Wing Ning Lei",
      "code": "HK-NYL-1818353",
      "countryId": 1819730,
      "countryCode": "HK",
      "stateCode": "HK-NYL",
      "latitude": 22.45,
      "longitude": 114.1
    },
    {
      "id": 1818352,
      "name": "Wing Ning Tsuen",
      "nativeName": "Wing Ning Tsuen",
      "code": "HK-NYL-1818352",
      "countryId": 1819730,
      "countryCode": "HK",
      "stateCode": "HK-NYL",
      "latitude": 22.4507,
      "longitude": 114.01602
    },
    {
      "id": 1818350,
      "name": "Wing Ping Tsuen",
      "nativeName": "Wing Ping Tsuen",
      "code": "HK-NYL-1818350",
      "countryId": 1819730,
      "countryCode": "HK",
      "stateCode": "HK-NYL",
      "latitude": 22.50048,
      "longitude": 114.07821
    },
    {
      "id": 1818295,
      "name": "Wo Shang Wai",
      "nativeName": "Wo Shang Wai",
      "code": "HK-NYL-1818295",
      "countryId": 1819730,
      "countryCode": "HK",
      "stateCode": "HK-NYL",
      "latitude": 22.48719,
      "longitude": 114.05271
    },
    {
      "id": 1818307,
      "name": "Wong Nai Tun",
      "nativeName": "Wong Nai Tun",
      "code": "HK-NYL-1818307",
      "countryId": 1819730,
      "countryCode": "HK",
      "stateCode": "HK-NYL",
      "latitude": 22.41892,
      "longitude": 114.02291
    },
    {
      "id": 1818301,
      "name": "Wong Uk Tsuen",
      "nativeName": "Wong Uk Tsuen",
      "code": "HK-NYL-1818301",
      "countryId": 1819730,
      "countryCode": "HK",
      "stateCode": "HK-NYL",
      "latitude": 22.44796,
      "longitude": 114.03976
    },
    {
      "id": 1818274,
      "name": "Yan Shau Wai",
      "nativeName": "Yan Shau Wai",
      "code": "HK-NYL-1818274",
      "countryId": 1819730,
      "countryCode": "HK",
      "stateCode": "HK-NYL",
      "latitude": 22.50174,
      "longitude": 114.07438
    },
    {
      "id": 1818265,
      "name": "Yau Uk Tsuen",
      "nativeName": "Yau Uk Tsuen",
      "code": "HK-NYL-1818265",
      "countryId": 1819730,
      "countryCode": "HK",
      "stateCode": "HK-NYL",
      "latitude": 22.43333,
      "longitude": 114.08333
    },
    {
      "id": 1818230,
      "name": "Yuen Kong",
      "nativeName": "Yuen Kong",
      "code": "HK-NYL-1818230",
      "countryId": 1819730,
      "countryCode": "HK",
      "stateCode": "HK-NYL",
      "latitude": 22.42538,
      "longitude": 114.0762
    },
    {
      "id": 1818227,
      "name": "Yuen Kong San Tsuen",
      "nativeName": "Yuen Kong San Tsuen",
      "code": "HK-NYL-1818227",
      "countryId": 1819730,
      "countryCode": "HK",
      "stateCode": "HK-NYL",
      "latitude": 22.42114,
      "longitude": 114.07283
    },
    {
      "id": 1818223,
      "name": "Yuen Long Kau Hui",
      "nativeName": "Yuen Long Kau Hui",
      "code": "HK-NYL-1818223",
      "countryId": 1819730,
      "countryCode": "HK",
      "stateCode": "HK-NYL",
      "latitude": 22.44831,
      "longitude": 114.03199
    },
    {
      "id": 1818222,
      "name": "Yuen Long San Hui",
      "nativeName": "Yuen Long San Hui",
      "code": "HK-NYL-1818222",
      "countryId": 1819730,
      "countryCode": "HK",
      "stateCode": "HK-NYL",
      "latitude": 22.43333,
      "longitude": 114.03333
    }
  ]
}