{
  "stateId": 2595346,
  "stateCode": "NG-EK",
  "countryCode": "NG",
  "cities": [
    {
      "id": 8636740,
      "name": "Ado-Ekiti",
      "nativeName": "Ado-Ekiti",
      "code": "NG-EK-8636740",
      "countryId": 2328926,
      "countryCode": "NG",
      "stateCode": "NG-EK",
      "latitude": 7.61261,
      "longitude": 5.27384
    },
    {
      "id": 8636730,
      "name": "Efon",
      "nativeName": "Efon",
      "code": "NG-EK-8636730",
      "countryId": 2328926,
      "countryCode": "NG",
      "stateCode": "NG-EK",
      "latitude": 7.69576,
      "longitude": 4.93721
    },
    {
      "id": 8636738,
      "name": "Ekiti East",
      "nativeName": "Ekiti East",
      "code": "NG-EK-8636738",
      "countryId": 2328926,
      "countryCode": "NG",
      "stateCode": "NG-EK",
      "latitude": 7.7353,
      "longitude": 5.66928
    },
    {
      "id": 8636745,
      "name": "Ekiti South-West",
      "nativeName": "Ekiti South-West",
      "code": "NG-EK-8636745",
      "countryId": 2328926,
      "countryCode": "NG",
      "stateCode": "NG-EK",
      "latitude": 7.51325,
      "longitude": 5.05179
    },
    {
      "id": 8636731,
      "name": "Ekiti West",
      "nativeName": "Ekiti West",
      "code": "NG-EK-8636731",
      "countryId": 2328926,
      "countryCode": "NG",
      "stateCode": "NG-EK",
      "latitude": 7.68663,
      "longitude": 5.02847
    },
    {
      "id": 8636742,
      "name": "Emure",
      "nativeName": "Emure",
      "code": "NG-EK-8636742",
      "countryId": 2328926,
      "countryCode": "NG",
      "stateCode": "NG-EK",
      "latitude": 7.43213,
      "longitude": 5.51617
    },
    {
      "id": 8636741,
      "name": "Gbonyin",
      "nativeName": "Gbonyin",
      "code": "NG-EK-8636741",
      "countryId": 2328926,
      "countryCode": "NG",
      "stateCode": "NG-EK",
      "latitude": 7.60653,
      "longitude": 5.49894
    },
    {
      "id": 8636734,
      "name": "Ido-Osi",
      "nativeName": "Ido-Osi",
      "code": "NG-EK-8636734",
      "countryId": 2328926,
      "countryCode": "NG",
      "stateCode": "NG-EK",
      "latitude": 7.86204,
      "longitude": 5.18867
    },
    {
      "id": 8636732,
      "name": "Ijero",
      "nativeName": "Ijero",
      "code": "NG-EK-8636732",
      "countryId": 2328926,
      "countryCode": "NG",
      "stateCode": "NG-EK",
      "latitude": 7.84582,
      "longitude": 5.05686
    },
    {
      "id": 8636744,
      "name": "Ikere",
      "nativeName": "Ikere",
      "code": "NG-EK-8636744",
      "countryId": 2328926,
      "countryCode": "NG",
      "stateCode": "NG-EK",
      "latitude": 7.50209,
      "longitude": 5.21807
    },
    {
      "id": 8636737,
      "name": "Ikole",
      "nativeName": "Ikole",
      "code": "NG-EK-8636737",
      "countryId": 2328926,
      "countryCode": "NG",
      "stateCode": "NG-EK",
      "latitude": 7.89347,
      "longitude": 5.5111
    },
    {
      "id": 8636735,
      "name": "Ilejemeje",
      "nativeName": "Ilejemeje",
      "code": "NG-EK-8636735",
      "countryId": 2328926,
      "countryCode": "NG",
      "stateCode": "NG-EK",
      "latitude": 7.95837,
      "longitude": 5.23734
    },
    {
      "id": 8636739,
      "name": "Irepodun/Ifelodun",
      "nativeName": "Irepodun/Ifelodun",
      "code": "NG-EK-8636739",
      "countryId": 2328926,
      "countryCode": "NG",
      "stateCode": "NG-EK",
      "latitude": 7.71603,
      "longitude": 5.22923
    },
    {
      "id": 8636743,
      "name": "Ise/Orun",
      "nativeName": "Ise/Orun",
      "code": "NG-EK-8636743",
      "countryId": 2328926,
      "countryCode": "NG",
      "stateCode": "NG-EK",
      "latitude": 7.44531,
      "longitude": 5.3945
    },
    {
      "id": 8636733,
      "name": "Moba",
      "nativeName": "Moba",
      "code": "NG-EK-8636733",
      "countryId": 2328926,
      "countryCode": "NG",
      "stateCode": "NG-EK",
      "latitude": 8.00095,
      "longitude": 5.13189
    },
    {
      "id": 8636736,
      "name": "Oye",
      "nativeName": "Oye",
      "code": "NG-EK-8636736",
      "countryId": 2328926,
      "countryCode": "NG",
      "stateCode": "NG-EK",
      "latitude": 7.88942,
      "longitude": 5.34482
    }
  ]
}