{
  "stateId": 2565345,
  "stateCode": "NG-JI",
  "countryCode": "NG",
  "cities": [
    {
      "id": 8634255,
      "name": "Auyo",
      "nativeName": "Auyo",
      "code": "NG-JI-8634255",
      "countryId": 2328926,
      "countryCode": "NG",
      "stateCode": "NG-JI",
      "latitude": 12.37743,
      "longitude": 9.98773
    },
    {
      "id": 8634241,
      "name": "Babura",
      "nativeName": "Babura",
      "code": "NG-JI-8634241",
      "countryId": 2328926,
      "countryCode": "NG",
      "stateCode": "NG-JI",
      "latitude": 12.61402,
      "longitude": 8.85872
    },
    {
      "id": 8634259,
      "name": "Biriniwa",
      "nativeName": "Biriniwa",
      "code": "NG-JI-8634259",
      "countryId": 2328926,
      "countryCode": "NG",
      "stateCode": "NG-JI",
      "latitude": 12.83321,
      "longitude": 10.07471
    },
    {
      "id": 8634261,
      "name": "Birnin Kudu",
      "nativeName": "Birnin Kudu",
      "code": "NG-JI-8634261",
      "countryId": 2328926,
      "countryCode": "NG",
      "stateCode": "NG-JI",
      "latitude": 11.49023,
      "longitude": 9.49368
    },
    {
      "id": 8634262,
      "name": "Buji",
      "nativeName": "Buji",
      "code": "NG-JI-8634262",
      "countryId": 2328926,
      "countryCode": "NG",
      "stateCode": "NG-JI",
      "latitude": 11.57914,
      "longitude": 9.72012
    },
    {
      "id": 8634252,
      "name": "Dutse",
      "nativeName": "Dutse",
      "code": "NG-JI-8634252",
      "countryId": 2328926,
      "countryCode": "NG",
      "stateCode": "NG-JI",
      "latitude": 11.80331,
      "longitude": 9.30708
    },
    {
      "id": 8634246,
      "name": "Gagarawa",
      "nativeName": "Gagarawa",
      "code": "NG-JI-8634246",
      "countryId": 2328926,
      "countryCode": "NG",
      "stateCode": "NG-JI",
      "latitude": 12.51138,
      "longitude": 9.53717
    },
    {
      "id": 8634242,
      "name": "Garki",
      "nativeName": "Garki",
      "code": "NG-JI-8634242",
      "countryId": 2328926,
      "countryCode": "NG",
      "stateCode": "NG-JI",
      "latitude": 12.42962,
      "longitude": 9.06052
    },
    {
      "id": 8634244,
      "name": "Gumel",
      "nativeName": "Gumel",
      "code": "NG-JI-8634244",
      "countryId": 2328926,
      "countryCode": "NG",
      "stateCode": "NG-JI",
      "latitude": 12.63837,
      "longitude": 9.40148
    },
    {
      "id": 8634257,
      "name": "Guri",
      "nativeName": "Guri",
      "code": "NG-JI-8634257",
      "countryId": 2328926,
      "countryCode": "NG",
      "stateCode": "NG-JI",
      "latitude": 12.65751,
      "longitude": 10.46961
    },
    {
      "id": 8634263,
      "name": "Gwaram",
      "nativeName": "Gwaram",
      "code": "NG-JI-8634263",
      "countryId": 2328926,
      "countryCode": "NG",
      "stateCode": "NG-JI",
      "latitude": 11.1858,
      "longitude": 9.9686
    },
    {
      "id": 8634237,
      "name": "Gwiwa",
      "nativeName": "Gwiwa",
      "code": "NG-JI-8634237",
      "countryId": 2328926,
      "countryCode": "NG",
      "stateCode": "NG-JI",
      "latitude": 12.75406,
      "longitude": 8.28117
    },
    {
      "id": 8634256,
      "name": "Hadejia",
      "nativeName": "Hadejia",
      "code": "NG-JI-8634256",
      "countryId": 2328926,
      "countryCode": "NG",
      "stateCode": "NG-JI",
      "latitude": 12.43487,
      "longitude": 10.05266
    },
    {
      "id": 8634251,
      "name": "Jahun",
      "nativeName": "Jahun",
      "code": "NG-JI-8634251",
      "countryId": 2328926,
      "countryCode": "NG",
      "stateCode": "NG-JI",
      "latitude": 12.07996,
      "longitude": 9.55457
    },
    {
      "id": 8634254,
      "name": "Kafin Hausa",
      "nativeName": "Kafin Hausa",
      "code": "NG-JI-8634254",
      "countryId": 2328926,
      "countryCode": "NG",
      "stateCode": "NG-JI",
      "latitude": 12.14958,
      "longitude": 10.00247
    },
    {
      "id": 8634249,
      "name": "Kaugama",
      "nativeName": "Kaugama",
      "code": "NG-JI-8634249",
      "countryId": 2328926,
      "countryCode": "NG",
      "stateCode": "NG-JI",
      "latitude": 12.50268,
      "longitude": 9.7668
    },
    {
      "id": 8634240,
      "name": "Kazaure",
      "nativeName": "Kazaure",
      "code": "NG-JI-8634240",
      "countryId": 2328926,
      "countryCode": "NG",
      "stateCode": "NG-JI",
      "latitude": 12.59681,
      "longitude": 8.51353
    },
    {
      "id": 8634258,
      "name": "Kiri Kasama",
      "nativeName": "Kiri Kasama",
      "code": "NG-JI-8634258",
      "countryId": 2328926,
      "countryCode": "NG",
      "stateCode": "NG-JI",
      "latitude": 12.56531,
      "longitude": 10.25216
    },
    {
      "id": 8634253,
      "name": "Kiyawa",
      "nativeName": "Kiyawa",
      "code": "NG-JI-8634253",
      "countryId": 2328926,
      "countryCode": "NG",
      "stateCode": "NG-JI",
      "latitude": 11.84147,
      "longitude": 9.53697
    },
    {
      "id": 8634245,
      "name": "Maigatari",
      "nativeName": "Maigatari",
      "code": "NG-JI-8634245",
      "countryId": 2328926,
      "countryCode": "NG",
      "stateCode": "NG-JI",
      "latitude": 12.72535,
      "longitude": 9.58588
    },
    {
      "id": 8634260,
      "name": "Malam Maduri",
      "nativeName": "Malam Maduri",
      "code": "NG-JI-8634260",
      "countryId": 2328926,
      "countryCode": "NG",
      "stateCode": "NG-JI",
      "latitude": 12.56009,
      "longitude": 9.98599
    },
    {
      "id": 8634250,
      "name": "Miga",
      "nativeName": "Miga",
      "code": "NG-JI-8634250",
      "countryId": 2328926,
      "countryCode": "NG",
      "stateCode": "NG-JI",
      "latitude": 12.2313,
      "longitude": 9.69026
    },
    {
      "id": 8634247,
      "name": "Ringim",
      "nativeName": "Ringim",
      "code": "NG-JI-8634247",
      "countryId": 2328926,
      "countryCode": "NG",
      "stateCode": "NG-JI",
      "latitude": 12.18607,
      "longitude": 9.10401
    },
    {
      "id": 8634239,
      "name": "Roni",
      "nativeName": "Roni",
      "code": "NG-JI-8634239",
      "countryId": 2328926,
      "countryCode": "NG",
      "stateCode": "NG-JI",
      "latitude": 12.54925,
      "longitude": 8.33144
    },
    {
      "id": 8634243,
      "name": "Sule Tankakar",
      "nativeName": "Sule Tankakar",
      "code": "NG-JI-8634243",
      "countryId": 2328926,
      "countryCode": "NG",
      "stateCode": "NG-JI",
      "latitude": 12.65577,
      "longitude": 9.18751
    },
    {
      "id": 8634248,
      "name": "Taura",
      "nativeName": "Taura",
      "code": "NG-JI-8634248",
      "countryId": 2328926,
      "countryCode": "NG",
      "stateCode": "NG-JI",
      "latitude": 12.25566,
      "longitude": 9.38409
    },
    {
      "id": 8634238,
      "name": "Yankwashi",
      "nativeName": "Yankwashi",
      "code": "NG-JI-8634238",
      "countryId": 2328926,
      "countryCode": "NG",
      "stateCode": "NG-JI",
      "latitude": 12.76971,
      "longitude": 8.5369
    }
  ]
}