{
  "stateId": 2597363,
  "stateCode": "NG-KE",
  "countryCode": "NG",
  "cities": [
    {
      "id": 8632705,
      "name": "Aleiro",
      "nativeName": "Aleiro",
      "code": "NG-KE-8632705",
      "countryId": 2328926,
      "countryCode": "NG",
      "stateCode": "NG-KE",
      "latitude": 12.29654,
      "longitude": 4.42793
    },
    {
      "id": 8632709,
      "name": "Arewa Dandi",
      "nativeName": "Arewa Dandi",
      "code": "NG-KE-8632709",
      "countryId": 2328926,
      "countryCode": "NG",
      "stateCode": "NG-KE",
      "latitude": 12.69839,
      "longitude": 4.0313
    },
    {
      "id": 8632707,
      "name": "Argungu",
      "nativeName": "Argungu",
      "code": "NG-KE-8632707",
      "countryId": 2328926,
      "countryCode": "NG",
      "stateCode": "NG-KE",
      "latitude": 12.68795,
      "longitude": 4.40358
    },
    {
      "id": 8632708,
      "name": "Augie",
      "nativeName": "Augie",
      "code": "NG-KE-8632708",
      "countryId": 2328926,
      "countryCode": "NG",
      "stateCode": "NG-KE",
      "latitude": 12.91932,
      "longitude": 4.56362
    },
    {
      "id": 7873914,
      "name": "Bagudo",
      "nativeName": "Bagudo",
      "code": "NG-KE-7873914",
      "countryId": 2328926,
      "countryCode": "NG",
      "stateCode": "NG-KE",
      "latitude": 11.34757,
      "longitude": 3.95674
    },
    {
      "id": 8632706,
      "name": "Birnin Kebbi",
      "nativeName": "Birnin Kebbi",
      "code": "NG-KE-8632706",
      "countryId": 2328926,
      "countryCode": "NG",
      "stateCode": "NG-KE",
      "latitude": 12.45832,
      "longitude": 4.26267
    },
    {
      "id": 8631811,
      "name": "Bunza",
      "nativeName": "Bunza",
      "code": "NG-KE-8631811",
      "countryId": 2328926,
      "countryCode": "NG",
      "stateCode": "NG-KE",
      "latitude": 12.16781,
      "longitude": 3.91475
    },
    {
      "id": 8631809,
      "name": "Dandi",
      "nativeName": "Dandi",
      "code": "NG-KE-8631809",
      "countryId": 2328926,
      "countryCode": "NG",
      "stateCode": "NG-KE",
      "latitude": 11.84424,
      "longitude": 3.80863
    },
    {
      "id": 8631813,
      "name": "Fakai",
      "nativeName": "Fakai",
      "code": "NG-KE-8631813",
      "countryId": 2328926,
      "countryCode": "NG",
      "stateCode": "NG-KE",
      "latitude": 11.52227,
      "longitude": 4.88239
    },
    {
      "id": 7873919,
      "name": "Gwandu",
      "nativeName": "Gwandu",
      "code": "NG-KE-7873919",
      "countryId": 2328926,
      "countryCode": "NG",
      "stateCode": "NG-KE",
      "latitude": 12.51695,
      "longitude": 4.66493
    },
    {
      "id": 7873918,
      "name": "Jega",
      "nativeName": "Jega",
      "code": "NG-KE-7873918",
      "countryId": 2328926,
      "countryCode": "NG",
      "stateCode": "NG-KE",
      "latitude": 12.16397,
      "longitude": 4.48643
    },
    {
      "id": 8631812,
      "name": "Kalgo",
      "nativeName": "Kalgo",
      "code": "NG-KE-8631812",
      "countryId": 2328926,
      "countryCode": "NG",
      "stateCode": "NG-KE",
      "latitude": 12.28349,
      "longitude": 4.10088
    },
    {
      "id": 7873915,
      "name": "Koko-Besse",
      "nativeName": "Koko-Besse",
      "code": "NG-KE-7873915",
      "countryId": 2328926,
      "countryCode": "NG",
      "stateCode": "NG-KE",
      "latitude": 11.45855,
      "longitude": 4.43782
    },
    {
      "id": 9485472,
      "name": "Koko/Besse Local Government Area",
      "nativeName": "Koko/Besse Local Government Area",
      "code": "NG-KE-9485472",
      "countryId": 2328926,
      "countryCode": "NG",
      "stateCode": "NG-KE",
      "latitude": 11.48762,
      "longitude": 4.42445
    },
    {
      "id": 7873917,
      "name": "Maiyama",
      "nativeName": "Maiyama",
      "code": "NG-KE-7873917",
      "countryId": 2328926,
      "countryCode": "NG",
      "stateCode": "NG-KE",
      "latitude": 11.99054,
      "longitude": 4.35394
    },
    {
      "id": 7730012,
      "name": "Ngaski",
      "nativeName": "Ngaski",
      "code": "NG-KE-7730012",
      "countryId": 2328926,
      "countryCode": "NG",
      "stateCode": "NG-KE",
      "latitude": 10.40709,
      "longitude": 4.71781
    },
    {
      "id": 8631814,
      "name": "Sakaba",
      "nativeName": "Sakaba",
      "code": "NG-KE-8631814",
      "countryId": 2328926,
      "countryCode": "NG",
      "stateCode": "NG-KE",
      "latitude": 11.16231,
      "longitude": 5.54128
    },
    {
      "id": 8631808,
      "name": "Shanga",
      "nativeName": "Shanga",
      "code": "NG-KE-8631808",
      "countryId": 2328926,
      "countryCode": "NG",
      "stateCode": "NG-KE",
      "latitude": 11.21165,
      "longitude": 4.60951
    },
    {
      "id": 8631810,
      "name": "Suru",
      "nativeName": "Suru",
      "code": "NG-KE-8631810",
      "countryId": 2328926,
      "countryCode": "NG",
      "stateCode": "NG-KE",
      "latitude": 11.82999,
      "longitude": 4.09665
    },
    {
      "id": 8632704,
      "name": "Wasagu-Danko",
      "nativeName": "Wasagu-Danko",
      "code": "NG-KE-8632704",
      "countryId": 2328926,
      "countryCode": "NG",
      "stateCode": "NG-KE",
      "latitude": 11.42938,
      "longitude": 5.6749
    },
    {
      "id": 7730013,
      "name": "Yauri",
      "nativeName": "Yauri",
      "code": "NG-KE-7730013",
      "countryId": 2328926,
      "countryCode": "NG",
      "stateCode": "NG-KE",
      "latitude": 10.77643,
      "longitude": 4.74197
    },
    {
      "id": 9492098,
      "name": "Yauri Local Government Area",
      "nativeName": "Yauri Local Government Area",
      "code": "NG-KE-9492098",
      "countryId": 2328926,
      "countryCode": "NG",
      "stateCode": "NG-KE",
      "latitude": 11.0214,
      "longitude": 4.51491
    },
    {
      "id": 7730014,
      "name": "Zuru",
      "nativeName": "Zuru",
      "code": "NG-KE-7730014",
      "countryId": 2328926,
      "countryCode": "NG",
      "stateCode": "NG-KE",
      "latitude": 11.44638,
      "longitude": 5.28717
    }
  ]
}