{
  "stateId": 2332453,
  "stateCode": "NG-LA",
  "countryCode": "NG",
  "cities": [
    {
      "id": 7873904,
      "name": "Agege",
      "nativeName": "Agege",
      "code": "NG-LA-7873904",
      "countryId": 2328926,
      "countryCode": "NG",
      "stateCode": "NG-LA",
      "latitude": 6.63937,
      "longitude": 3.30757
    },
    {
      "id": 7932527,
      "name": "Ajeromi/Ifelodun",
      "nativeName": "Ajeromi/Ifelodun",
      "code": "NG-LA-7932527",
      "countryId": 2328926,
      "countryCode": "NG",
      "stateCode": "NG-LA",
      "latitude": 6.44939,
      "longitude": 3.3472
    },
    {
      "id": 7910345,
      "name": "Alimosho",
      "nativeName": "Alimosho",
      "code": "NG-LA-7910345",
      "countryId": 2328926,
      "countryCode": "NG",
      "stateCode": "NG-LA",
      "latitude": 6.5889,
      "longitude": 3.24852
    },
    {
      "id": 7871294,
      "name": "Amuwo Odofin",
      "nativeName": "Amuwo Odofin",
      "code": "NG-LA-7871294",
      "countryId": 2328926,
      "countryCode": "NG",
      "stateCode": "NG-LA",
      "latitude": 6.472,
      "longitude": 3.263
    },
    {
      "id": 7871290,
      "name": "Apapa",
      "nativeName": "Apapa",
      "code": "NG-LA-7871290",
      "countryId": 2328926,
      "countryCode": "NG",
      "stateCode": "NG-LA",
      "latitude": 6.42926,
      "longitude": 3.3493
    },
    {
      "id": 7871299,
      "name": "Badagry",
      "nativeName": "Badagry",
      "code": "NG-LA-7871299",
      "countryId": 2328926,
      "countryCode": "NG",
      "stateCode": "NG-LA",
      "latitude": 6.43813,
      "longitude": 2.90245
    },
    {
      "id": 7910347,
      "name": "Epe",
      "nativeName": "Epe",
      "code": "NG-LA-7910347",
      "countryId": 2328926,
      "countryCode": "NG",
      "stateCode": "NG-LA",
      "latitude": 6.55727,
      "longitude": 3.99122
    },
    {
      "id": 7932498,
      "name": "Eti Osa",
      "nativeName": "Eti Osa",
      "code": "NG-LA-7932498",
      "countryId": 2328926,
      "countryCode": "NG",
      "stateCode": "NG-LA",
      "latitude": 6.44154,
      "longitude": 3.55015
    },
    {
      "id": 7910348,
      "name": "Ibeju Lekki",
      "nativeName": "Ibeju Lekki",
      "code": "NG-LA-7910348",
      "countryId": 2328926,
      "countryCode": "NG",
      "stateCode": "NG-LA",
      "latitude": 6.4545,
      "longitude": 3.94318
    },
    {
      "id": 9485475,
      "name": "Ifako-Ijaiye Local Government Area",
      "nativeName": "Ifako-Ijaiye Local Government Area",
      "code": "NG-LA-9485475",
      "countryId": 2328926,
      "countryCode": "NG",
      "stateCode": "NG-LA",
      "latitude": 6.66503,
      "longitude": 3.30279
    },
    {
      "id": 7910346,
      "name": "Ifako/Ijaye",
      "nativeName": "Ifako/Ijaye",
      "code": "NG-LA-7910346",
      "countryId": 2328926,
      "countryCode": "NG",
      "stateCode": "NG-LA",
      "latitude": 6.65822,
      "longitude": 3.31231
    },
    {
      "id": 7910350,
      "name": "Ikeja",
      "nativeName": "Ikeja",
      "code": "NG-LA-7910350",
      "countryId": 2328926,
      "countryCode": "NG",
      "stateCode": "NG-LA",
      "latitude": 6.61857,
      "longitude": 3.34259
    },
    {
      "id": 7644922,
      "name": "Ikorodu",
      "nativeName": "Ikorodu",
      "code": "NG-LA-7644922",
      "countryId": 2328926,
      "countryCode": "NG",
      "stateCode": "NG-LA",
      "latitude": 6.62641,
      "longitude": 3.55167
    },
    {
      "id": 7871279,
      "name": "Kosofe",
      "nativeName": "Kosofe",
      "code": "NG-LA-7871279",
      "countryId": 2328926,
      "countryCode": "NG",
      "stateCode": "NG-LA",
      "latitude": 6.601,
      "longitude": 3.409
    },
    {
      "id": 9485476,
      "name": "Lagos Island Local Government Area",
      "nativeName": "Lagos Island Local Government Area",
      "code": "NG-LA-9485476",
      "countryId": 2328926,
      "countryCode": "NG",
      "stateCode": "NG-LA",
      "latitude": 6.46113,
      "longitude": 3.39037
    },
    {
      "id": 9485474,
      "name": "Lagos Mainland Local Government Area",
      "nativeName": "Lagos Mainland Local Government Area",
      "code": "NG-LA-9485474",
      "countryId": 2328926,
      "countryCode": "NG",
      "stateCode": "NG-LA",
      "latitude": 6.47941,
      "longitude": 3.37292
    },
    {
      "id": 7910351,
      "name": "Mushin",
      "nativeName": "Mushin",
      "code": "NG-LA-7910351",
      "countryId": 2328926,
      "countryCode": "NG",
      "stateCode": "NG-LA",
      "latitude": 6.52641,
      "longitude": 3.36305
    },
    {
      "id": 7871297,
      "name": "Ojo",
      "nativeName": "Ojo",
      "code": "NG-LA-7871297",
      "countryId": 2328926,
      "countryCode": "NG",
      "stateCode": "NG-LA",
      "latitude": 6.46508,
      "longitude": 3.14827
    },
    {
      "id": 9485473,
      "name": "Oshodi-Isolo Local Government Area",
      "nativeName": "Oshodi-Isolo Local Government Area",
      "code": "NG-LA-9485473",
      "countryId": 2328926,
      "countryCode": "NG",
      "stateCode": "NG-LA",
      "latitude": 6.56068,
      "longitude": 3.33531
    },
    {
      "id": 7910352,
      "name": "Oshodi/Isolo",
      "nativeName": "Oshodi/Isolo",
      "code": "NG-LA-7910352",
      "countryId": 2328926,
      "countryCode": "NG",
      "stateCode": "NG-LA",
      "latitude": 6.55923,
      "longitude": 3.30242
    },
    {
      "id": 7871280,
      "name": "Shomolu",
      "nativeName": "Shomolu",
      "code": "NG-LA-7871280",
      "countryId": 2328926,
      "countryCode": "NG",
      "stateCode": "NG-LA",
      "latitude": 6.55606,
      "longitude": 3.3695
    },
    {
      "id": 7932526,
      "name": "Surulere",
      "nativeName": "Surulere",
      "code": "NG-LA-7932526",
      "countryId": 2328926,
      "countryCode": "NG",
      "stateCode": "NG-LA",
      "latitude": 6.49167,
      "longitude": 3.34893
    }
  ]
}