{
  "countryId": 2328926,
  "countryCode": "NG",
  "states": [
    {
      "id": 2565340,
      "name": "Abia State",
      "nativeName": "Abia State",
      "code": "NG-AB",
      "internalCode": "AB",
      "countryId": 2328926,
      "countryCode": "NG",
      "latitude": 5.41667,
      "longitude": 7.5
    },
    {
      "id": 2565342,
      "name": "Adamawa",
      "nativeName": "Adamawa State",
      "code": "NG-AD",
      "internalCode": "AD",
      "countryId": 2328926,
      "countryCode": "NG",
      "latitude": 9.33333,
      "longitude": 12.5
    },
    {
      "id": 2350813,
      "name": "Akwa Ibom State",
      "nativeName": "Akwa Ibom State",
      "code": "NG-AK",
      "internalCode": "AK",
      "countryId": 2328926,
      "countryCode": "NG",
      "latitude": 5,
      "longitude": 7.83333
    },
    {
      "id": 2349961,
      "name": "Anambra",
      "nativeName": "Anambra State",
      "code": "NG-AN",
      "internalCode": "AN",
      "countryId": 2328926,
      "countryCode": "NG",
      "latitude": 6.33333,
      "longitude": 7
    },
    {
      "id": 2347468,
      "name": "Bauchi",
      "nativeName": "Bauchi State",
      "code": "NG-BA",
      "internalCode": "BA",
      "countryId": 2328926,
      "countryCode": "NG",
      "latitude": 10.5,
      "longitude": 10
    },
    {
      "id": 2595344,
      "name": "Bayelsa State",
      "nativeName": "Bayelsa State",
      "code": "NG-BY",
      "internalCode": "BY",
      "countryId": 2328926,
      "countryCode": "NG",
      "latitude": 4.75,
      "longitude": 6.08333
    },
    {
      "id": 2347266,
      "name": "Benue State",
      "nativeName": "Benue State",
      "code": "NG-BE",
      "internalCode": "BE",
      "countryId": 2328926,
      "countryCode": "NG",
      "latitude": 7.33333,
      "longitude": 8.75
    },
    {
      "id": 2346794,
      "name": "Borno State",
      "nativeName": "Borno State",
      "code": "NG-BO",
      "internalCode": "BO",
      "countryId": 2328926,
      "countryCode": "NG",
      "latitude": 11.5,
      "longitude": 13
    },
    {
      "id": 2345891,
      "name": "Cross River State",
      "nativeName": "Cross River State",
      "code": "NG-CR",
      "internalCode": "CR",
      "countryId": 2328926,
      "countryCode": "NG",
      "latitude": 5.75,
      "longitude": 8.5
    },
    {
      "id": 2565341,
      "name": "Delta",
      "nativeName": "Delta State",
      "code": "NG-DE",
      "internalCode": "DE",
      "countryId": 2328926,
      "countryCode": "NG",
      "latitude": 5.5,
      "longitude": 6
    },
    {
      "id": 2595345,
      "name": "Ebonyi State",
      "nativeName": "Ebonyi State",
      "code": "NG-EB",
      "internalCode": "EB",
      "countryId": 2328926,
      "countryCode": "NG",
      "latitude": 6.25,
      "longitude": 8.08333
    },
    {
      "id": 2565343,
      "name": "Edo State",
      "nativeName": "Edo",
      "code": "NG-ED",
      "internalCode": "ED",
      "countryId": 2328926,
      "countryCode": "NG",
      "latitude": 6.5,
      "longitude": 6
    },
    {
      "id": 2595346,
      "name": "Ekiti State",
      "nativeName": "Ekiti State",
      "code": "NG-EK",
      "internalCode": "EK",
      "countryId": 2328926,
      "countryCode": "NG",
      "latitude": 7.66667,
      "longitude": 5.25
    },
    {
      "id": 2565344,
      "name": "Enugu State",
      "nativeName": "Enugu State",
      "code": "NG-EN",
      "internalCode": "EN",
      "countryId": 2328926,
      "countryCode": "NG",
      "latitude": 6.5,
      "longitude": 7.5
    },
    {
      "id": 2352776,
      "name": "FCT",
      "nativeName": "Federal Capital Territory",
      "code": "NG-FC",
      "internalCode": "FC",
      "countryId": 2328926,
      "countryCode": "NG",
      "latitude": 8.83333,
      "longitude": 7.16667
    },
    {
      "id": 2595347,
      "name": "Gombe State",
      "nativeName": "Gombe State",
      "code": "NG-GO",
      "internalCode": "GO",
      "countryId": 2328926,
      "countryCode": "NG",
      "latitude": 10.25,
      "longitude": 11.16667
    },
    {
      "id": 2337542,
      "name": "Imo State",
      "nativeName": "Imo State",
      "code": "NG-IM",
      "internalCode": "IM",
      "countryId": 2328926,
      "countryCode": "NG",
      "latitude": 5.5,
      "longitude": 7.16667
    },
    {
      "id": 2565345,
      "name": "Jigawa State",
      "nativeName": "Jigawa State",
      "code": "NG-JI",
      "internalCode": "JI",
      "countryId": 2328926,
      "countryCode": "NG",
      "latitude": 12.1,
      "longitude": 9.56
    },
    {
      "id": 2335722,
      "name": "Kaduna State",
      "nativeName": "Kaduna State",
      "code": "NG-KD",
      "internalCode": "KD",
      "countryId": 2328926,
      "countryCode": "NG",
      "latitude": 10.33333,
      "longitude": 7.75
    },
    {
      "id": 2335196,
      "name": "Kano State",
      "nativeName": "Kano State",
      "code": "NG-KN",
      "internalCode": "KN",
      "countryId": 2328926,
      "countryCode": "NG",
      "latitude": 11.5,
      "longitude": 8.5
    },
    {
      "id": 2334797,
      "name": "Katsina State",
      "nativeName": "Katsina State",
      "code": "NG-KT",
      "internalCode": "KT",
      "countryId": 2328926,
      "countryCode": "NG",
      "latitude": 12.25,
      "longitude": 7.5
    },
    {
      "id": 2597363,
      "name": "Kebbi",
      "nativeName": "Kebbi State",
      "code": "NG-KE",
      "internalCode": "KE",
      "countryId": 2328926,
      "countryCode": "NG",
      "latitude": 11.5,
      "longitude": 4
    },
    {
      "id": 2597364,
      "name": "Kogi State",
      "nativeName": "Kogi State",
      "code": "NG-KO",
      "internalCode": "KO",
      "countryId": 2328926,
      "countryCode": "NG",
      "latitude": 7.75,
      "longitude": 6.75
    },
    {
      "id": 2332785,
      "name": "Kwara State",
      "nativeName": "Kwara State",
      "code": "NG-KW",
      "internalCode": "KW",
      "countryId": 2328926,
      "countryCode": "NG",
      "latitude": 8.5,
      "longitude": 5
    },
    {
      "id": 2332453,
      "name": "Lagos",
      "nativeName": "Lagos State",
      "code": "NG-LA",
      "internalCode": "LA",
      "countryId": 2328926,
      "countryCode": "NG",
      "latitude": 6.53774,
      "longitude": 3.3522
    },
    {
      "id": 2595348,
      "name": "Nasarawa State",
      "nativeName": "Nasarawa State",
      "code": "NG-NA",
      "internalCode": "NA",
      "countryId": 2328926,
      "countryCode": "NG",
      "latitude": 8.5,
      "longitude": 8.25
    },
    {
      "id": 2328925,
      "name": "Niger State",
      "nativeName": "Niger State",
      "code": "NG-NI",
      "internalCode": "NI",
      "countryId": 2328926,
      "countryCode": "NG",
      "latitude": 10,
      "longitude": 6
    },
    {
      "id": 2327546,
      "name": "Ogun State",
      "nativeName": "Ogun State",
      "code": "NG-OG",
      "internalCode": "OG",
      "countryId": 2328926,
      "countryCode": "NG",
      "latitude": 7,
      "longitude": 3.58333
    },
    {
      "id": 2326168,
      "name": "Ondo State",
      "nativeName": "Ondo State",
      "code": "NG-ON",
      "internalCode": "ON",
      "countryId": 2328926,
      "countryCode": "NG",
      "latitude": 7.16667,
      "longitude": 5.08333
    },
    {
      "id": 2597365,
      "name": "Osun State",
      "nativeName": "Osun State",
      "code": "NG-OS",
      "internalCode": "OS",
      "countryId": 2328926,
      "countryCode": "NG",
      "latitude": 7.5,
      "longitude": 4.5
    },
    {
      "id": 2325190,
      "name": "Oyo State",
      "nativeName": "Oyo State",
      "code": "NG-OY",
      "internalCode": "OY",
      "countryId": 2328926,
      "countryCode": "NG",
      "latitude": 8,
      "longitude": 4
    },
    {
      "id": 2324828,
      "name": "Plateau State",
      "nativeName": "Plateau State",
      "code": "NG-PL",
      "internalCode": "PL",
      "countryId": 2328926,
      "countryCode": "NG",
      "latitude": 9.16667,
      "longitude": 9.75
    },
    {
      "id": 2324433,
      "name": "Rivers State",
      "nativeName": "Rivers State",
      "code": "NG-RI",
      "internalCode": "RI",
      "countryId": 2328926,
      "countryCode": "NG",
      "latitude": 4.74974,
      "longitude": 6.82766
    },
    {
      "id": 2322907,
      "name": "Sokoto State",
      "nativeName": "Sokoto State",
      "code": "NG-SO",
      "internalCode": "SO",
      "countryId": 2328926,
      "countryCode": "NG",
      "latitude": 13.08333,
      "longitude": 5.25
    },
    {
      "id": 2597366,
      "name": "Taraba State",
      "nativeName": "Taraba State",
      "code": "NG-TA",
      "internalCode": "TA",
      "countryId": 2328926,
      "countryCode": "NG",
      "latitude": 8,
      "longitude": 10.5
    },
    {
      "id": 2597367,
      "name": "Yobe State",
      "nativeName": "Yobe State",
      "code": "NG-YO",
      "internalCode": "YO",
      "countryId": 2328926,
      "countryCode": "NG",
      "latitude": 12,
      "longitude": 11.5
    },
    {
      "id": 2595349,
      "name": "Zamfara State",
      "nativeName": "Zamfara State",
      "code": "NG-ZA",
      "internalCode": "ZA",
      "countryId": 2328926,
      "countryCode": "NG",
      "latitude": 12.16667,
      "longitude": 6.25
    }
  ]
}