{
  "countryId": 130758,
  "countryCode": "IR",
  "states": [
    {
      "id": 7648907,
      "name": "Alborz Province",
      "nativeName": "Alborz Province",
      "code": "IR-30",
      "internalCode": "30",
      "countryId": 130758,
      "countryCode": "IR",
      "latitude": 36.01117,
      "longitude": 50.80956
    },
    {
      "id": 413931,
      "name": "Ardabil Province",
      "nativeName": "Ardabil Province",
      "code": "IR-24",
      "internalCode": "24",
      "countryId": 130758,
      "countryCode": "IR",
      "latitude": 38.5,
      "longitude": 48
    },
    {
      "id": 139816,
      "name": "Bushehr",
      "nativeName": "Bushehr Province",
      "code": "IR-18",
      "internalCode": "18",
      "countryId": 130758,
      "countryCode": "IR",
      "latitude": 28.75,
      "longitude": 51.5
    },
    {
      "id": 139677,
      "name": "Chaharmahal and Bakhtiari",
      "nativeName": "Chaharmahal and Bakhtiari Province",
      "code": "IR-14",
      "internalCode": "14",
      "countryId": 130758,
      "countryCode": "IR",
      "latitude": 32.16667,
      "longitude": 50.75
    },
    {
      "id": 142549,
      "name": "East Azerbaijan",
      "nativeName": "East Azerbaijan Province",
      "code": "IR-03",
      "internalCode": "03",
      "countryId": 130758,
      "countryCode": "IR",
      "latitude": 38,
      "longitude": 46.75
    },
    {
      "id": 134766,
      "name": "Fars",
      "nativeName": "Fars Province",
      "code": "IR-07",
      "internalCode": "07",
      "countryId": 130758,
      "countryCode": "IR",
      "latitude": 29,
      "longitude": 53
    },
    {
      "id": 133349,
      "name": "Gilan Province",
      "nativeName": "Gilan Province",
      "code": "IR-01",
      "internalCode": "01",
      "countryId": 130758,
      "countryCode": "IR",
      "latitude": 37.16667,
      "longitude": 49.5
    },
    {
      "id": 443792,
      "name": "Golestan",
      "nativeName": "Golestan Province",
      "code": "IR-27",
      "internalCode": "27",
      "countryId": 130758,
      "countryCode": "IR",
      "latitude": 37.25,
      "longitude": 55
    },
    {
      "id": 132142,
      "name": "Hamadan Province",
      "nativeName": "Hamadan Province",
      "code": "IR-13",
      "internalCode": "13",
      "countryId": 130758,
      "countryCode": "IR",
      "latitude": 34.83333,
      "longitude": 48.58333
    },
    {
      "id": 131222,
      "name": "Hormozgan",
      "nativeName": "Hormozgan Province",
      "code": "IR-22",
      "internalCode": "22",
      "countryId": 130758,
      "countryCode": "IR",
      "latitude": 27.75,
      "longitude": 56.5
    },
    {
      "id": 130801,
      "name": "Ilam Province",
      "nativeName": "Ilam Province",
      "code": "IR-16",
      "internalCode": "16",
      "countryId": 130758,
      "countryCode": "IR",
      "latitude": 33.16667,
      "longitude": 47
    },
    {
      "id": 418862,
      "name": "Isfahan",
      "nativeName": "Isfahan Province",
      "code": "IR-10",
      "internalCode": "10",
      "countryId": 130758,
      "countryCode": "IR",
      "latitude": 33,
      "longitude": 52.16667
    },
    {
      "id": 128231,
      "name": "Kerman",
      "nativeName": "Kerman Province",
      "code": "IR-08",
      "internalCode": "08",
      "countryId": 130758,
      "countryCode": "IR",
      "latitude": 29.75,
      "longitude": 57.25
    },
    {
      "id": 128222,
      "name": "Kermanshah Province",
      "nativeName": "Kermanshah Province",
      "code": "IR-05",
      "internalCode": "05",
      "countryId": 130758,
      "countryCode": "IR",
      "latitude": 34.41667,
      "longitude": 46.75
    },
    {
      "id": 127082,
      "name": "Khuzestan",
      "nativeName": "Khuzestan Province",
      "code": "IR-06",
      "internalCode": "06",
      "countryId": 130758,
      "countryCode": "IR",
      "latitude": 31.5,
      "longitude": 49
    },
    {
      "id": 126878,
      "name": "Kohgiluyeh and Boyer-Ahmad",
      "nativeName": "Kohgiluyeh and Boyer-Ahmad Province",
      "code": "IR-17",
      "internalCode": "17",
      "countryId": 130758,
      "countryCode": "IR",
      "latitude": 30.83333,
      "longitude": 50.66667
    },
    {
      "id": 126584,
      "name": "Kurdistan Province",
      "nativeName": "Kurdistan Province",
      "code": "IR-12",
      "internalCode": "12",
      "countryId": 130758,
      "countryCode": "IR",
      "latitude": 35.66667,
      "longitude": 47
    },
    {
      "id": 125605,
      "name": "Lorestan Province",
      "nativeName": "Lorestan Province",
      "code": "IR-15",
      "internalCode": "15",
      "countryId": 130758,
      "countryCode": "IR",
      "latitude": 33.5,
      "longitude": 48.5
    },
    {
      "id": 124763,
      "name": "Markazi",
      "nativeName": "Markazi Province",
      "code": "IR-00",
      "internalCode": "00",
      "countryId": 130758,
      "countryCode": "IR",
      "latitude": 34.33333,
      "longitude": 49.83333
    },
    {
      "id": 124544,
      "name": "Māzandarān",
      "nativeName": "Mazandaran Province",
      "code": "IR-02",
      "internalCode": "02",
      "countryId": 130758,
      "countryCode": "IR",
      "latitude": 36.25,
      "longitude": 52.33333
    },
    {
      "id": 6201376,
      "name": "North Khorasan",
      "nativeName": "North Khorasan Province",
      "code": "IR-28",
      "internalCode": "28",
      "countryId": 130758,
      "countryCode": "IR",
      "latitude": 37.5,
      "longitude": 57
    },
    {
      "id": 443793,
      "name": "Qazvin Province",
      "nativeName": "Qazvin Province",
      "code": "IR-26",
      "internalCode": "26",
      "countryId": 130758,
      "countryCode": "IR",
      "latitude": 36,
      "longitude": 49.75
    },
    {
      "id": 443794,
      "name": "Qom Province",
      "nativeName": "Qom Province",
      "code": "IR-25",
      "internalCode": "25",
      "countryId": 130758,
      "countryCode": "IR",
      "latitude": 34.75,
      "longitude": 51
    },
    {
      "id": 6201375,
      "name": "Razavi Khorasan",
      "nativeName": "Razavi Khorasan Province",
      "code": "IR-09",
      "internalCode": "09",
      "countryId": 130758,
      "countryCode": "IR",
      "latitude": 35.25,
      "longitude": 59
    },
    {
      "id": 116401,
      "name": "Semnan",
      "nativeName": "Semnan Province",
      "code": "IR-20",
      "internalCode": "20",
      "countryId": 130758,
      "countryCode": "IR",
      "latitude": 35.5,
      "longitude": 55
    },
    {
      "id": 1159456,
      "name": "Sistan and Baluchestan",
      "nativeName": "Sistan and Baluchestan Province",
      "code": "IR-11",
      "internalCode": "11",
      "countryId": 130758,
      "countryCode": "IR",
      "latitude": 28.5,
      "longitude": 60.5
    },
    {
      "id": 6201374,
      "name": "South Khorasan Province",
      "nativeName": "South Khorasan Province",
      "code": "IR-29",
      "internalCode": "29",
      "countryId": 130758,
      "countryCode": "IR",
      "latitude": 32.5,
      "longitude": 59.5
    },
    {
      "id": 110791,
      "name": "Tehran",
      "nativeName": "Tehran Province",
      "code": "IR-23",
      "internalCode": "23",
      "countryId": 130758,
      "countryCode": "IR",
      "latitude": 35.66667,
      "longitude": 51.41667
    },
    {
      "id": 142550,
      "name": "West Azerbaijan",
      "nativeName": "West Azerbaijan Province",
      "code": "IR-04",
      "internalCode": "04",
      "countryId": 130758,
      "countryCode": "IR",
      "latitude": 37.66667,
      "longitude": 45
    },
    {
      "id": 111821,
      "name": "Yazd Province",
      "nativeName": "Yazd Province",
      "code": "IR-21",
      "internalCode": "21",
      "countryId": 130758,
      "countryCode": "IR",
      "latitude": 32.5,
      "longitude": 55.58333
    },
    {
      "id": 111452,
      "name": "Zanjan",
      "nativeName": "Zanjan Province",
      "code": "IR-19",
      "internalCode": "19",
      "countryId": 130758,
      "countryCode": "IR",
      "latitude": 36.5,
      "longitude": 48.33333
    }
  ]
}