{
  "stateId": 3379515,
  "stateCode": "GY-BA",
  "countryCode": "GY",
  "cities": [
    {
      "id": 3377301,
      "name": "Mabaruma",
      "nativeName": "Mabaruma",
      "code": "GY-BA-3377301",
      "countryId": 3378535,
      "countryCode": "GY",
      "stateCode": "GY-BA",
      "latitude": 8.2,
      "longitude": -59.78333
    },
    {
      "id": 3379905,
      "name": "Akwero",
      "nativeName": "Akwero",
      "code": "GY-BA-3379905",
      "countryId": 3378535,
      "countryCode": "GY",
      "stateCode": "GY-BA",
      "latitude": 7.65,
      "longitude": -58.93333
    },
    {
      "id": 3661461,
      "name": "Arakaka",
      "nativeName": "Arakaka",
      "code": "GY-BA-3661461",
      "countryId": 3378535,
      "countryCode": "GY",
      "stateCode": "GY-BA",
      "latitude": 7.58333,
      "longitude": -60.01667
    },
    {
      "id": 3379539,
      "name": "Barabina Hill",
      "nativeName": "Barabina Hill",
      "code": "GY-BA-3379539",
      "countryId": 3378535,
      "countryCode": "GY",
      "stateCode": "GY-BA",
      "latitude": 8.21288,
      "longitude": -59.80092
    },
    {
      "id": 3379530,
      "name": "Baramanni",
      "nativeName": "Baramanni",
      "code": "GY-BA-3379530",
      "countryId": 3378535,
      "countryCode": "GY",
      "stateCode": "GY-BA",
      "latitude": 7.83841,
      "longitude": -59.21611
    },
    {
      "id": 3661401,
      "name": "Baramita",
      "nativeName": "Baramita",
      "code": "GY-BA-3661401",
      "countryId": 3378535,
      "countryCode": "GY",
      "stateCode": "GY-BA",
      "latitude": 7.35,
      "longitude": -60.48333
    },
    {
      "id": 3379118,
      "name": "Chinese Landing",
      "nativeName": "Chinese Landing",
      "code": "GY-BA-3379118",
      "countryId": 3378535,
      "countryCode": "GY",
      "stateCode": "GY-BA",
      "latitude": 7.51667,
      "longitude": -59.55
    },
    {
      "id": 3378409,
      "name": "Hobediah",
      "nativeName": "Hobediah",
      "code": "GY-BA-3378409",
      "countryId": 3378535,
      "countryCode": "GY",
      "stateCode": "GY-BA",
      "latitude": 7.96667,
      "longitude": -59.81667
    },
    {
      "id": 3378363,
      "name": "Hosororo",
      "nativeName": "Hosororo",
      "code": "GY-BA-3378363",
      "countryId": 3378535,
      "countryCode": "GY",
      "stateCode": "GY-BA",
      "latitude": 8.17333,
      "longitude": -59.80809
    },
    {
      "id": 3378360,
      "name": "Hotoquai",
      "nativeName": "Hotoquai",
      "code": "GY-BA-3378360",
      "countryId": 3378535,
      "countryCode": "GY",
      "stateCode": "GY-BA",
      "latitude": 8.00873,
      "longitude": -59.82163
    },
    {
      "id": 3378288,
      "name": "Igupa Village",
      "nativeName": "Igupa Village",
      "code": "GY-BA-3378288",
      "countryId": 3378535,
      "countryCode": "GY",
      "stateCode": "GY-BA",
      "latitude": 7.4,
      "longitude": -59.26667
    },
    {
      "id": 3378244,
      "name": "Ipotaikuru",
      "nativeName": "Ipotaikuru",
      "code": "GY-BA-3378244",
      "countryId": 3378535,
      "countryCode": "GY",
      "stateCode": "GY-BA",
      "latitude": 7.43333,
      "longitude": -59.6
    },
    {
      "id": 3378017,
      "name": "Kamwatta Hill",
      "nativeName": "Kamwatta Hill",
      "code": "GY-BA-3378017",
      "countryId": 3378535,
      "countryCode": "GY",
      "stateCode": "GY-BA",
      "latitude": 8.13185,
      "longitude": -59.86193
    },
    {
      "id": 3377942,
      "name": "Kariaku",
      "nativeName": "Kariaku",
      "code": "GY-BA-3377942",
      "countryId": 3378535,
      "countryCode": "GY",
      "stateCode": "GY-BA",
      "latitude": 7.37823,
      "longitude": -59.7148
    },
    {
      "id": 3377823,
      "name": "Kokerite",
      "nativeName": "Kokerite",
      "code": "GY-BA-3377823",
      "countryId": 3378535,
      "countryCode": "GY",
      "stateCode": "GY-BA",
      "latitude": 7.3338,
      "longitude": -59.58998
    },
    {
      "id": 3661235,
      "name": "Konoro Village",
      "nativeName": "Konoro Village",
      "code": "GY-BA-3661235",
      "countryId": 3378535,
      "countryCode": "GY",
      "stateCode": "GY-BA",
      "latitude": 7.25,
      "longitude": -60.01667
    },
    {
      "id": 3377783,
      "name": "Koriabo",
      "nativeName": "Koriabo",
      "code": "GY-BA-3377783",
      "countryId": 3378535,
      "countryCode": "GY",
      "stateCode": "GY-BA",
      "latitude": 7.61591,
      "longitude": -59.64243
    },
    {
      "id": 3377718,
      "name": "Kumaka",
      "nativeName": "Kumaka",
      "code": "GY-BA-3377718",
      "countryId": 3378535,
      "countryCode": "GY",
      "stateCode": "GY-BA",
      "latitude": 8.19154,
      "longitude": -59.79744
    },
    {
      "id": 3377719,
      "name": "Kumaka",
      "nativeName": "Kumaka",
      "code": "GY-BA-3377719",
      "countryId": 3378535,
      "countryCode": "GY",
      "stateCode": "GY-BA",
      "latitude": 7.65,
      "longitude": -58.95
    },
    {
      "id": 3377576,
      "name": "Kwabanna",
      "nativeName": "Kwabanna",
      "code": "GY-BA-3377576",
      "countryId": 3378535,
      "countryCode": "GY",
      "stateCode": "GY-BA",
      "latitude": 7.56667,
      "longitude": -59.15
    },
    {
      "id": 3661186,
      "name": "La Juanita",
      "nativeName": "La Juanita",
      "code": "GY-BA-3661186",
      "countryId": 3378535,
      "countryCode": "GY",
      "stateCode": "GY-BA",
      "latitude": 7.95,
      "longitude": -60.21667
    },
    {
      "id": 3377164,
      "name": "Manari Village",
      "nativeName": "Manari Village",
      "code": "GY-BA-3377164",
      "countryId": 3378535,
      "countryCode": "GY",
      "stateCode": "GY-BA",
      "latitude": 7.51667,
      "longitude": -59.83333
    },
    {
      "id": 3377158,
      "name": "Manawarin",
      "nativeName": "Manawarin",
      "code": "GY-BA-3377158",
      "countryId": 3378535,
      "countryCode": "GY",
      "stateCode": "GY-BA",
      "latitude": 7.58333,
      "longitude": -58.86667
    },
    {
      "id": 3661152,
      "name": "Matthews Ridge",
      "nativeName": "Matthews Ridge",
      "code": "GY-BA-3661152",
      "countryId": 3378535,
      "countryCode": "GY",
      "stateCode": "GY-BA",
      "latitude": 7.49426,
      "longitude": -60.15068
    },
    {
      "id": 3376930,
      "name": "Mission Landing",
      "nativeName": "Mission Landing",
      "code": "GY-BA-3376930",
      "countryId": 3378535,
      "countryCode": "GY",
      "stateCode": "GY-BA",
      "latitude": 7.75892,
      "longitude": -59.86031
    },
    {
      "id": 3376848,
      "name": "Morawhanna",
      "nativeName": "Morawhanna",
      "code": "GY-BA-3376848",
      "countryId": 3378535,
      "countryCode": "GY",
      "stateCode": "GY-BA",
      "latitude": 8.26867,
      "longitude": -59.7561
    },
    {
      "id": 3376824,
      "name": "Mount Everard",
      "nativeName": "Mount Everard",
      "code": "GY-BA-3376824",
      "countryId": 3378535,
      "countryCode": "GY",
      "stateCode": "GY-BA",
      "latitude": 7.81667,
      "longitude": -59.46667
    },
    {
      "id": 3376816,
      "name": "Mubohina",
      "nativeName": "Mubohina",
      "code": "GY-BA-3376816",
      "countryId": 3378535,
      "countryCode": "GY",
      "stateCode": "GY-BA",
      "latitude": 7.58333,
      "longitude": -59.13333
    },
    {
      "id": 3661094,
      "name": "Pakera",
      "nativeName": "Pakera",
      "code": "GY-BA-3661094",
      "countryId": 3378535,
      "countryCode": "GY",
      "stateCode": "GY-BA",
      "latitude": 7.49074,
      "longitude": -60.15057
    },
    {
      "id": 3376529,
      "name": "Parapimai",
      "nativeName": "Parapimai",
      "code": "GY-BA-3376529",
      "countryId": 3378535,
      "countryCode": "GY",
      "stateCode": "GY-BA",
      "latitude": 7.36667,
      "longitude": -59.66667
    },
    {
      "id": 3376398,
      "name": "Port Kaituma",
      "nativeName": "Port Kaituma",
      "code": "GY-BA-3376398",
      "countryId": 3378535,
      "countryCode": "GY",
      "stateCode": "GY-BA",
      "latitude": 7.72987,
      "longitude": -59.87514
    },
    {
      "id": 3376285,
      "name": "Red Hill Settlement",
      "nativeName": "Red Hill Settlement",
      "code": "GY-BA-3376285",
      "countryId": 3378535,
      "countryCode": "GY",
      "stateCode": "GY-BA",
      "latitude": 7.86667,
      "longitude": -59.43333
    },
    {
      "id": 3376192,
      "name": "Saint Bede’s Mission",
      "nativeName": "Saint Bede’s Mission",
      "code": "GY-BA-3376192",
      "countryId": 3378535,
      "countryCode": "GY",
      "stateCode": "GY-BA",
      "latitude": 7.56667,
      "longitude": -59.46667
    },
    {
      "id": 3376191,
      "name": "Saint Benedict Mission",
      "nativeName": "Saint Benedict Mission",
      "code": "GY-BA-3376191",
      "countryId": 3378535,
      "countryCode": "GY",
      "stateCode": "GY-BA",
      "latitude": 7.81667,
      "longitude": -59.83333
    },
    {
      "id": 3376133,
      "name": "Santa Cruz",
      "nativeName": "Santa Cruz",
      "code": "GY-BA-3376133",
      "countryId": 3378535,
      "countryCode": "GY",
      "stateCode": "GY-BA",
      "latitude": 7.65,
      "longitude": -59.23333
    },
    {
      "id": 3376129,
      "name": "Santa Rosa Mission",
      "nativeName": "Santa Rosa Mission",
      "code": "GY-BA-3376129",
      "countryId": 3378535,
      "countryCode": "GY",
      "stateCode": "GY-BA",
      "latitude": 7.65,
      "longitude": -58.95
    },
    {
      "id": 3375970,
      "name": "Sinclair Landing",
      "nativeName": "Sinclair Landing",
      "code": "GY-BA-3375970",
      "countryId": 3378535,
      "countryCode": "GY",
      "stateCode": "GY-BA",
      "latitude": 7.77397,
      "longitude": -59.83134
    },
    {
      "id": 3375828,
      "name": "Surprise Hill",
      "nativeName": "Surprise Hill",
      "code": "GY-BA-3375828",
      "countryId": 3378535,
      "countryCode": "GY",
      "stateCode": "GY-BA",
      "latitude": 7.81667,
      "longitude": -59.8
    },
    {
      "id": 12421320,
      "name": "Tobago & Wauna Hill",
      "nativeName": "Tobago & Wauna Hill",
      "code": "GY-BA-12421320",
      "countryId": 3378535,
      "countryCode": "GY",
      "stateCode": "GY-BA",
      "latitude": 8.15951,
      "longitude": -59.83433
    },
    {
      "id": 3375588,
      "name": "Towakaima",
      "nativeName": "Towakaima",
      "code": "GY-BA-3375588",
      "countryId": 3378535,
      "countryCode": "GY",
      "stateCode": "GY-BA",
      "latitude": 7.31667,
      "longitude": -60
    },
    {
      "id": 3375367,
      "name": "Waikerebi Mission",
      "nativeName": "Waikerebi Mission",
      "code": "GY-BA-3375367",
      "countryId": 3378535,
      "countryCode": "GY",
      "stateCode": "GY-BA",
      "latitude": 7.53333,
      "longitude": -59.4
    },
    {
      "id": 3375310,
      "name": "Walton Hall",
      "nativeName": "Walton Hall",
      "code": "GY-BA-3375310",
      "countryId": 3378535,
      "countryCode": "GY",
      "stateCode": "GY-BA",
      "latitude": 7.33037,
      "longitude": -58.48144
    },
    {
      "id": 3375266,
      "name": "Waramuri Mission",
      "nativeName": "Waramuri Mission",
      "code": "GY-BA-3375266",
      "countryId": 3378535,
      "countryCode": "GY",
      "stateCode": "GY-BA",
      "latitude": 7.61667,
      "longitude": -58.86667
    },
    {
      "id": 3375181,
      "name": "Wauna-Yarikita",
      "nativeName": "Wauna-Yarikita",
      "code": "GY-BA-3375181",
      "countryId": 3378535,
      "countryCode": "GY",
      "stateCode": "GY-BA",
      "latitude": 8.08333,
      "longitude": -59.91667
    }
  ]
}