{
  "stateId": 3378840,
  "stateCode": "GY-EB",
  "countryCode": "GY",
  "cities": [
    {
      "id": 3376762,
      "name": "New Amsterdam",
      "nativeName": "New Amsterdam",
      "code": "GY-EB-3376762",
      "countryId": 3378535,
      "countryCode": "GY",
      "stateCode": "GY-EB",
      "latitude": 6.24793,
      "longitude": -57.5171
    },
    {
      "id": 3379874,
      "name": "Alness",
      "nativeName": "Alness",
      "code": "GY-EB-3379874",
      "countryId": 3378535,
      "countryCode": "GY",
      "stateCode": "GY-EB",
      "latitude": 6.22451,
      "longitude": -57.28862
    },
    {
      "id": 3374943,
      "name": "Barakara",
      "nativeName": "Barakara",
      "code": "GY-EB-3374943",
      "countryId": 3378535,
      "countryCode": "GY",
      "stateCode": "GY-EB",
      "latitude": 5.85,
      "longitude": -57.46667
    },
    {
      "id": 3379508,
      "name": "Bartica",
      "nativeName": "Bartica",
      "code": "GY-EB-3379508",
      "countryId": 3378535,
      "countryCode": "GY",
      "stateCode": "GY-EB",
      "latitude": 5.78765,
      "longitude": -57.62801
    },
    {
      "id": 3379300,
      "name": "Brandwagt-Sari",
      "nativeName": "Brandwagt-Sari",
      "code": "GY-EB-3379300",
      "countryId": 3378535,
      "countryCode": "GY",
      "stateCode": "GY-EB",
      "latitude": 5.98333,
      "longitude": -57.63333
    },
    {
      "id": 3379290,
      "name": "Brighton",
      "nativeName": "Brighton",
      "code": "GY-EB-3379290",
      "countryId": 3378535,
      "countryCode": "GY",
      "stateCode": "GY-EB",
      "latitude": 6.14308,
      "longitude": -57.21614
    },
    {
      "id": 3379233,
      "name": "Bush Lot",
      "nativeName": "Bush Lot",
      "code": "GY-EB-3379233",
      "countryId": 3378535,
      "countryCode": "GY",
      "stateCode": "GY-EB",
      "latitude": 6.20719,
      "longitude": -57.26483
    },
    {
      "id": 3379202,
      "name": "Canefield",
      "nativeName": "Canefield",
      "code": "GY-EB-3379202",
      "countryId": 3378535,
      "countryCode": "GY",
      "stateCode": "GY-EB",
      "latitude": 6.24624,
      "longitude": -57.48358
    },
    {
      "id": 3379045,
      "name": "Crabwood Creek",
      "nativeName": "Crabwood Creek",
      "code": "GY-EB-3379045",
      "countryId": 3378535,
      "countryCode": "GY",
      "stateCode": "GY-EB",
      "latitude": 5.85,
      "longitude": -57.15
    },
    {
      "id": 3378865,
      "name": "Dukestown",
      "nativeName": "Dukestown",
      "code": "GY-EB-3378865",
      "countryId": 3378535,
      "countryCode": "GY",
      "stateCode": "GY-EB",
      "latitude": 5.90387,
      "longitude": -57.14007
    },
    {
      "id": 3378752,
      "name": "Epira",
      "nativeName": "Epira",
      "code": "GY-EB-3378752",
      "countryId": 3378535,
      "countryCode": "GY",
      "stateCode": "GY-EB",
      "latitude": 5.13333,
      "longitude": -57.33333
    },
    {
      "id": 3378593,
      "name": "Good Hope",
      "nativeName": "Good Hope",
      "code": "GY-EB-3378593",
      "countryId": 3378535,
      "countryCode": "GY",
      "stateCode": "GY-EB",
      "latitude": 6.1,
      "longitude": -57.2
    },
    {
      "id": 3378230,
      "name": "Islington",
      "nativeName": "Islington",
      "code": "GY-EB-3378230",
      "countryId": 3378535,
      "countryCode": "GY",
      "stateCode": "GY-EB",
      "latitude": 6.21667,
      "longitude": -57.51667
    },
    {
      "id": 3378160,
      "name": "Java",
      "nativeName": "Java",
      "code": "GY-EB-3378160",
      "countryId": 3378535,
      "countryCode": "GY",
      "stateCode": "GY-EB",
      "latitude": 6.13333,
      "longitude": -57.2
    },
    {
      "id": 3378157,
      "name": "Joanna",
      "nativeName": "Joanna",
      "code": "GY-EB-3378157",
      "countryId": 3378535,
      "countryCode": "GY",
      "stateCode": "GY-EB",
      "latitude": 6.07899,
      "longitude": -57.26496
    },
    {
      "id": 3377958,
      "name": "Karaudanawa",
      "nativeName": "Karaudanawa",
      "code": "GY-EB-3377958",
      "countryId": 3378535,
      "countryCode": "GY",
      "stateCode": "GY-EB",
      "latitude": 2.46667,
      "longitude": -59.43333
    },
    {
      "id": 3377446,
      "name": "Leeds",
      "nativeName": "Leeds",
      "code": "GY-EB-3377446",
      "countryId": 3378535,
      "countryCode": "GY",
      "stateCode": "GY-EB",
      "latitude": 6.0549,
      "longitude": -57.1761
    },
    {
      "id": 3377432,
      "name": "Lesbeholden",
      "nativeName": "Lesbeholden",
      "code": "GY-EB-3377432",
      "countryId": 3378535,
      "countryCode": "GY",
      "stateCode": "GY-EB",
      "latitude": 6.14633,
      "longitude": -57.30187
    },
    {
      "id": 3377295,
      "name": "Macaw",
      "nativeName": "Macaw",
      "code": "GY-EB-3377295",
      "countryId": 3378535,
      "countryCode": "GY",
      "stateCode": "GY-EB",
      "latitude": 6.08333,
      "longitude": -57.58333
    },
    {
      "id": 3376952,
      "name": "Mibikuri",
      "nativeName": "Mibikuri",
      "code": "GY-EB-3376952",
      "countryId": 3378535,
      "countryCode": "GY",
      "stateCode": "GY-EB",
      "latitude": 6.10546,
      "longitude": -57.2824
    },
    {
      "id": 3376700,
      "name": "Number Forty-five",
      "nativeName": "Number Forty-five",
      "code": "GY-EB-3376700",
      "countryId": 3378535,
      "countryCode": "GY",
      "stateCode": "GY-EB",
      "latitude": 6.1,
      "longitude": -57.2
    },
    {
      "id": 3376697,
      "name": "Number Forty-six",
      "nativeName": "Number Forty-six",
      "code": "GY-EB-3376697",
      "countryId": 3378535,
      "countryCode": "GY",
      "stateCode": "GY-EB",
      "latitude": 6.08333,
      "longitude": -57.2
    },
    {
      "id": 3377012,
      "name": "Number Seventy Massiah",
      "nativeName": "Number Seventy Massiah",
      "code": "GY-EB-3377012",
      "countryId": 3378535,
      "countryCode": "GY",
      "stateCode": "GY-EB",
      "latitude": 5.94025,
      "longitude": -57.16611
    },
    {
      "id": 3377025,
      "name": "Number Seventy-eight Mary and Eliza",
      "nativeName": "Number Seventy-eight Mary and Eliza",
      "code": "GY-EB-3377025",
      "countryId": 3378535,
      "countryCode": "GY",
      "stateCode": "GY-EB",
      "latitude": 5.89871,
      "longitude": -57.14674
    },
    {
      "id": 3375899,
      "name": "Number Seventy-five Spring Garden",
      "nativeName": "Number Seventy-five Spring Garden",
      "code": "GY-EB-3375899",
      "countryId": 3378535,
      "countryCode": "GY",
      "stateCode": "GY-EB",
      "latitude": 5.91294,
      "longitude": -57.16056
    },
    {
      "id": 3375869,
      "name": "Number Seventy-four Stockholm",
      "nativeName": "Number Seventy-four Stockholm",
      "code": "GY-EB-3375869",
      "countryId": 3378535,
      "countryCode": "GY",
      "stateCode": "GY-EB",
      "latitude": 5.92128,
      "longitude": -57.15396
    },
    {
      "id": 3377371,
      "name": "Number Seventy-one Little Massiah",
      "nativeName": "Number Seventy-one Little Massiah",
      "code": "GY-EB-3377371",
      "countryId": 3378535,
      "countryCode": "GY",
      "stateCode": "GY-EB",
      "latitude": 5.93559,
      "longitude": -57.15821
    },
    {
      "id": 3378455,
      "name": "Number Seventy-six Harriet",
      "nativeName": "Number Seventy-six Harriet",
      "code": "GY-EB-3378455",
      "countryId": 3378535,
      "countryCode": "GY",
      "stateCode": "GY-EB",
      "latitude": 5.91007,
      "longitude": -57.14927
    },
    {
      "id": 3379103,
      "name": "Number Seventy-three Clonbrook",
      "nativeName": "Number Seventy-three Clonbrook",
      "code": "GY-EB-3379103",
      "countryId": 3378535,
      "countryCode": "GY",
      "stateCode": "GY-EB",
      "latitude": 5.92352,
      "longitude": -57.16304
    },
    {
      "id": 3378385,
      "name": "Number Seventy-two Hong Kong",
      "nativeName": "Number Seventy-two Hong Kong",
      "code": "GY-EB-3378385",
      "countryId": 3378535,
      "countryCode": "GY",
      "stateCode": "GY-EB",
      "latitude": 5.93106,
      "longitude": -57.15676
    },
    {
      "id": 3376745,
      "name": "Number Sixty-five New Market",
      "nativeName": "Number Sixty-five New Market",
      "code": "GY-EB-3376745",
      "countryId": 3378535,
      "countryCode": "GY",
      "stateCode": "GY-EB",
      "latitude": 5.97388,
      "longitude": -57.15628
    },
    {
      "id": 3379590,
      "name": "Number Sixty-four Babylon",
      "nativeName": "Number Sixty-four Babylon",
      "code": "GY-EB-3379590",
      "countryId": 3378535,
      "countryCode": "GY",
      "stateCode": "GY-EB",
      "latitude": 5.9793,
      "longitude": -57.15785
    },
    {
      "id": 3378671,
      "name": "Number Sixty-nine Friendship",
      "nativeName": "Number Sixty-nine Friendship",
      "code": "GY-EB-3378671",
      "countryId": 3378535,
      "countryCode": "GY",
      "stateCode": "GY-EB",
      "latitude": 5.94592,
      "longitude": -57.16795
    },
    {
      "id": 3376685,
      "name": "Number Sixty-seven",
      "nativeName": "Number Sixty-seven",
      "code": "GY-EB-3376685",
      "countryId": 3378535,
      "countryCode": "GY",
      "stateCode": "GY-EB",
      "latitude": 5.96328,
      "longitude": -57.15489
    },
    {
      "id": 3376684,
      "name": "Number Sixty-six",
      "nativeName": "Number Sixty-six",
      "code": "GY-EB-3376684",
      "countryId": 3378535,
      "countryCode": "GY",
      "stateCode": "GY-EB",
      "latitude": 5.9662,
      "longitude": -57.16142
    },
    {
      "id": 3376683,
      "name": "Number Sixty-two",
      "nativeName": "Number Sixty-two",
      "code": "GY-EB-3376683",
      "countryId": 3378535,
      "countryCode": "GY",
      "stateCode": "GY-EB",
      "latitude": 5.99069,
      "longitude": -57.16158
    },
    {
      "id": 3378660,
      "name": "Number Three Fyrish",
      "nativeName": "Number Three Fyrish",
      "code": "GY-EB-3378660",
      "countryId": 3378535,
      "countryCode": "GY",
      "stateCode": "GY-EB",
      "latitude": 6.27503,
      "longitude": -57.38683
    },
    {
      "id": 3376606,
      "name": "Orealla",
      "nativeName": "Orealla",
      "code": "GY-EB-3376606",
      "countryId": 3378535,
      "countryCode": "GY",
      "stateCode": "GY-EB",
      "latitude": 5.31667,
      "longitude": -57.33333
    },
    {
      "id": 3376396,
      "name": "Port Mourant",
      "nativeName": "Port Mourant",
      "code": "GY-EB-3376396",
      "countryId": 3378535,
      "countryCode": "GY",
      "stateCode": "GY-EB",
      "latitude": 6.24604,
      "longitude": -57.3336
    },
    {
      "id": 3376359,
      "name": "Princetown",
      "nativeName": "Princetown",
      "code": "GY-EB-3376359",
      "countryId": 3378535,
      "countryCode": "GY",
      "stateCode": "GY-EB",
      "latitude": 5.90486,
      "longitude": -57.13915
    },
    {
      "id": 3376344,
      "name": "Providence Place",
      "nativeName": "Providence Place",
      "code": "GY-EB-3376344",
      "countryId": 3378535,
      "countryCode": "GY",
      "stateCode": "GY-EB",
      "latitude": 6.22605,
      "longitude": -57.5243
    },
    {
      "id": 3376314,
      "name": "Queenstown",
      "nativeName": "Queenstown",
      "code": "GY-EB-3376314",
      "countryId": 3378535,
      "countryCode": "GY",
      "stateCode": "GY-EB",
      "latitude": 5.88645,
      "longitude": -57.14091
    },
    {
      "id": 3376254,
      "name": "Rising Sun",
      "nativeName": "Rising Sun",
      "code": "GY-EB-3376254",
      "countryId": 3378535,
      "countryCode": "GY",
      "stateCode": "GY-EB",
      "latitude": 6.08333,
      "longitude": -57.2
    },
    {
      "id": 3376227,
      "name": "Rose Hall",
      "nativeName": "Rose Hall",
      "code": "GY-EB-3376227",
      "countryId": 3378535,
      "countryCode": "GY",
      "stateCode": "GY-EB",
      "latitude": 6.25577,
      "longitude": -57.35502
    },
    {
      "id": 3376066,
      "name": "Scottsburg",
      "nativeName": "Scottsburg",
      "code": "GY-EB-3376066",
      "countryId": 3378535,
      "countryCode": "GY",
      "stateCode": "GY-EB",
      "latitude": 5.90676,
      "longitude": -57.14204
    },
    {
      "id": 3375941,
      "name": "Skeldon",
      "nativeName": "Skeldon",
      "code": "GY-EB-3375941",
      "countryId": 3378535,
      "countryCode": "GY",
      "stateCode": "GY-EB",
      "latitude": 5.87035,
      "longitude": -57.14681
    },
    {
      "id": 3375895,
      "name": "Springlands",
      "nativeName": "Springlands",
      "code": "GY-EB-3375895",
      "countryId": 3378535,
      "countryCode": "GY",
      "stateCode": "GY-EB",
      "latitude": 5.89298,
      "longitude": -57.14063
    },
    {
      "id": 3375884,
      "name": "Stanleytown",
      "nativeName": "Stanleytown",
      "code": "GY-EB-3375884",
      "countryId": 3378535,
      "countryCode": "GY",
      "stateCode": "GY-EB",
      "latitude": 6.23474,
      "longitude": -57.51258
    },
    {
      "id": 3375741,
      "name": "Tarlogie",
      "nativeName": "Tarlogie",
      "code": "GY-EB-3375741",
      "countryId": 3378535,
      "countryCode": "GY",
      "stateCode": "GY-EB",
      "latitude": 6.18161,
      "longitude": -57.23884
    },
    {
      "id": 3375248,
      "name": "Ward village",
      "nativeName": "Ward village",
      "code": "GY-EB-3375248",
      "countryId": 3378535,
      "countryCode": "GY",
      "stateCode": "GY-EB",
      "latitude": 6.06667,
      "longitude": -57.18333
    },
    {
      "id": 3375168,
      "name": "Wel te Vreeden",
      "nativeName": "Wel te Vreeden",
      "code": "GY-EB-3375168",
      "countryId": 3378535,
      "countryCode": "GY",
      "stateCode": "GY-EB",
      "latitude": 5.85826,
      "longitude": -57.45912
    },
    {
      "id": 3375139,
      "name": "Whim",
      "nativeName": "Whim",
      "code": "GY-EB-3375139",
      "countryId": 3378535,
      "countryCode": "GY",
      "stateCode": "GY-EB",
      "latitude": 6.23236,
      "longitude": -57.31229
    },
    {
      "id": 3375053,
      "name": "Yakusari",
      "nativeName": "Yakusari",
      "code": "GY-EB-3375053",
      "countryId": 3378535,
      "countryCode": "GY",
      "stateCode": "GY-EB",
      "latitude": 6.04908,
      "longitude": -57.26716
    },
    {
      "id": 3379810,
      "name": "Ankerville",
      "nativeName": "Ankerville",
      "code": "GY-EB-3379810",
      "countryId": 3378535,
      "countryCode": "GY",
      "stateCode": "GY-EB",
      "latitude": 6.24123,
      "longitude": -57.34872
    },
    {
      "id": 3379456,
      "name": "Belvidere",
      "nativeName": "Belvidere",
      "code": "GY-EB-3379456",
      "countryId": 3378535,
      "countryCode": "GY",
      "stateCode": "GY-EB",
      "latitude": 6.25024,
      "longitude": -57.37077
    },
    {
      "id": 8314090,
      "name": "Fort Canje",
      "nativeName": "Fort Canje",
      "code": "GY-EB-8314090",
      "countryId": 3378535,
      "countryCode": "GY",
      "stateCode": "GY-EB",
      "latitude": 6.2623,
      "longitude": -57.50986
    },
    {
      "id": 3378483,
      "name": "Hampshire",
      "nativeName": "Hampshire",
      "code": "GY-EB-3378483",
      "countryId": 3378535,
      "countryCode": "GY",
      "stateCode": "GY-EB",
      "latitude": 6.25012,
      "longitude": -57.36627
    },
    {
      "id": 3378451,
      "name": "Haswell",
      "nativeName": "Haswell",
      "code": "GY-EB-3378451",
      "countryId": 3378535,
      "countryCode": "GY",
      "stateCode": "GY-EB",
      "latitude": 6.24074,
      "longitude": -57.34444
    },
    {
      "id": 3376689,
      "name": "Number Seventy-seven",
      "nativeName": "Number Seventy-seven",
      "code": "GY-EB-3376689",
      "countryId": 3378535,
      "countryCode": "GY",
      "stateCode": "GY-EB",
      "latitude": 5.89998,
      "longitude": -57.1445
    },
    {
      "id": 3376687,
      "name": "Number Sixty",
      "nativeName": "Number Sixty",
      "code": "GY-EB-3376687",
      "countryId": 3378535,
      "countryCode": "GY",
      "stateCode": "GY-EB",
      "latitude": 5.9981,
      "longitude": -57.16707
    },
    {
      "id": 3376686,
      "name": "Number Sixty-one",
      "nativeName": "Number Sixty-one",
      "code": "GY-EB-3376686",
      "countryId": 3378535,
      "countryCode": "GY",
      "stateCode": "GY-EB",
      "latitude": 5.99576,
      "longitude": -57.16126
    },
    {
      "id": 3379453,
      "name": "Number Sixty-three Benab",
      "nativeName": "Number Sixty-three Benab",
      "code": "GY-EB-3379453",
      "countryId": 3378535,
      "countryCode": "GY",
      "stateCode": "GY-EB",
      "latitude": 5.98469,
      "longitude": -57.15906
    },
    {
      "id": 3379060,
      "name": "Number Two Courtland",
      "nativeName": "Number Two Courtland",
      "code": "GY-EB-3379060",
      "countryId": 3378535,
      "countryCode": "GY",
      "stateCode": "GY-EB",
      "latitude": 6.27848,
      "longitude": -57.39155
    },
    {
      "id": 3376275,
      "name": "Resource",
      "nativeName": "Resource",
      "code": "GY-EB-3376275",
      "countryId": 3378535,
      "countryCode": "GY",
      "stateCode": "GY-EB",
      "latitude": 6.23998,
      "longitude": -57.34091
    },
    {
      "id": 3375804,
      "name": "Tain",
      "nativeName": "Tain",
      "code": "GY-EB-3375804",
      "countryId": 3378535,
      "countryCode": "GY",
      "stateCode": "GY-EB",
      "latitude": 6.23898,
      "longitude": -57.33632
    },
    {
      "id": 3375108,
      "name": "Williamsburg",
      "nativeName": "Williamsburg",
      "code": "GY-EB-3375108",
      "countryId": 3378535,
      "countryCode": "GY",
      "stateCode": "GY-EB",
      "latitude": 6.24483,
      "longitude": -57.36268
    }
  ]
}