{
  "stateId": 3849574,
  "stateCode": "AR-L",
  "countryCode": "AR",
  "cities": [
    {
      "id": 3865245,
      "name": "Departamento de Atreucó",
      "nativeName": "Departamento de Atreucó",
      "code": "AR-L-3865245",
      "countryId": 3865483,
      "countryCode": "AR",
      "stateCode": "AR-L",
      "latitude": -37,
      "longitude": -63.75
    },
    {
      "id": 3863378,
      "name": "Departamento de Caleu-Caleu",
      "nativeName": "Departamento de Caleu-Caleu",
      "code": "AR-L-3863378",
      "countryId": 3865483,
      "countryCode": "AR",
      "stateCode": "AR-L",
      "latitude": -38.58333,
      "longitude": -64
    },
    {
      "id": 3862741,
      "name": "Departamento de Capital",
      "nativeName": "Departamento de Capital",
      "code": "AR-L-3862741",
      "countryId": 3865483,
      "countryCode": "AR",
      "stateCode": "AR-L",
      "latitude": -36.5,
      "longitude": -64.25
    },
    {
      "id": 3862250,
      "name": "Departamento de Catriló",
      "nativeName": "Departamento de Catriló",
      "code": "AR-L-3862250",
      "countryId": 3865483,
      "countryCode": "AR",
      "stateCode": "AR-L",
      "latitude": -36.5,
      "longitude": -63.75
    },
    {
      "id": 3861829,
      "name": "Departamento de Chalileo",
      "nativeName": "Departamento de Chalileo",
      "code": "AR-L-3861829",
      "countryId": 3865483,
      "countryCode": "AR",
      "stateCode": "AR-L",
      "latitude": -36.41667,
      "longitude": -66.58333
    },
    {
      "id": 3861714,
      "name": "Departamento de Chapaleufú",
      "nativeName": "Departamento de Chapaleufú",
      "code": "AR-L-3861714",
      "countryId": 3865483,
      "countryCode": "AR",
      "stateCode": "AR-L",
      "latitude": -35.16667,
      "longitude": -63.75
    },
    {
      "id": 3861539,
      "name": "Departamento de Chical-Có",
      "nativeName": "Departamento de Chical-Có",
      "code": "AR-L-3861539",
      "countryId": 3865483,
      "countryCode": "AR",
      "stateCode": "AR-L",
      "latitude": -36.41667,
      "longitude": -67.58333
    },
    {
      "id": 3860354,
      "name": "Departamento de Conhelo",
      "nativeName": "Departamento de Conhelo",
      "code": "AR-L-3860354",
      "countryId": 3865483,
      "countryCode": "AR",
      "stateCode": "AR-L",
      "latitude": -36,
      "longitude": -64.5
    },
    {
      "id": 3859613,
      "name": "Departamento de Curacó",
      "nativeName": "Departamento de Curacó",
      "code": "AR-L-3859613",
      "countryId": 3865483,
      "countryCode": "AR",
      "stateCode": "AR-L",
      "latitude": -38.16667,
      "longitude": -66.5
    },
    {
      "id": 3854492,
      "name": "Departamento de Guatraché",
      "nativeName": "Departamento de Guatraché",
      "code": "AR-L-3854492",
      "countryId": 3865483,
      "countryCode": "AR",
      "stateCode": "AR-L",
      "latitude": -37.5,
      "longitude": -63.75
    },
    {
      "id": 3854058,
      "name": "Departamento de Hucal",
      "nativeName": "Departamento de Hucal",
      "code": "AR-L-3854058",
      "countryId": 3865483,
      "countryCode": "AR",
      "stateCode": "AR-L",
      "latitude": -38,
      "longitude": -64
    },
    {
      "id": 3846896,
      "name": "Departamento de Lihuel-Calel",
      "nativeName": "Departamento de Lihuel-Calel",
      "code": "AR-L-3846896",
      "countryId": 3865483,
      "countryCode": "AR",
      "stateCode": "AR-L",
      "latitude": -38.25,
      "longitude": -65.08333
    },
    {
      "id": 3846879,
      "name": "Departamento de Limay Mahuida",
      "nativeName": "Departamento de Limay Mahuida",
      "code": "AR-L-3846879",
      "countryId": 3865483,
      "countryCode": "AR",
      "stateCode": "AR-L",
      "latitude": -37.33333,
      "longitude": -66.5
    },
    {
      "id": 3846928,
      "name": "Departamento de Loventué",
      "nativeName": "Departamento de Loventué",
      "code": "AR-L-3846928",
      "countryId": 3865483,
      "countryCode": "AR",
      "stateCode": "AR-L",
      "latitude": -36.5,
      "longitude": -65.5
    },
    {
      "id": 3844924,
      "name": "Departamento de Maracó",
      "nativeName": "Departamento de Maracó",
      "code": "AR-L-3844924",
      "countryId": 3865483,
      "countryCode": "AR",
      "stateCode": "AR-L",
      "latitude": -35.75,
      "longitude": -63.75
    },
    {
      "id": 3840188,
      "name": "Departamento de Puelén",
      "nativeName": "Departamento de Puelén",
      "code": "AR-L-3840188",
      "countryId": 3865483,
      "countryCode": "AR",
      "stateCode": "AR-L",
      "latitude": -37.25,
      "longitude": -67.66667
    },
    {
      "id": 3839667,
      "name": "Departamento de Quemú Quemú",
      "nativeName": "Departamento de Quemú Quemú",
      "code": "AR-L-3839667",
      "countryId": 3865483,
      "countryCode": "AR",
      "stateCode": "AR-L",
      "latitude": -36.25,
      "longitude": -63.75
    },
    {
      "id": 3839380,
      "name": "Departamento de Rancul",
      "nativeName": "Departamento de Rancul",
      "code": "AR-L-3839380",
      "countryId": 3865483,
      "countryCode": "AR",
      "stateCode": "AR-L",
      "latitude": -35.5,
      "longitude": -64.75
    },
    {
      "id": 3839281,
      "name": "Departamento de Realicó",
      "nativeName": "Departamento de Realicó",
      "code": "AR-L-3839281",
      "countryId": 3865483,
      "countryCode": "AR",
      "stateCode": "AR-L",
      "latitude": -35.25,
      "longitude": -64.25
    },
    {
      "id": 3834309,
      "name": "Departamento de Toay",
      "nativeName": "Departamento de Toay",
      "code": "AR-L-3834309",
      "countryId": 3865483,
      "countryCode": "AR",
      "stateCode": "AR-L",
      "latitude": -36.58333,
      "longitude": -64.8
    },
    {
      "id": 3833878,
      "name": "Departamento de Trenel",
      "nativeName": "Departamento de Trenel",
      "code": "AR-L-3833878",
      "countryId": 3865483,
      "countryCode": "AR",
      "stateCode": "AR-L",
      "latitude": -35.66667,
      "longitude": -64.25
    },
    {
      "id": 3833347,
      "name": "Departamento de Utracán",
      "nativeName": "Departamento de Utracán",
      "code": "AR-L-3833347",
      "countryId": 3865483,
      "countryCode": "AR",
      "stateCode": "AR-L",
      "latitude": -37.25,
      "longitude": -65
    }
  ]
}