{
  "stateId": 3843122,
  "stateCode": "AR-Q",
  "countryCode": "AR",
  "cities": [
    {
      "id": 3865999,
      "name": "Departamento de Aluminé",
      "nativeName": "Departamento de Aluminé",
      "code": "AR-Q-3865999",
      "countryId": 3865483,
      "countryCode": "AR",
      "stateCode": "AR-Q",
      "latitude": -39.16667,
      "longitude": -71
    },
    {
      "id": 3865775,
      "name": "Departamento de Añelo",
      "nativeName": "Departamento de Añelo",
      "code": "AR-Q-3865775",
      "countryId": 3865483,
      "countryCode": "AR",
      "stateCode": "AR-Q",
      "latitude": -38.16667,
      "longitude": -69
    },
    {
      "id": 3862279,
      "name": "Departamento de Catán-Lil",
      "nativeName": "Departamento de Catán-Lil",
      "code": "AR-Q-3862279",
      "countryId": 3865483,
      "countryCode": "AR",
      "stateCode": "AR-Q",
      "latitude": -39.5,
      "longitude": -70.33333
    },
    {
      "id": 3861261,
      "name": "Departamento de Chos-Malal",
      "nativeName": "Departamento de Chos-Malal",
      "code": "AR-Q-3861261",
      "countryId": 3865483,
      "countryCode": "AR",
      "stateCode": "AR-Q",
      "latitude": -36.91667,
      "longitude": -70.16667
    },
    {
      "id": 3860849,
      "name": "Departamento de Collón-Curá",
      "nativeName": "Departamento de Collón-Curá",
      "code": "AR-Q-3860849",
      "countryId": 3865483,
      "countryCode": "AR",
      "stateCode": "AR-Q",
      "latitude": -40.08333,
      "longitude": -70.16667
    },
    {
      "id": 3860360,
      "name": "Departamento de Confluencia",
      "nativeName": "Departamento de Confluencia",
      "code": "AR-Q-3860360",
      "countryId": 3865483,
      "countryCode": "AR",
      "stateCode": "AR-Q",
      "latitude": -38.83333,
      "longitude": -68.83333
    },
    {
      "id": 3853984,
      "name": "Departamento de Huiliches",
      "nativeName": "Departamento de Huiliches",
      "code": "AR-Q-3853984",
      "countryId": 3865483,
      "countryCode": "AR",
      "stateCode": "AR-Q",
      "latitude": -39.75,
      "longitude": -71.33333
    },
    {
      "id": 3846632,
      "name": "Departamento de Loncopué",
      "nativeName": "Departamento de Loncopué",
      "code": "AR-Q-3846632",
      "countryId": 3865483,
      "countryCode": "AR",
      "stateCode": "AR-Q",
      "latitude": -38.08333,
      "longitude": -70.33333
    },
    {
      "id": 3846077,
      "name": "Departamento de Los Lagos",
      "nativeName": "Departamento de Los Lagos",
      "code": "AR-Q-3846077",
      "countryId": 3865483,
      "countryCode": "AR",
      "stateCode": "AR-Q",
      "latitude": -40.75,
      "longitude": -71.41667
    },
    {
      "id": 3852288,
      "name": "Departamento de Lácar",
      "nativeName": "Departamento de Lácar",
      "code": "AR-Q-3852288",
      "countryId": 3865483,
      "countryCode": "AR",
      "stateCode": "AR-Q",
      "latitude": -40.25,
      "longitude": -71.2
    },
    {
      "id": 3844208,
      "name": "Departamento de Minas",
      "nativeName": "Departamento de Minas",
      "code": "AR-Q-3844208",
      "countryId": 3865483,
      "countryCode": "AR",
      "stateCode": "AR-Q",
      "latitude": -36.83333,
      "longitude": -70.83333
    },
    {
      "id": 3841673,
      "name": "Departamento de Pehuenches",
      "nativeName": "Departamento de Pehuenches",
      "code": "AR-Q-3841673",
      "countryId": 3865483,
      "countryCode": "AR",
      "stateCode": "AR-Q",
      "latitude": -37.5,
      "longitude": -69.33333
    },
    {
      "id": 3841303,
      "name": "Departamento de Picunches",
      "nativeName": "Departamento de Picunches",
      "code": "AR-Q-3841303",
      "countryId": 3865483,
      "countryCode": "AR",
      "stateCode": "AR-Q",
      "latitude": -38.53333,
      "longitude": -70.25
    },
    {
      "id": 3841298,
      "name": "Departamento de Picún Leufú",
      "nativeName": "Departamento de Picún Leufú",
      "code": "AR-Q-3841298",
      "countryId": 3865483,
      "countryCode": "AR",
      "stateCode": "AR-Q",
      "latitude": -39.5,
      "longitude": -69.5
    },
    {
      "id": 3832131,
      "name": "Departamento de Zapala",
      "nativeName": "Departamento de Zapala",
      "code": "AR-Q-3832131",
      "countryId": 3865483,
      "countryCode": "AR",
      "stateCode": "AR-Q",
      "latitude": -39,
      "longitude": -69.83333
    },
    {
      "id": 3842991,
      "name": "Departamento de Ñorquín",
      "nativeName": "Departamento de Ñorquín",
      "code": "AR-Q-3842991",
      "countryId": 3865483,
      "countryCode": "AR",
      "stateCode": "AR-Q",
      "latitude": -37.75,
      "longitude": -70.58333
    }
  ]
}