{
  "stateId": 2317277,
  "stateCode": "CD-BC",
  "countryCode": "CD",
  "cities": [
    {
      "id": 12278030,
      "name": "Bangu",
      "nativeName": "Bangu",
      "code": "CD-BC-12278030",
      "countryId": 203312,
      "countryCode": "CD",
      "stateCode": "CD-BC",
      "latitude": -5.55387,
      "longitude": 14.45238
    },
    {
      "id": 7731984,
      "name": "Boma",
      "nativeName": "Boma (city)",
      "code": "CD-BC-7731984",
      "countryId": 203312,
      "countryCode": "CD",
      "stateCode": "CD-BC",
      "latitude": -5.8016,
      "longitude": 13.06896
    },
    {
      "id": 12278135,
      "name": "Inkisi",
      "nativeName": "Inkisi",
      "code": "CD-BC-12278135",
      "countryId": 203312,
      "countryCode": "CD",
      "stateCode": "CD-BC",
      "latitude": -5.1392,
      "longitude": 15.09689
    },
    {
      "id": 12278067,
      "name": "Kasangulu",
      "nativeName": "Kasangulu",
      "code": "CD-BC-12278067",
      "countryId": 203312,
      "countryCode": "CD",
      "stateCode": "CD-BC",
      "latitude": -4.78379,
      "longitude": 15.34642
    },
    {
      "id": 12278167,
      "name": "Kimvula",
      "nativeName": "Kimvula",
      "code": "CD-BC-12278167",
      "countryId": 203312,
      "countryCode": "CD",
      "stateCode": "CD-BC",
      "latitude": -5.45373,
      "longitude": 16.03836
    },
    {
      "id": 12278155,
      "name": "Lukula",
      "nativeName": "Lukula",
      "code": "CD-BC-12278155",
      "countryId": 203312,
      "countryCode": "CD",
      "stateCode": "CD-BC",
      "latitude": -5.39328,
      "longitude": 12.82908
    },
    {
      "id": 12278108,
      "name": "Luozi",
      "nativeName": "Luozi",
      "code": "CD-BC-12278108",
      "countryId": 203312,
      "countryCode": "CD",
      "stateCode": "CD-BC",
      "latitude": -4.81463,
      "longitude": 13.95453
    },
    {
      "id": 12278111,
      "name": "Madimba",
      "nativeName": "Madimba",
      "code": "CD-BC-12278111",
      "countryId": 203312,
      "countryCode": "CD",
      "stateCode": "CD-BC",
      "latitude": -5.39724,
      "longitude": 15.50814
    },
    {
      "id": 12278098,
      "name": "Matadi",
      "nativeName": "Matadi",
      "code": "CD-BC-12278098",
      "countryId": 203312,
      "countryCode": "CD",
      "stateCode": "CD-BC",
      "latitude": -5.84592,
      "longitude": 13.46917
    },
    {
      "id": 12278020,
      "name": "Mbanza-Ngungu",
      "nativeName": "Mbanza-Ngungu",
      "code": "CD-BC-12278020",
      "countryId": 203312,
      "countryCode": "CD",
      "stateCode": "CD-BC",
      "latitude": -5.34012,
      "longitude": 14.78749
    },
    {
      "id": 12278112,
      "name": "Moanda",
      "nativeName": "Moanda",
      "code": "CD-BC-12278112",
      "countryId": 203312,
      "countryCode": "CD",
      "stateCode": "CD-BC",
      "latitude": -5.7833,
      "longitude": 12.80777
    },
    {
      "id": 12278166,
      "name": "Seke-Banza",
      "nativeName": "Seke-Banza",
      "code": "CD-BC-12278166",
      "countryId": 203312,
      "countryCode": "CD",
      "stateCode": "CD-BC",
      "latitude": -5.34265,
      "longitude": 13.38253
    },
    {
      "id": 12278027,
      "name": "Songololo",
      "nativeName": "Songololo",
      "code": "CD-BC-12278027",
      "countryId": 203312,
      "countryCode": "CD",
      "stateCode": "CD-BC",
      "latitude": -5.53369,
      "longitude": 14.0674
    },
    {
      "id": 12278172,
      "name": "Tshela",
      "nativeName": "Tshela",
      "code": "CD-BC-12278172",
      "countryId": 203312,
      "countryCode": "CD",
      "stateCode": "CD-BC",
      "latitude": -4.95224,
      "longitude": 12.98208
    }
  ]
}