{
  "stateId": 215709,
  "stateCode": "CD-IT",
  "countryCode": "CD",
  "cities": [
    {
      "id": 12278024,
      "name": "Ariwara",
      "nativeName": "Ariwara",
      "code": "CD-IT-12278024",
      "countryId": 203312,
      "countryCode": "CD",
      "stateCode": "CD-IT",
      "latitude": 3.13686,
      "longitude": 30.70698
    },
    {
      "id": 12278157,
      "name": "Aru",
      "nativeName": "Aru",
      "code": "CD-IT-12278157",
      "countryId": 203312,
      "countryCode": "CD",
      "stateCode": "CD-IT",
      "latitude": 3.06541,
      "longitude": 30.53246
    },
    {
      "id": 12278150,
      "name": "Bunia",
      "nativeName": "Bunia",
      "code": "CD-IT-12278150",
      "countryId": 203312,
      "countryCode": "CD",
      "stateCode": "CD-IT",
      "latitude": 1.54607,
      "longitude": 30.25782
    },
    {
      "id": 12278087,
      "name": "Djugu",
      "nativeName": "Djugu",
      "code": "CD-IT-12278087",
      "countryId": 203312,
      "countryCode": "CD",
      "stateCode": "CD-IT",
      "latitude": 1.90072,
      "longitude": 30.38186
    },
    {
      "id": 12278056,
      "name": "Ingbokolo",
      "nativeName": "Ingbokolo",
      "code": "CD-IT-12278056",
      "countryId": 203312,
      "countryCode": "CD",
      "stateCode": "CD-IT",
      "latitude": 3.39957,
      "longitude": 30.76904
    },
    {
      "id": 12278137,
      "name": "Irumu",
      "nativeName": "Irumu",
      "code": "CD-IT-12278137",
      "countryId": 203312,
      "countryCode": "CD",
      "stateCode": "CD-IT",
      "latitude": 1.2277,
      "longitude": 29.92487
    },
    {
      "id": 12278165,
      "name": "Mahagi",
      "nativeName": "Mahagi",
      "code": "CD-IT-12278165",
      "countryId": 203312,
      "countryCode": "CD",
      "stateCode": "CD-IT",
      "latitude": 2.30552,
      "longitude": 30.76175
    },
    {
      "id": 12278025,
      "name": "Mambasa",
      "nativeName": "Mambasa",
      "code": "CD-IT-12278025",
      "countryId": 203312,
      "countryCode": "CD",
      "stateCode": "CD-IT",
      "latitude": 1.49354,
      "longitude": 28.7824
    },
    {
      "id": 12278106,
      "name": "Mongwalu",
      "nativeName": "Mongwalu",
      "code": "CD-IT-12278106",
      "countryId": 203312,
      "countryCode": "CD",
      "stateCode": "CD-IT",
      "latitude": 1.81781,
      "longitude": 30.23505
    }
  ]
}