{
  "stateId": 3351640,
  "stateCode": "AO-BIE",
  "countryCode": "AO",
  "cities": [
    {
      "id": 3351882,
      "name": "Andulo",
      "nativeName": "Andulo",
      "code": "AO-BIE-3351882",
      "countryId": 3351879,
      "countryCode": "AO",
      "stateCode": "AO-BIE",
      "latitude": -11.21242,
      "longitude": 16.47281
    },
    {
      "id": 9212598,
      "name": "Barkeol",
      "nativeName": "Barkeol",
      "code": "AO-BIE-9212598",
      "countryId": 3351879,
      "countryCode": "AO",
      "stateCode": "AO-BIE",
      "latitude": 16.71518,
      "longitude": -12.4021
    },
    {
      "id": 3351013,
      "name": "Camacupa",
      "nativeName": "Camacupa",
      "code": "AO-BIE-3351013",
      "countryId": 3351879,
      "countryCode": "AO",
      "stateCode": "AO-BIE",
      "latitude": -12.39263,
      "longitude": 17.70293
    },
    {
      "id": 3350370,
      "name": "Catabola",
      "nativeName": "Catabola",
      "code": "AO-BIE-3350370",
      "countryId": 3351879,
      "countryCode": "AO",
      "stateCode": "AO-BIE",
      "latitude": -12.14094,
      "longitude": 17.24148
    },
    {
      "id": 3349722,
      "name": "Chinguar",
      "nativeName": "Chinguar",
      "code": "AO-BIE-3349722",
      "countryId": 3351879,
      "countryCode": "AO",
      "stateCode": "AO-BIE",
      "latitude": -12.54136,
      "longitude": 16.52834
    },
    {
      "id": 3349514,
      "name": "Chitembo",
      "nativeName": "Chitembo",
      "code": "AO-BIE-3349514",
      "countryId": 3351879,
      "countryCode": "AO",
      "stateCode": "AO-BIE",
      "latitude": -13.48714,
      "longitude": 17.19191
    },
    {
      "id": 3349179,
      "name": "Cuemba",
      "nativeName": "Cuemba",
      "code": "AO-BIE-3349179",
      "countryId": 3351879,
      "countryCode": "AO",
      "stateCode": "AO-BIE",
      "latitude": -12.13869,
      "longitude": 18.11234
    },
    {
      "id": 3348077,
      "name": "Cuito",
      "nativeName": "Cuito",
      "code": "AO-BIE-3348077",
      "countryId": 3351879,
      "countryCode": "AO",
      "stateCode": "AO-BIE",
      "latitude": -12.5,
      "longitude": 17
    },
    {
      "id": 3349078,
      "name": "Cunhinga",
      "nativeName": "Cunhinga",
      "code": "AO-BIE-3349078",
      "countryId": 3351879,
      "countryCode": "AO",
      "stateCode": "AO-BIE",
      "latitude": -11.97695,
      "longitude": 16.81817
    },
    {
      "id": 3351012,
      "name": "Município Camacupa",
      "nativeName": "Município Camacupa",
      "code": "AO-BIE-3351012",
      "countryId": 3351879,
      "countryCode": "AO",
      "stateCode": "AO-BIE",
      "latitude": -12.5,
      "longitude": 17.75
    },
    {
      "id": 3346941,
      "name": "Nharea",
      "nativeName": "Nharea",
      "code": "AO-BIE-3346941",
      "countryId": 3351879,
      "countryCode": "AO",
      "stateCode": "AO-BIE",
      "latitude": -11.26625,
      "longitude": 17.20996
    }
  ]
}