{
  "stateId": 6957553,
  "stateCode": "AF-DAY",
  "countryCode": "AF",
  "cities": [
    {
      "id": 7054325,
      "name": "Gaytī District",
      "nativeName": "Gaytī",
      "code": "AF-DAY-7054325",
      "countryId": 1149361,
      "countryCode": "AF",
      "stateCode": "AF-DAY",
      "latitude": 33.54256,
      "longitude": 65.72108
    },
    {
      "id": 7054326,
      "name": "Gizab District",
      "nativeName": "Gīzāb",
      "code": "AF-DAY-7054326",
      "countryId": 1149361,
      "countryCode": "AF",
      "stateCode": "AF-DAY",
      "latitude": 33.40189,
      "longitude": 66.26564
    },
    {
      "id": 7054327,
      "name": "Ishtarlay District",
      "nativeName": "Ishtarlay",
      "code": "AF-DAY-7054327",
      "countryId": 1149361,
      "countryCode": "AF",
      "stateCode": "AF-DAY",
      "latitude": 34.07399,
      "longitude": 66.29853
    },
    {
      "id": 7054328,
      "name": "Kajran District",
      "nativeName": "Kajrān",
      "code": "AF-DAY-7054328",
      "countryId": 1149361,
      "countryCode": "AF",
      "stateCode": "AF-DAY",
      "latitude": 33.21433,
      "longitude": 65.61748
    },
    {
      "id": 7054329,
      "name": "Khadir District",
      "nativeName": "Khadīr",
      "code": "AF-DAY-7054329",
      "countryId": 1149361,
      "countryCode": "AF",
      "stateCode": "AF-DAY",
      "latitude": 33.89654,
      "longitude": 65.75377
    },
    {
      "id": 7054330,
      "name": "Miramor District",
      "nativeName": "Mīr Āmōr",
      "code": "AF-DAY-7054330",
      "countryId": 1149361,
      "countryCode": "AF",
      "stateCode": "AF-DAY",
      "latitude": 33.8253,
      "longitude": 66.94299
    },
    {
      "id": 7054331,
      "name": "Nili District",
      "nativeName": "Nīlī",
      "code": "AF-DAY-7054331",
      "countryId": 1149361,
      "countryCode": "AF",
      "stateCode": "AF-DAY",
      "latitude": 33.76329,
      "longitude": 66.07617
    },
    {
      "id": 7054332,
      "name": "Sang-e Takht District",
      "nativeName": "Sang-e Takht",
      "code": "AF-DAY-7054332",
      "countryId": 1149361,
      "countryCode": "AF",
      "stateCode": "AF-DAY",
      "latitude": 34.19258,
      "longitude": 65.91214
    },
    {
      "id": 7054334,
      "name": "Shahristan District",
      "nativeName": "Shahristān",
      "code": "AF-DAY-7054334",
      "countryId": 1149361,
      "countryCode": "AF",
      "stateCode": "AF-DAY",
      "latitude": 33.70787,
      "longitude": 66.47253
    }
  ]
}