{
  "stateId": 1142226,
  "stateCode": "AF-FYB",
  "countryCode": "AF",
  "cities": [
    {
      "id": 7052928,
      "name": "Almar District",
      "nativeName": "Almār",
      "code": "AF-FYB-7052928",
      "countryId": 1149361,
      "countryCode": "AF",
      "stateCode": "AF-FYB",
      "latitude": 35.95601,
      "longitude": 64.27835
    },
    {
      "id": 7052929,
      "name": "Andkhoy District",
      "nativeName": "Andkhōy",
      "code": "AF-FYB-7052929",
      "countryId": 1149361,
      "countryCode": "AF",
      "stateCode": "AF-FYB",
      "latitude": 36.95,
      "longitude": 65.11667
    },
    {
      "id": 7052930,
      "name": "Bal Chirāgh",
      "nativeName": "Bal Chirāgh",
      "code": "AF-FYB-7052930",
      "countryId": 1149361,
      "countryCode": "AF",
      "stateCode": "AF-FYB",
      "latitude": 35.88083,
      "longitude": 65.45338
    },
    {
      "id": 7052931,
      "name": "Dawlat Abad District",
      "nativeName": "Dowlatābād",
      "code": "AF-FYB-7052931",
      "countryId": 1149361,
      "countryCode": "AF",
      "stateCode": "AF-FYB",
      "latitude": 36.53634,
      "longitude": 65.0558
    },
    {
      "id": 7052932,
      "name": "Gurziwan District",
      "nativeName": "Gurzīwān",
      "code": "AF-FYB-7052932",
      "countryId": 1149361,
      "countryCode": "AF",
      "stateCode": "AF-FYB",
      "latitude": 35.63236,
      "longitude": 65.28301
    },
    {
      "id": 7052933,
      "name": "Khwājah Sabz Pōsh",
      "nativeName": "Khwājah Sabz Pōsh",
      "code": "AF-FYB-7052933",
      "countryId": 1149361,
      "countryCode": "AF",
      "stateCode": "AF-FYB",
      "latitude": 36.05864,
      "longitude": 64.96595
    },
    {
      "id": 7052927,
      "name": "Khān-e Chahār Bāgh",
      "nativeName": "Khān-e Chahār Bāgh",
      "code": "AF-FYB-7052927",
      "countryId": 1149361,
      "countryCode": "AF",
      "stateCode": "AF-FYB",
      "latitude": 37.11099,
      "longitude": 65.22969
    },
    {
      "id": 7052934,
      "name": "Kohistan District",
      "nativeName": "Kōhistān",
      "code": "AF-FYB-7052934",
      "countryId": 1149361,
      "countryCode": "AF",
      "stateCode": "AF-FYB",
      "latitude": 35.33406,
      "longitude": 64.9229
    },
    {
      "id": 7052935,
      "name": "Maymana District",
      "nativeName": "Maīmanah",
      "code": "AF-FYB-7052935",
      "countryId": 1149361,
      "countryCode": "AF",
      "stateCode": "AF-FYB",
      "latitude": 35.93333,
      "longitude": 64.75
    },
    {
      "id": 7052936,
      "name": "Pas̲h̲tūn Kōṯ",
      "nativeName": "Pas̲h̲tūn Kōṯ",
      "code": "AF-FYB-7052936",
      "countryId": 1149361,
      "countryCode": "AF",
      "stateCode": "AF-FYB",
      "latitude": 35.80994,
      "longitude": 64.77813
    },
    {
      "id": 7052947,
      "name": "Qaram Qōl",
      "nativeName": "Qaram Qōl",
      "code": "AF-FYB-7052947",
      "countryId": 1149361,
      "countryCode": "AF",
      "stateCode": "AF-FYB",
      "latitude": 36.79306,
      "longitude": 64.96312
    },
    {
      "id": 7052946,
      "name": "Qaysar District",
      "nativeName": "Qaīşār",
      "code": "AF-FYB-7052946",
      "countryId": 1149361,
      "countryCode": "AF",
      "stateCode": "AF-FYB",
      "latitude": 35.64137,
      "longitude": 64.27908
    },
    {
      "id": 7052948,
      "name": "Qurghān",
      "nativeName": "Qurghān",
      "code": "AF-FYB-7052948",
      "countryId": 1149361,
      "countryCode": "AF",
      "stateCode": "AF-FYB",
      "latitude": 37.03586,
      "longitude": 64.94235
    },
    {
      "id": 7052949,
      "name": "Shīrīn Tagāb",
      "nativeName": "Shīrīn Tagāb",
      "code": "AF-FYB-7052949",
      "countryId": 1149361,
      "countryCode": "AF",
      "stateCode": "AF-FYB",
      "latitude": 36.2472,
      "longitude": 64.8218
    }
  ]
}