{
  "stateId": 1139049,
  "stateCode": "AF-JOW",
  "countryCode": "AF",
  "cities": [
    {
      "id": 7053808,
      "name": "Darzab District",
      "nativeName": "Darzāb",
      "code": "AF-JOW-7053808",
      "countryId": 1149361,
      "countryCode": "AF",
      "stateCode": "AF-JOW",
      "latitude": 36.00439,
      "longitude": 65.37279
    },
    {
      "id": 7053809,
      "name": "Fayzabad District",
      "nativeName": "Faīẕābād",
      "code": "AF-JOW-7053809",
      "countryId": 1149361,
      "countryCode": "AF",
      "stateCode": "AF-JOW",
      "latitude": 36.70452,
      "longitude": 66.32969
    },
    {
      "id": 7053810,
      "name": "Khamyāb District",
      "nativeName": "Khamyāb",
      "code": "AF-JOW-7053810",
      "countryId": 1149361,
      "countryCode": "AF",
      "stateCode": "AF-JOW",
      "latitude": 37.31369,
      "longitude": 65.7212
    },
    {
      "id": 7053812,
      "name": "Khwājah Dū Kōh",
      "nativeName": "Khwājah Dū Kōh",
      "code": "AF-JOW-7053812",
      "countryId": 1149361,
      "countryCode": "AF",
      "stateCode": "AF-JOW",
      "latitude": 36.94839,
      "longitude": 65.6123
    },
    {
      "id": 7053811,
      "name": "Khānaqāh District",
      "nativeName": "Khānaqāh",
      "code": "AF-JOW-7053811",
      "countryId": 1149361,
      "countryCode": "AF",
      "stateCode": "AF-JOW",
      "latitude": 36.78395,
      "longitude": 66.12852
    },
    {
      "id": 7053813,
      "name": "Mardyan District",
      "nativeName": "Mardīān",
      "code": "AF-JOW-7053813",
      "countryId": 1149361,
      "countryCode": "AF",
      "stateCode": "AF-JOW",
      "latitude": 37.05217,
      "longitude": 66.32882
    },
    {
      "id": 7053814,
      "name": "Mingajik District",
      "nativeName": "Mingajik",
      "code": "AF-JOW-7053814",
      "countryId": 1149361,
      "countryCode": "AF",
      "stateCode": "AF-JOW",
      "latitude": 37.05528,
      "longitude": 65.9891
    },
    {
      "id": 7053815,
      "name": "Qarqin District",
      "nativeName": "Qarqīn",
      "code": "AF-JOW-7053815",
      "countryId": 1149361,
      "countryCode": "AF",
      "stateCode": "AF-JOW",
      "latitude": 37.29142,
      "longitude": 66.09443
    },
    {
      "id": 7053816,
      "name": "Qūsh Tepah",
      "nativeName": "Qūsh Tepah",
      "code": "AF-JOW-7053816",
      "countryId": 1149361,
      "countryCode": "AF",
      "stateCode": "AF-JOW",
      "latitude": 36.20972,
      "longitude": 65.36346
    },
    {
      "id": 7053817,
      "name": "Shibirghan District",
      "nativeName": "Shibirghān",
      "code": "AF-JOW-7053817",
      "countryId": 1149361,
      "countryCode": "AF",
      "stateCode": "AF-JOW",
      "latitude": 36.59128,
      "longitude": 65.74784
    },
    {
      "id": 7053807,
      "name": "Āqchah",
      "nativeName": "Āqchah",
      "code": "AF-JOW-7053807",
      "countryId": 1149361,
      "countryCode": "AF",
      "stateCode": "AF-JOW",
      "latitude": 36.90411,
      "longitude": 66.20804
    }
  ]
}