{
  "stateId": 1138957,
  "stateCode": "AF-KAB",
  "countryCode": "AF",
  "cities": [
    {
      "id": 7053051,
      "name": "Bagrami District",
      "nativeName": "Bagrāmī",
      "code": "AF-KAB-7053051",
      "countryId": 1149361,
      "countryCode": "AF",
      "stateCode": "AF-KAB",
      "latitude": 34.48355,
      "longitude": 69.33617
    },
    {
      "id": 7053052,
      "name": "Chahār Āsyāb",
      "nativeName": "Chahār Āsyāb",
      "code": "AF-KAB-7053052",
      "countryId": 1149361,
      "countryCode": "AF",
      "stateCode": "AF-KAB",
      "latitude": 34.3871,
      "longitude": 69.07274
    },
    {
      "id": 7053053,
      "name": "Deh-e Sabz District",
      "nativeName": "Deh-e Sabz",
      "code": "AF-KAB-7053053",
      "countryId": 1149361,
      "countryCode": "AF",
      "stateCode": "AF-KAB",
      "latitude": 34.66555,
      "longitude": 69.308
    },
    {
      "id": 7053054,
      "name": "Farza District",
      "nativeName": "Farzah",
      "code": "AF-KAB-7053054",
      "countryId": 1149361,
      "countryCode": "AF",
      "stateCode": "AF-KAB",
      "latitude": 34.79402,
      "longitude": 69.0177
    },
    {
      "id": 7053055,
      "name": "Guldara District",
      "nativeName": "Gul Darah",
      "code": "AF-KAB-7053055",
      "countryId": 1149361,
      "countryCode": "AF",
      "stateCode": "AF-KAB",
      "latitude": 34.74801,
      "longitude": 68.99531
    },
    {
      "id": 7053056,
      "name": "Istālif",
      "nativeName": "Istālif",
      "code": "AF-KAB-7053056",
      "countryId": 1149361,
      "countryCode": "AF",
      "stateCode": "AF-KAB",
      "latitude": 34.84847,
      "longitude": 69.02353
    },
    {
      "id": 7729752,
      "name": "Kabul",
      "nativeName": "Kabul",
      "code": "AF-KAB-7729752",
      "countryId": 1149361,
      "countryCode": "AF",
      "stateCode": "AF-KAB",
      "latitude": 34.49614,
      "longitude": 69.10549
    },
    {
      "id": 7053057,
      "name": "Kalakan District",
      "nativeName": "Kalakān",
      "code": "AF-KAB-7053057",
      "countryId": 1149361,
      "countryCode": "AF",
      "stateCode": "AF-KAB",
      "latitude": 34.76251,
      "longitude": 69.17559
    },
    {
      "id": 7053058,
      "name": "Khāk-e Jabār District",
      "nativeName": "Khāk-e Jabār",
      "code": "AF-KAB-7053058",
      "countryId": 1149361,
      "countryCode": "AF",
      "stateCode": "AF-KAB",
      "latitude": 34.36494,
      "longitude": 69.43365
    },
    {
      "id": 7053060,
      "name": "Mussahi District",
      "nativeName": "Mūsahī",
      "code": "AF-KAB-7053060",
      "countryId": 1149361,
      "countryCode": "AF",
      "stateCode": "AF-KAB",
      "latitude": 34.36908,
      "longitude": 69.21839
    },
    {
      "id": 7053059,
      "name": "Mīr Bachah Kōṯ District",
      "nativeName": "Mīr Bachah Kōṯ",
      "code": "AF-KAB-7053059",
      "countryId": 1149361,
      "countryCode": "AF",
      "stateCode": "AF-KAB",
      "latitude": 34.72727,
      "longitude": 69.11823
    },
    {
      "id": 7053080,
      "name": "Paghman District",
      "nativeName": "Paghmān",
      "code": "AF-KAB-7053080",
      "countryId": 1149361,
      "countryCode": "AF",
      "stateCode": "AF-KAB",
      "latitude": 34.54808,
      "longitude": 68.93716
    },
    {
      "id": 7053081,
      "name": "Qarabagh District",
      "nativeName": "Qarah Bāgh",
      "code": "AF-KAB-7053081",
      "countryId": 1149361,
      "countryCode": "AF",
      "stateCode": "AF-KAB",
      "latitude": 34.84939,
      "longitude": 69.1763
    },
    {
      "id": 7053083,
      "name": "Shakardara District",
      "nativeName": "Shakar Darah",
      "code": "AF-KAB-7053083",
      "countryId": 1149361,
      "countryCode": "AF",
      "stateCode": "AF-KAB",
      "latitude": 34.66383,
      "longitude": 69.03642
    },
    {
      "id": 7732182,
      "name": "Surobi District",
      "nativeName": "Surobi",
      "code": "AF-KAB-7732182",
      "countryId": 1149361,
      "countryCode": "AF",
      "stateCode": "AF-KAB",
      "latitude": 34.60542,
      "longitude": 69.72777
    }
  ]
}