{
  "stateId": 1127106,
  "stateCode": "AF-SAR",
  "countryCode": "AF",
  "cities": [
    {
      "id": 7053945,
      "name": "Balkhab District",
      "nativeName": "Balkhāb",
      "code": "AF-SAR-7053945",
      "countryId": 1149361,
      "countryCode": "AF",
      "stateCode": "AF-SAR",
      "latitude": 35.45799,
      "longitude": 66.60225
    },
    {
      "id": 7053946,
      "name": "Gosfandi District",
      "nativeName": "Gōsfandī",
      "code": "AF-SAR-7053946",
      "countryId": 1149361,
      "countryCode": "AF",
      "stateCode": "AF-SAR",
      "latitude": 36.08563,
      "longitude": 66.5173
    },
    {
      "id": 7053947,
      "name": "Kohistanat District",
      "nativeName": "Kōhistānāt",
      "code": "AF-SAR-7053947",
      "countryId": 1149361,
      "countryCode": "AF",
      "stateCode": "AF-SAR",
      "latitude": 35.43834,
      "longitude": 65.93647
    },
    {
      "id": 7053948,
      "name": "Sangchārak",
      "nativeName": "Sangchārak",
      "code": "AF-SAR-7053948",
      "countryId": 1149361,
      "countryCode": "AF",
      "stateCode": "AF-SAR",
      "latitude": 35.8421,
      "longitude": 66.34159
    },
    {
      "id": 7053949,
      "name": "Sar-e Pul",
      "nativeName": "Sar-e Pul",
      "code": "AF-SAR-7053949",
      "countryId": 1149361,
      "countryCode": "AF",
      "stateCode": "AF-SAR",
      "latitude": 36.29894,
      "longitude": 66.00741
    },
    {
      "id": 7053951,
      "name": "Sozma Qala District",
      "nativeName": "Sōzmah Qal‘ah",
      "code": "AF-SAR-7053951",
      "countryId": 1149361,
      "countryCode": "AF",
      "stateCode": "AF-SAR",
      "latitude": 36.02,
      "longitude": 66.23298
    },
    {
      "id": 7053950,
      "name": "Şayād District",
      "nativeName": "Şayād",
      "code": "AF-SAR-7053950",
      "countryId": 1149361,
      "countryCode": "AF",
      "stateCode": "AF-SAR",
      "latitude": 36.14984,
      "longitude": 65.70895
    }
  ]
}