{
  "countryId": 1149361,
  "countryCode": "AF",
  "states": [
    {
      "id": 1147745,
      "name": "Badakhshan",
      "nativeName": "Badakhshān",
      "code": "AF-BDS",
      "internalCode": "BDS",
      "countryId": 1149361,
      "countryCode": "AF",
      "latitude": 36.75,
      "longitude": 72
    },
    {
      "id": 1147707,
      "name": "Badghis",
      "nativeName": "Bādghīs",
      "code": "AF-BDG",
      "internalCode": "BDG",
      "countryId": 1149361,
      "countryCode": "AF",
      "latitude": 35,
      "longitude": 63.75
    },
    {
      "id": 1147537,
      "name": "Baghlan",
      "nativeName": "Wilāyat-e Baghlān",
      "code": "AF-BGL",
      "internalCode": "BGL",
      "countryId": 1149361,
      "countryCode": "AF",
      "latitude": 35.75,
      "longitude": 69
    },
    {
      "id": 1147288,
      "name": "Balkh",
      "nativeName": "Balkh",
      "code": "AF-BAL",
      "internalCode": "BAL",
      "countryId": 1149361,
      "countryCode": "AF",
      "latitude": 36.75,
      "longitude": 67
    },
    {
      "id": 1147239,
      "name": "Bamyan",
      "nativeName": "Wilāyat-e Bāmyān",
      "code": "AF-BAM",
      "internalCode": "BAM",
      "countryId": 1149361,
      "countryCode": "AF",
      "latitude": 34.75,
      "longitude": 67.25
    },
    {
      "id": 6957553,
      "name": "Daykundi",
      "nativeName": "Daykundi Province",
      "code": "AF-DAY",
      "internalCode": "DAY",
      "countryId": 1149361,
      "countryCode": "AF",
      "latitude": 33.75,
      "longitude": 66.25
    },
    {
      "id": 1142263,
      "name": "Farah Province",
      "nativeName": "Farāh",
      "code": "AF-FRA",
      "internalCode": "FRA",
      "countryId": 1149361,
      "countryCode": "AF",
      "latitude": 32.5,
      "longitude": 62.5
    },
    {
      "id": 1142226,
      "name": "Faryab",
      "nativeName": "Faryab Province",
      "code": "AF-FYB",
      "internalCode": "FYB",
      "countryId": 1149361,
      "countryCode": "AF",
      "latitude": 36.25,
      "longitude": 64.83333
    },
    {
      "id": 1141268,
      "name": "Ghazni",
      "nativeName": "Wilāyat-e Ghaznī",
      "code": "AF-GHA",
      "internalCode": "GHA",
      "countryId": 1149361,
      "countryCode": "AF",
      "latitude": 33.33333,
      "longitude": 67.75
    },
    {
      "id": 1141103,
      "name": "Ghowr",
      "nativeName": "Wilāyat-e Ghōr",
      "code": "AF-GHO",
      "internalCode": "GHO",
      "countryId": 1149361,
      "countryCode": "AF",
      "latitude": 34,
      "longitude": 65
    },
    {
      "id": 1140043,
      "name": "Helmand",
      "nativeName": "Helmand",
      "code": "AF-HEL",
      "internalCode": "HEL",
      "countryId": 1149361,
      "countryCode": "AF",
      "latitude": 31,
      "longitude": 64
    },
    {
      "id": 1140025,
      "name": "Herat",
      "nativeName": "Herāt",
      "code": "AF-HER",
      "internalCode": "HER",
      "countryId": 1149361,
      "countryCode": "AF",
      "latitude": 34.5,
      "longitude": 62
    },
    {
      "id": 1139049,
      "name": "Jowzjan",
      "nativeName": "Wilāyat-e Jowzjān",
      "code": "AF-JOW",
      "internalCode": "JOW",
      "countryId": 1149361,
      "countryCode": "AF",
      "latitude": 36.83333,
      "longitude": 65.83333
    },
    {
      "id": 1138957,
      "name": "Kabul",
      "nativeName": "Wilāyat-e Kābul",
      "code": "AF-KAB",
      "internalCode": "KAB",
      "countryId": 1149361,
      "countryCode": "AF",
      "latitude": 34.5,
      "longitude": 69.41667
    },
    {
      "id": 1138335,
      "name": "Kandahar",
      "nativeName": "Kandahār",
      "code": "AF-KAN",
      "internalCode": "KAN",
      "countryId": 1149361,
      "countryCode": "AF",
      "latitude": 31,
      "longitude": 65.75
    },
    {
      "id": 1138255,
      "name": "Kapisa",
      "nativeName": "Wilāyat-e Kāpīsā",
      "code": "AF-KAP",
      "internalCode": "KAP",
      "countryId": 1149361,
      "countryCode": "AF",
      "latitude": 35,
      "longitude": 69.58333
    },
    {
      "id": 1444362,
      "name": "Khost Province",
      "nativeName": "Velāyat-e Khowst",
      "code": "AF-KHO",
      "internalCode": "KHO",
      "countryId": 1149361,
      "countryCode": "AF",
      "latitude": 33.38333,
      "longitude": 69.88333
    },
    {
      "id": 1135702,
      "name": "Kunar",
      "nativeName": "Wilāyat-e Kunaṟ",
      "code": "AF-KNR",
      "internalCode": "KNR",
      "countryId": 1149361,
      "countryCode": "AF",
      "latitude": 34.95,
      "longitude": 71.13333
    },
    {
      "id": 1135690,
      "name": "Kunduz",
      "nativeName": "Kunduz",
      "code": "AF-KDZ",
      "internalCode": "KDZ",
      "countryId": 1149361,
      "countryCode": "AF",
      "latitude": 36.75,
      "longitude": 68.75
    },
    {
      "id": 1135022,
      "name": "Laghman",
      "nativeName": "Wilāyat-e Laghmān",
      "code": "AF-LAG",
      "internalCode": "LAG",
      "countryId": 1149361,
      "countryCode": "AF",
      "latitude": 34.78333,
      "longitude": 70.18333
    },
    {
      "id": 1134561,
      "name": "Logar",
      "nativeName": "Wilāyat-e Lōgar",
      "code": "AF-LOG",
      "internalCode": "LOG",
      "countryId": 1149361,
      "countryCode": "AF",
      "latitude": 34,
      "longitude": 69.25
    },
    {
      "id": 1121863,
      "name": "Maidan Wardak Province",
      "nativeName": "Wardak",
      "code": "AF-WAR",
      "internalCode": "WAR",
      "countryId": 1149361,
      "countryCode": "AF",
      "latitude": 34.25,
      "longitude": 68
    },
    {
      "id": 1132366,
      "name": "Nangarhar",
      "nativeName": "Nangarhār",
      "code": "AF-NAN",
      "internalCode": "NAN",
      "countryId": 1149361,
      "countryCode": "AF",
      "latitude": 34.33333,
      "longitude": 70.41667
    },
    {
      "id": 1131821,
      "name": "Nimroz",
      "nativeName": "Wilāyat-e Nīmrōz",
      "code": "AF-NIM",
      "internalCode": "NIM",
      "countryId": 1149361,
      "countryCode": "AF",
      "latitude": 31,
      "longitude": 62.5
    },
    {
      "id": 1444363,
      "name": "Nuristan",
      "nativeName": "Velāyat-e Nūrestān",
      "code": "AF-NUR",
      "internalCode": "NUR",
      "countryId": 1149361,
      "countryCode": "AF",
      "latitude": 35.3,
      "longitude": 70.83333
    },
    {
      "id": 1131461,
      "name": "Oruzgan",
      "nativeName": "Uruzgān",
      "code": "AF-URU",
      "internalCode": "URU",
      "countryId": 1149361,
      "countryCode": "AF",
      "latitude": 32.83333,
      "longitude": 66
    },
    {
      "id": 1131257,
      "name": "Paktia",
      "nativeName": "Wilāyat-e Paktiyā",
      "code": "AF-PIA",
      "internalCode": "PIA",
      "countryId": 1149361,
      "countryCode": "AF",
      "latitude": 33.66667,
      "longitude": 69.33333
    },
    {
      "id": 1131256,
      "name": "Paktika",
      "nativeName": "Wilāyat-e Paktīkā",
      "code": "AF-PKA",
      "internalCode": "PKA",
      "countryId": 1149361,
      "countryCode": "AF",
      "latitude": 32.41667,
      "longitude": 68.75
    },
    {
      "id": 6957555,
      "name": "Panjshir",
      "nativeName": "Panjshir",
      "code": "AF-PAN",
      "internalCode": "PAN",
      "countryId": 1149361,
      "countryCode": "AF",
      "latitude": 35.40248,
      "longitude": 69.98291
    },
    {
      "id": 1131054,
      "name": "Parwan",
      "nativeName": "Parwān",
      "code": "AF-PAR",
      "internalCode": "PAR",
      "countryId": 1149361,
      "countryCode": "AF",
      "latitude": 35,
      "longitude": 68.91667
    },
    {
      "id": 1127766,
      "name": "Samangan",
      "nativeName": "Samangān",
      "code": "AF-SAM",
      "internalCode": "SAM",
      "countryId": 1149361,
      "countryCode": "AF",
      "latitude": 36,
      "longitude": 67.66667
    },
    {
      "id": 1127106,
      "name": "Sar-e Pol Province",
      "nativeName": "Sar-e Pul",
      "code": "AF-SAR",
      "internalCode": "SAR",
      "countryId": 1149361,
      "countryCode": "AF",
      "latitude": 35.83333,
      "longitude": 66.16667
    },
    {
      "id": 1123230,
      "name": "Takhar",
      "nativeName": "Wilāyat-e Takhār",
      "code": "AF-TAK",
      "internalCode": "TAK",
      "countryId": 1149361,
      "countryCode": "AF",
      "latitude": 36.66667,
      "longitude": 69.75
    },
    {
      "id": 1121143,
      "name": "Zabul",
      "nativeName": "Wilāyat-e Zābul",
      "code": "AF-ZAB",
      "internalCode": "ZAB",
      "countryId": 1149361,
      "countryCode": "AF",
      "latitude": 32.25,
      "longitude": 67.25
    }
  ]
}