{
  "stateId": 2145234,
  "stateCode": "AU-VIC",
  "countryCode": "AU",
  "cities": [
    {
      "id": 7839525,
      "name": "Alpine",
      "nativeName": "Alpine",
      "code": "AU-VIC-7839525",
      "countryId": 2077456,
      "countryCode": "AU",
      "stateCode": "AU-VIC",
      "latitude": -36.83412,
      "longitude": 146.97936
    },
    {
      "id": 7839526,
      "name": "Ararat",
      "nativeName": "Ararat",
      "code": "AU-VIC-7839526",
      "countryId": 2077456,
      "countryCode": "AU",
      "stateCode": "AU-VIC",
      "latitude": -37.48925,
      "longitude": 142.82239
    },
    {
      "id": 7839527,
      "name": "Banyule",
      "nativeName": "Banyule",
      "code": "AU-VIC-7839527",
      "countryId": 2077456,
      "countryCode": "AU",
      "stateCode": "AU-VIC",
      "latitude": -37.73386,
      "longitude": 145.08576
    },
    {
      "id": 7839528,
      "name": "Bass Coast",
      "nativeName": "Bass Coast",
      "code": "AU-VIC-7839528",
      "countryId": 2077456,
      "countryCode": "AU",
      "stateCode": "AU-VIC",
      "latitude": -38.48507,
      "longitude": 145.4639
    },
    {
      "id": 7839529,
      "name": "Baw Baw",
      "nativeName": "Baw Baw",
      "code": "AU-VIC-7839529",
      "countryId": 2077456,
      "countryCode": "AU",
      "stateCode": "AU-VIC",
      "latitude": -37.96998,
      "longitude": 146.14404
    },
    {
      "id": 7839530,
      "name": "Bayside",
      "nativeName": "Bayside",
      "code": "AU-VIC-7839530",
      "countryId": 2077456,
      "countryCode": "AU",
      "stateCode": "AU-VIC",
      "latitude": -37.93986,
      "longitude": 145.01932
    },
    {
      "id": 7839531,
      "name": "Benalla",
      "nativeName": "Benalla",
      "code": "AU-VIC-7839531",
      "countryId": 2077456,
      "countryCode": "AU",
      "stateCode": "AU-VIC",
      "latitude": -36.59041,
      "longitude": 146.02812
    },
    {
      "id": 7839532,
      "name": "Boroondara",
      "nativeName": "Boroondara",
      "code": "AU-VIC-7839532",
      "countryId": 2077456,
      "countryCode": "AU",
      "stateCode": "AU-VIC",
      "latitude": -37.8264,
      "longitude": 145.05299
    },
    {
      "id": 7839534,
      "name": "Buloke",
      "nativeName": "Buloke",
      "code": "AU-VIC-7839534",
      "countryId": 2077456,
      "countryCode": "AU",
      "stateCode": "AU-VIC",
      "latitude": -35.84638,
      "longitude": 143.05201
    },
    {
      "id": 7839536,
      "name": "Cardinia",
      "nativeName": "Cardinia",
      "code": "AU-VIC-7839536",
      "countryId": 2077456,
      "countryCode": "AU",
      "stateCode": "AU-VIC",
      "latitude": -38.09508,
      "longitude": 145.56455
    },
    {
      "id": 7839537,
      "name": "Casey",
      "nativeName": "Casey",
      "code": "AU-VIC-7839537",
      "countryId": 2077456,
      "countryCode": "AU",
      "stateCode": "AU-VIC",
      "latitude": -38.09519,
      "longitude": 145.32279
    },
    {
      "id": 7839538,
      "name": "Central Goldfields",
      "nativeName": "Central Goldfields",
      "code": "AU-VIC-7839538",
      "countryId": 2077456,
      "countryCode": "AU",
      "stateCode": "AU-VIC",
      "latitude": -36.97889,
      "longitude": 143.73857
    },
    {
      "id": 2177089,
      "name": "City of Ballarat",
      "nativeName": "Ballarat",
      "code": "AU-VIC-2177089",
      "countryId": 2077456,
      "countryCode": "AU",
      "stateCode": "AU-VIC",
      "latitude": -37.51884,
      "longitude": 143.77284
    },
    {
      "id": 7839533,
      "name": "City of Brimbank",
      "nativeName": "Brimbank",
      "code": "AU-VIC-7839533",
      "countryId": 2077456,
      "countryCode": "AU",
      "stateCode": "AU-VIC",
      "latitude": -37.74287,
      "longitude": 144.81644
    },
    {
      "id": 7839539,
      "name": "Colac Otway",
      "nativeName": "Colac Otway",
      "code": "AU-VIC-7839539",
      "countryId": 2077456,
      "countryCode": "AU",
      "stateCode": "AU-VIC",
      "latitude": -38.43873,
      "longitude": 143.59669
    },
    {
      "id": 7839540,
      "name": "Corangamite",
      "nativeName": "Corangamite",
      "code": "AU-VIC-7839540",
      "countryId": 2077456,
      "countryCode": "AU",
      "stateCode": "AU-VIC",
      "latitude": -38.21596,
      "longitude": 143.23542
    },
    {
      "id": 2169409,
      "name": "Darebin",
      "nativeName": "Darebin",
      "code": "AU-VIC-2169409",
      "countryId": 2077456,
      "countryCode": "AU",
      "stateCode": "AU-VIC",
      "latitude": -37.75153,
      "longitude": 145.02193
    },
    {
      "id": 7839541,
      "name": "East Gippsland",
      "nativeName": "East Gippsland",
      "code": "AU-VIC-7839541",
      "countryId": 2077456,
      "countryCode": "AU",
      "stateCode": "AU-VIC",
      "latitude": -37.34564,
      "longitude": 148.58295
    },
    {
      "id": 7839542,
      "name": "Frankston",
      "nativeName": "Frankston",
      "code": "AU-VIC-7839542",
      "countryId": 2077456,
      "countryCode": "AU",
      "stateCode": "AU-VIC",
      "latitude": -38.13402,
      "longitude": 145.16875
    },
    {
      "id": 7839543,
      "name": "Gannawarra",
      "nativeName": "Gannawarra",
      "code": "AU-VIC-7839543",
      "countryId": 2077456,
      "countryCode": "AU",
      "stateCode": "AU-VIC",
      "latitude": -35.73211,
      "longitude": 143.85316
    },
    {
      "id": 7839544,
      "name": "Glen Eira",
      "nativeName": "Glen Eira",
      "code": "AU-VIC-7839544",
      "countryId": 2077456,
      "countryCode": "AU",
      "stateCode": "AU-VIC",
      "latitude": -37.89949,
      "longitude": 145.04099
    },
    {
      "id": 7839545,
      "name": "Glenelg",
      "nativeName": "Glenelg",
      "code": "AU-VIC-7839545",
      "countryId": 2077456,
      "countryCode": "AU",
      "stateCode": "AU-VIC",
      "latitude": -37.89083,
      "longitude": 141.44238
    },
    {
      "id": 7839546,
      "name": "Golden Plains",
      "nativeName": "Golden Plains",
      "code": "AU-VIC-7839546",
      "countryId": 2077456,
      "countryCode": "AU",
      "stateCode": "AU-VIC",
      "latitude": -37.85231,
      "longitude": 143.86352
    },
    {
      "id": 7839547,
      "name": "Greater Bendigo",
      "nativeName": "Greater Bendigo",
      "code": "AU-VIC-7839547",
      "countryId": 2077456,
      "countryCode": "AU",
      "stateCode": "AU-VIC",
      "latitude": -36.72278,
      "longitude": 144.43974
    },
    {
      "id": 7839548,
      "name": "Greater Dandenong",
      "nativeName": "Greater Dandenong",
      "code": "AU-VIC-7839548",
      "countryId": 2077456,
      "countryCode": "AU",
      "stateCode": "AU-VIC",
      "latitude": -38.00112,
      "longitude": 145.19073
    },
    {
      "id": 7839549,
      "name": "Greater Geelong",
      "nativeName": "Greater Geelong",
      "code": "AU-VIC-7839549",
      "countryId": 2077456,
      "countryCode": "AU",
      "stateCode": "AU-VIC",
      "latitude": -38.05182,
      "longitude": 144.46137
    },
    {
      "id": 7839550,
      "name": "Greater Shepparton",
      "nativeName": "Greater Shepparton",
      "code": "AU-VIC-7839550",
      "countryId": 2077456,
      "countryCode": "AU",
      "stateCode": "AU-VIC",
      "latitude": -36.42742,
      "longitude": 145.41519
    },
    {
      "id": 7839551,
      "name": "Hepburn",
      "nativeName": "Hepburn",
      "code": "AU-VIC-7839551",
      "countryId": 2077456,
      "countryCode": "AU",
      "stateCode": "AU-VIC",
      "latitude": -37.31707,
      "longitude": 144.03355
    },
    {
      "id": 7839552,
      "name": "Hindmarsh",
      "nativeName": "Hindmarsh",
      "code": "AU-VIC-7839552",
      "countryId": 2077456,
      "countryCode": "AU",
      "stateCode": "AU-VIC",
      "latitude": -36.03293,
      "longitude": 141.73282
    },
    {
      "id": 7839553,
      "name": "Hobsons Bay",
      "nativeName": "Hobsons Bay",
      "code": "AU-VIC-7839553",
      "countryId": 2077456,
      "countryCode": "AU",
      "stateCode": "AU-VIC",
      "latitude": -37.85694,
      "longitude": 144.83347
    },
    {
      "id": 7839554,
      "name": "Horsham",
      "nativeName": "Horsham",
      "code": "AU-VIC-7839554",
      "countryId": 2077456,
      "countryCode": "AU",
      "stateCode": "AU-VIC",
      "latitude": -36.82857,
      "longitude": 142.11448
    },
    {
      "id": 7839555,
      "name": "Hume",
      "nativeName": "Hume",
      "code": "AU-VIC-7839555",
      "countryId": 2077456,
      "countryCode": "AU",
      "stateCode": "AU-VIC",
      "latitude": -37.59717,
      "longitude": 144.80511
    },
    {
      "id": 7839795,
      "name": "Indigo",
      "nativeName": "Indigo",
      "code": "AU-VIC-7839795",
      "countryId": 2077456,
      "countryCode": "AU",
      "stateCode": "AU-VIC",
      "latitude": -36.20854,
      "longitude": 146.68628
    },
    {
      "id": 7839796,
      "name": "Kingston",
      "nativeName": "Kingston",
      "code": "AU-VIC-7839796",
      "countryId": 2077456,
      "countryCode": "AU",
      "stateCode": "AU-VIC",
      "latitude": -38.0045,
      "longitude": 145.09531
    },
    {
      "id": 7839797,
      "name": "Knox",
      "nativeName": "Knox",
      "code": "AU-VIC-7839797",
      "countryId": 2077456,
      "countryCode": "AU",
      "stateCode": "AU-VIC",
      "latitude": -37.89895,
      "longitude": 145.26923
    },
    {
      "id": 7839798,
      "name": "Latrobe",
      "nativeName": "Latrobe",
      "code": "AU-VIC-7839798",
      "countryId": 2077456,
      "countryCode": "AU",
      "stateCode": "AU-VIC",
      "latitude": -38.25379,
      "longitude": 146.46124
    },
    {
      "id": 7839799,
      "name": "Loddon",
      "nativeName": "Loddon",
      "code": "AU-VIC-7839799",
      "countryId": 2077456,
      "countryCode": "AU",
      "stateCode": "AU-VIC",
      "latitude": -36.40406,
      "longitude": 143.82964
    },
    {
      "id": 7839800,
      "name": "Macedon Ranges",
      "nativeName": "Macedon Ranges",
      "code": "AU-VIC-7839800",
      "countryId": 2077456,
      "countryCode": "AU",
      "stateCode": "AU-VIC",
      "latitude": -37.33343,
      "longitude": 144.61581
    },
    {
      "id": 7839801,
      "name": "Manningham",
      "nativeName": "Manningham",
      "code": "AU-VIC-7839801",
      "countryId": 2077456,
      "countryCode": "AU",
      "stateCode": "AU-VIC",
      "latitude": -37.7571,
      "longitude": 145.18053
    },
    {
      "id": 7839802,
      "name": "Mansfield",
      "nativeName": "Mansfield",
      "code": "AU-VIC-7839802",
      "countryId": 2077456,
      "countryCode": "AU",
      "stateCode": "AU-VIC",
      "latitude": -37.2413,
      "longitude": 146.14803
    },
    {
      "id": 7839803,
      "name": "Maribyrnong",
      "nativeName": "Maribyrnong",
      "code": "AU-VIC-7839803",
      "countryId": 2077456,
      "countryCode": "AU",
      "stateCode": "AU-VIC",
      "latitude": -37.79141,
      "longitude": 144.87786
    },
    {
      "id": 7839804,
      "name": "Maroondah City",
      "nativeName": "Maroondah",
      "code": "AU-VIC-7839804",
      "countryId": 2077456,
      "countryCode": "AU",
      "stateCode": "AU-VIC",
      "latitude": -37.80679,
      "longitude": 145.2632
    },
    {
      "id": 7839805,
      "name": "Melbourne",
      "nativeName": "Melbourne",
      "code": "AU-VIC-7839805",
      "countryId": 2077456,
      "countryCode": "AU",
      "stateCode": "AU-VIC",
      "latitude": -37.81306,
      "longitude": 144.94422
    },
    {
      "id": 7839806,
      "name": "Melton",
      "nativeName": "Melton",
      "code": "AU-VIC-7839806",
      "countryId": 2077456,
      "countryCode": "AU",
      "stateCode": "AU-VIC",
      "latitude": -37.68144,
      "longitude": 144.62292
    },
    {
      "id": 2157697,
      "name": "Mildura",
      "nativeName": "Mildura",
      "code": "AU-VIC-2157697",
      "countryId": 2077456,
      "countryCode": "AU",
      "stateCode": "AU-VIC",
      "latitude": -34.79707,
      "longitude": 141.76098
    },
    {
      "id": 7839807,
      "name": "Mitchell",
      "nativeName": "Mitchell",
      "code": "AU-VIC-7839807",
      "countryId": 2077456,
      "countryCode": "AU",
      "stateCode": "AU-VIC",
      "latitude": -37.17535,
      "longitude": 144.97999
    },
    {
      "id": 7839808,
      "name": "Moira",
      "nativeName": "Moira",
      "code": "AU-VIC-7839808",
      "countryId": 2077456,
      "countryCode": "AU",
      "stateCode": "AU-VIC",
      "latitude": -36.0506,
      "longitude": 145.53815
    },
    {
      "id": 7839809,
      "name": "Monash",
      "nativeName": "Monash",
      "code": "AU-VIC-7839809",
      "countryId": 2077456,
      "countryCode": "AU",
      "stateCode": "AU-VIC",
      "latitude": -37.89675,
      "longitude": 145.14714
    },
    {
      "id": 7839810,
      "name": "Moonee Valley",
      "nativeName": "Moonee Valley",
      "code": "AU-VIC-7839810",
      "countryId": 2077456,
      "countryCode": "AU",
      "stateCode": "AU-VIC",
      "latitude": -37.74941,
      "longitude": 144.89325
    },
    {
      "id": 7839811,
      "name": "Moorabool",
      "nativeName": "Moorabool",
      "code": "AU-VIC-7839811",
      "countryId": 2077456,
      "countryCode": "AU",
      "stateCode": "AU-VIC",
      "latitude": -37.63338,
      "longitude": 144.21946
    },
    {
      "id": 7839812,
      "name": "Moreland",
      "nativeName": "Moreland",
      "code": "AU-VIC-7839812",
      "countryId": 2077456,
      "countryCode": "AU",
      "stateCode": "AU-VIC",
      "latitude": -37.73557,
      "longitude": 144.93745
    },
    {
      "id": 7839813,
      "name": "Mornington Peninsula",
      "nativeName": "Mornington Peninsula",
      "code": "AU-VIC-7839813",
      "countryId": 2077456,
      "countryCode": "AU",
      "stateCode": "AU-VIC",
      "latitude": -38.34004,
      "longitude": 145.05455
    },
    {
      "id": 7839814,
      "name": "Mount Alexander",
      "nativeName": "Mount Alexander",
      "code": "AU-VIC-7839814",
      "countryId": 2077456,
      "countryCode": "AU",
      "stateCode": "AU-VIC",
      "latitude": -37.07607,
      "longitude": 144.18825
    },
    {
      "id": 7839815,
      "name": "Moyne",
      "nativeName": "Moyne",
      "code": "AU-VIC-7839815",
      "countryId": 2077456,
      "countryCode": "AU",
      "stateCode": "AU-VIC",
      "latitude": -38.18785,
      "longitude": 142.46217
    },
    {
      "id": 7839816,
      "name": "Murrindindi",
      "nativeName": "Murrindindi",
      "code": "AU-VIC-7839816",
      "countryId": 2077456,
      "countryCode": "AU",
      "stateCode": "AU-VIC",
      "latitude": -37.28104,
      "longitude": 145.67437
    },
    {
      "id": 7839818,
      "name": "Northern Grampians",
      "nativeName": "Northern Grampians",
      "code": "AU-VIC-7839818",
      "countryId": 2077456,
      "countryCode": "AU",
      "stateCode": "AU-VIC",
      "latitude": -36.84962,
      "longitude": 142.87303
    },
    {
      "id": 7839819,
      "name": "Port Phillip",
      "nativeName": "Port Phillip",
      "code": "AU-VIC-7839819",
      "countryId": 2077456,
      "countryCode": "AU",
      "stateCode": "AU-VIC",
      "latitude": -37.85159,
      "longitude": 144.96992
    },
    {
      "id": 7839820,
      "name": "Pyrenees",
      "nativeName": "Pyrenees",
      "code": "AU-VIC-7839820",
      "countryId": 2077456,
      "countryCode": "AU",
      "stateCode": "AU-VIC",
      "latitude": -37.32756,
      "longitude": 143.36472
    },
    {
      "id": 7839821,
      "name": "Queenscliffe",
      "nativeName": "Queenscliffe",
      "code": "AU-VIC-7839821",
      "countryId": 2077456,
      "countryCode": "AU",
      "stateCode": "AU-VIC",
      "latitude": -38.26896,
      "longitude": 144.66248
    },
    {
      "id": 7839535,
      "name": "Shire of Campaspe",
      "nativeName": "Campaspe",
      "code": "AU-VIC-7839535",
      "countryId": 2077456,
      "countryCode": "AU",
      "stateCode": "AU-VIC",
      "latitude": -36.32338,
      "longitude": 144.70844
    },
    {
      "id": 7839817,
      "name": "Shire of Nillumbik",
      "nativeName": "Nillumbik",
      "code": "AU-VIC-7839817",
      "countryId": 2077456,
      "countryCode": "AU",
      "stateCode": "AU-VIC",
      "latitude": -37.61474,
      "longitude": 145.21706
    },
    {
      "id": 7839822,
      "name": "South Gippsland",
      "nativeName": "South Gippsland",
      "code": "AU-VIC-7839822",
      "countryId": 2077456,
      "countryCode": "AU",
      "stateCode": "AU-VIC",
      "latitude": -38.69897,
      "longitude": 146.06702
    },
    {
      "id": 7839823,
      "name": "Southern Grampians",
      "nativeName": "Southern Grampians",
      "code": "AU-VIC-7839823",
      "countryId": 2077456,
      "countryCode": "AU",
      "stateCode": "AU-VIC",
      "latitude": -37.52989,
      "longitude": 142.02533
    },
    {
      "id": 7839824,
      "name": "Stonnington",
      "nativeName": "Stonnington",
      "code": "AU-VIC-7839824",
      "countryId": 2077456,
      "countryCode": "AU",
      "stateCode": "AU-VIC",
      "latitude": -37.8613,
      "longitude": 145.03776
    },
    {
      "id": 7839825,
      "name": "Strathbogie",
      "nativeName": "Strathbogie",
      "code": "AU-VIC-7839825",
      "countryId": 2077456,
      "countryCode": "AU",
      "stateCode": "AU-VIC",
      "latitude": -36.72402,
      "longitude": 145.32938
    },
    {
      "id": 7839826,
      "name": "Surf Coast",
      "nativeName": "Surf Coast",
      "code": "AU-VIC-7839826",
      "countryId": 2077456,
      "countryCode": "AU",
      "stateCode": "AU-VIC",
      "latitude": -38.33997,
      "longitude": 144.1153
    },
    {
      "id": 7839827,
      "name": "Swan Hill",
      "nativeName": "Swan Hill",
      "code": "AU-VIC-7839827",
      "countryId": 2077456,
      "countryCode": "AU",
      "stateCode": "AU-VIC",
      "latitude": -35.10061,
      "longitude": 143.1681
    },
    {
      "id": 7839828,
      "name": "Towong",
      "nativeName": "Towong",
      "code": "AU-VIC-7839828",
      "countryId": 2077456,
      "countryCode": "AU",
      "stateCode": "AU-VIC",
      "latitude": -36.36587,
      "longitude": 147.62717
    },
    {
      "id": 7839829,
      "name": "Wangaratta",
      "nativeName": "Wangaratta",
      "code": "AU-VIC-7839829",
      "countryId": 2077456,
      "countryCode": "AU",
      "stateCode": "AU-VIC",
      "latitude": -36.61599,
      "longitude": 146.42839
    },
    {
      "id": 7839830,
      "name": "Warrnambool",
      "nativeName": "Warrnambool",
      "code": "AU-VIC-7839830",
      "countryId": 2077456,
      "countryCode": "AU",
      "stateCode": "AU-VIC",
      "latitude": -38.37819,
      "longitude": 142.52165
    },
    {
      "id": 7839831,
      "name": "Wellington",
      "nativeName": "Wellington",
      "code": "AU-VIC-7839831",
      "countryId": 2077456,
      "countryCode": "AU",
      "stateCode": "AU-VIC",
      "latitude": -38.03765,
      "longitude": 147.01697
    },
    {
      "id": 7839832,
      "name": "West Wimmera",
      "nativeName": "West Wimmera",
      "code": "AU-VIC-7839832",
      "countryId": 2077456,
      "countryCode": "AU",
      "stateCode": "AU-VIC",
      "latitude": -36.59921,
      "longitude": 141.40038
    },
    {
      "id": 7839833,
      "name": "Whitehorse",
      "nativeName": "Whitehorse",
      "code": "AU-VIC-7839833",
      "countryId": 2077456,
      "countryCode": "AU",
      "stateCode": "AU-VIC",
      "latitude": -37.82868,
      "longitude": 145.15432
    },
    {
      "id": 7839834,
      "name": "Whittlesea",
      "nativeName": "Whittlesea",
      "code": "AU-VIC-7839834",
      "countryId": 2077456,
      "countryCode": "AU",
      "stateCode": "AU-VIC",
      "latitude": -37.55087,
      "longitude": 145.09375
    },
    {
      "id": 7839835,
      "name": "Wodonga",
      "nativeName": "Wodonga",
      "code": "AU-VIC-7839835",
      "countryId": 2077456,
      "countryCode": "AU",
      "stateCode": "AU-VIC",
      "latitude": -36.14469,
      "longitude": 146.88818
    },
    {
      "id": 7839836,
      "name": "Wyndham",
      "nativeName": "Wyndham",
      "code": "AU-VIC-7839836",
      "countryId": 2077456,
      "countryCode": "AU",
      "stateCode": "AU-VIC",
      "latitude": -37.8928,
      "longitude": 144.63573
    },
    {
      "id": 2142478,
      "name": "Yarra",
      "nativeName": "Yarra",
      "code": "AU-VIC-2142478",
      "countryId": 2077456,
      "countryCode": "AU",
      "stateCode": "AU-VIC",
      "latitude": -37.80178,
      "longitude": 144.99593
    },
    {
      "id": 7839837,
      "name": "Yarra Ranges",
      "nativeName": "Yarra Ranges",
      "code": "AU-VIC-7839837",
      "countryId": 2077456,
      "countryCode": "AU",
      "stateCode": "AU-VIC",
      "latitude": -37.75006,
      "longitude": 145.73708
    },
    {
      "id": 7839838,
      "name": "Yarriambiack",
      "nativeName": "Yarriambiack",
      "code": "AU-VIC-7839838",
      "countryId": 2077456,
      "countryCode": "AU",
      "stateCode": "AU-VIC",
      "latitude": -36.02618,
      "longitude": 142.40452
    }
  ]
}