{
  "stateId": 1184196,
  "stateCode": "PK-JK",
  "countryCode": "PK",
  "cities": [
    {
      "id": 7536188,
      "name": "Bagh District",
      "nativeName": "Bagh",
      "code": "PK-JK-7536188",
      "countryId": 1168579,
      "countryCode": "PK",
      "stateCode": "PK-JK",
      "latitude": 33.99611,
      "longitude": 73.75769
    },
    {
      "id": 7536187,
      "name": "Bhimbar",
      "nativeName": "Bhimbar District",
      "code": "PK-JK-7536187",
      "countryId": 1168579,
      "countryCode": "PK",
      "stateCode": "PK-JK",
      "latitude": 33.00941,
      "longitude": 74.11762
    },
    {
      "id": 8309755,
      "name": "Hatian",
      "nativeName": "Hatian",
      "code": "PK-JK-8309755",
      "countryId": 1168579,
      "countryCode": "PK",
      "stateCode": "PK-JK",
      "latitude": 34.17282,
      "longitude": 73.84699
    },
    {
      "id": 8309754,
      "name": "Haveli",
      "nativeName": "Haveli",
      "code": "PK-JK-8309754",
      "countryId": 1168579,
      "countryCode": "PK",
      "stateCode": "PK-JK",
      "latitude": 33.92591,
      "longitude": 74.11295
    },
    {
      "id": 1173037,
      "name": "Kotli District",
      "nativeName": "Kotli District",
      "code": "PK-JK-1173037",
      "countryId": 1168579,
      "countryCode": "PK",
      "stateCode": "PK-JK",
      "latitude": 33.44559,
      "longitude": 73.91557
    },
    {
      "id": 1170297,
      "name": "Mirpur District",
      "nativeName": "Mirpur District",
      "code": "PK-JK-1170297",
      "countryId": 1168579,
      "countryCode": "PK",
      "stateCode": "PK-JK",
      "latitude": 33.21556,
      "longitude": 73.75144
    },
    {
      "id": 1169606,
      "name": "Muzaffarabad District",
      "nativeName": "Muzaffarabad District",
      "code": "PK-JK-1169606",
      "countryId": 1168579,
      "countryCode": "PK",
      "stateCode": "PK-JK",
      "latitude": 34.3428,
      "longitude": 73.58986
    },
    {
      "id": 8199376,
      "name": "Neelum District",
      "nativeName": "Neelum District",
      "code": "PK-JK-8199376",
      "countryId": 1168579,
      "countryCode": "PK",
      "stateCode": "PK-JK",
      "latitude": 34.93,
      "longitude": 74.504
    },
    {
      "id": 1167717,
      "name": "Poonch District",
      "nativeName": "Poonch District",
      "code": "PK-JK-1167717",
      "countryId": 1168579,
      "countryCode": "PK",
      "stateCode": "PK-JK",
      "latitude": 33.81691,
      "longitude": 73.8252
    },
    {
      "id": 8986039,
      "name": "Sudhanoti District",
      "nativeName": "Sudhanoti District",
      "code": "PK-JK-8986039",
      "countryId": 1168579,
      "countryCode": "PK",
      "stateCode": "PK-JK",
      "latitude": 33.715,
      "longitude": 73.68583
    }
  ]
}