{
  "stateId": 3699699,
  "stateCode": "PE-AMA",
  "countryCode": "PE",
  "cities": [
    {
      "id": 3699485,
      "name": "Bagua Province",
      "nativeName": "Provincia de Bagua",
      "code": "PE-AMA-3699485",
      "countryId": 3932488,
      "countryCode": "PE",
      "stateCode": "PE-AMA",
      "latitude": -5.09006,
      "longitude": -78.39972
    },
    {
      "id": 3699269,
      "name": "Bongará Province",
      "nativeName": "Provincia de Bongará",
      "code": "PE-AMA-3699269",
      "countryId": 3932488,
      "countryCode": "PE",
      "stateCode": "PE-AMA",
      "latitude": -5.68341,
      "longitude": -77.87308
    },
    {
      "id": 3698538,
      "name": "Chachapoyas Province",
      "nativeName": "Provincia de Chachapoyas",
      "code": "PE-AMA-3698538",
      "countryId": 3932488,
      "countryCode": "PE",
      "stateCode": "PE-AMA",
      "latitude": -6.2748,
      "longitude": -77.81067
    },
    {
      "id": 8349545,
      "name": "Condorcanqui Province",
      "nativeName": "Condorcanqui",
      "code": "PE-AMA-8349545",
      "countryId": 3932488,
      "countryCode": "PE",
      "stateCode": "PE-AMA",
      "latitude": -4.16515,
      "longitude": -78.0384
    },
    {
      "id": 3695112,
      "name": "Luya Province",
      "nativeName": "Provincia de Luya",
      "code": "PE-AMA-3695112",
      "countryId": 3932488,
      "countryCode": "PE",
      "stateCode": "PE-AMA",
      "latitude": -6.34222,
      "longitude": -78.06806
    },
    {
      "id": 3692841,
      "name": "Rodríguez de Mendoza Province",
      "nativeName": "Provincia de Rodríguez de Mendoza",
      "code": "PE-AMA-3692841",
      "countryId": 3932488,
      "countryCode": "PE",
      "stateCode": "PE-AMA",
      "latitude": -6.36524,
      "longitude": -77.44751
    },
    {
      "id": 8349546,
      "name": "Utcubamba Province",
      "nativeName": "Utcubamba",
      "code": "PE-AMA-8349546",
      "countryId": 3932488,
      "countryCode": "PE",
      "stateCode": "PE-AMA",
      "latitude": -5.77031,
      "longitude": -78.3285
    }
  ]
}