{
  "stateId": 3696416,
  "stateCode": "PE-HUC",
  "countryCode": "PE",
  "cities": [
    {
      "id": 3947955,
      "name": "Ambo Province",
      "nativeName": "Provincia de Ambo",
      "code": "PE-HUC-3947955",
      "countryId": 3932488,
      "countryCode": "PE",
      "stateCode": "PE-HUC",
      "latitude": -10.22091,
      "longitude": -76.22729
    },
    {
      "id": 8349555,
      "name": "Huacaybamba",
      "nativeName": "Huacaybamba",
      "code": "PE-HUC-8349555",
      "countryId": 3932488,
      "countryCode": "PE",
      "stateCode": "PE-HUC",
      "latitude": -8.9948,
      "longitude": -76.81027
    },
    {
      "id": 3696505,
      "name": "Huamalíes Province",
      "nativeName": "Provincia de Huamalíes",
      "code": "PE-HUC-3696505",
      "countryId": 3932488,
      "countryCode": "PE",
      "stateCode": "PE-HUC",
      "latitude": -9.37124,
      "longitude": -76.57444
    },
    {
      "id": 3696415,
      "name": "Huánuco Province",
      "nativeName": "Provincia de Huánuco",
      "code": "PE-HUC-3696415",
      "countryId": 3932488,
      "countryCode": "PE",
      "stateCode": "PE-HUC",
      "latitude": -9.76717,
      "longitude": -76.22052
    },
    {
      "id": 8349557,
      "name": "Lauricocha Province",
      "nativeName": "Lauricocha",
      "code": "PE-HUC-8349557",
      "countryId": 3932488,
      "countryCode": "PE",
      "stateCode": "PE-HUC",
      "latitude": -10.20055,
      "longitude": -76.70359
    },
    {
      "id": 3695414,
      "name": "Leoncio Prado Province",
      "nativeName": "Provincia de Leoncio Prado",
      "code": "PE-HUC-3695414",
      "countryId": 3932488,
      "countryCode": "PE",
      "stateCode": "PE-HUC",
      "latitude": -9.14859,
      "longitude": -76
    },
    {
      "id": 3694961,
      "name": "Marañón Province",
      "nativeName": "Provincia de Marañón",
      "code": "PE-HUC-3694961",
      "countryId": 3932488,
      "countryCode": "PE",
      "stateCode": "PE-HUC",
      "latitude": -8.71916,
      "longitude": -76.68794
    },
    {
      "id": 3694144,
      "name": "Pachitea Province",
      "nativeName": "Provincia de Pachitea",
      "code": "PE-HUC-3694144",
      "countryId": 3932488,
      "countryCode": "PE",
      "stateCode": "PE-HUC",
      "latitude": -9.95262,
      "longitude": -75.8139
    },
    {
      "id": 3697460,
      "name": "Provincia de Dos de Mayo",
      "nativeName": "Provincia de Dos de Mayo",
      "code": "PE-HUC-3697460",
      "countryId": 3932488,
      "countryCode": "PE",
      "stateCode": "PE-HUC",
      "latitude": -9.64548,
      "longitude": -76.70959
    },
    {
      "id": 8349556,
      "name": "Puerto Inca Province",
      "nativeName": "Puerto Inca",
      "code": "PE-HUC-8349556",
      "countryId": 3932488,
      "countryCode": "PE",
      "stateCode": "PE-HUC",
      "latitude": -9.36696,
      "longitude": -75.08958
    },
    {
      "id": 8349558,
      "name": "Yarowilca Province",
      "nativeName": "Yarowilca",
      "code": "PE-HUC-8349558",
      "countryId": 3932488,
      "countryCode": "PE",
      "stateCode": "PE-HUC",
      "latitude": -9.80263,
      "longitude": -76.59516
    }
  ]
}