{
  "stateId": 7521298,
  "stateCode": "PH-12",
  "countryCode": "PH",
  "cities": [
    {
      "id": 1716770,
      "name": "Cotabato City",
      "nativeName": "Cotabato City",
      "code": "PH-12-1716770",
      "countryId": 1694008,
      "countryCode": "PH",
      "stateCode": "PH-12",
      "latitude": 7.21667,
      "longitude": 124.25
    },
    {
      "id": 1697559,
      "name": "Province of Cotabato",
      "nativeName": "Cotabato",
      "code": "PH-12-1697559",
      "countryId": 1694008,
      "countryCode": "PH",
      "stateCode": "PH-12",
      "latitude": 7.01667,
      "longitude": 125.08333
    },
    {
      "id": 7671047,
      "name": "Province of Sarangani",
      "nativeName": "Province of Sarangani",
      "code": "PH-12-7671047",
      "countryId": 1694008,
      "countryCode": "PH",
      "stateCode": "PH-12",
      "latitude": 5.87472,
      "longitude": 125.27528
    },
    {
      "id": 1685731,
      "name": "Province of South Cotabato",
      "nativeName": "Province of South Cotabato",
      "code": "PH-12-1685731",
      "countryId": 1694008,
      "countryCode": "PH",
      "stateCode": "PH-12",
      "latitude": 6.25218,
      "longitude": 125.0006
    },
    {
      "id": 1685377,
      "name": "Province of Sultan Kudarat",
      "nativeName": "Province of Sultan Kudarat",
      "code": "PH-12-1685377",
      "countryId": 1694008,
      "countryCode": "PH",
      "stateCode": "PH-12",
      "latitude": 6.55,
      "longitude": 124.28333
    }
  ]
}