{
  "stateId": 909845,
  "stateCode": "ZM-04",
  "countryCode": "ZM",
  "cities": [
    {
      "id": 10815864,
      "name": "Chembe District",
      "nativeName": "Chembe District",
      "code": "ZM-04-10815864",
      "countryId": 895949,
      "countryCode": "ZM",
      "stateCode": "ZM-04",
      "latitude": -11.70652,
      "longitude": 28.65445
    },
    {
      "id": 10800891,
      "name": "Chienge",
      "nativeName": "Chienge",
      "code": "ZM-04-10800891",
      "countryId": 895949,
      "countryCode": "ZM",
      "stateCode": "ZM-04",
      "latitude": -8.77369,
      "longitude": 29.07954
    },
    {
      "id": 10815863,
      "name": "Chipili District",
      "nativeName": "Chipili District",
      "code": "ZM-04-10815863",
      "countryId": 895949,
      "countryCode": "ZM",
      "stateCode": "ZM-04",
      "latitude": -10.38368,
      "longitude": 29.12348
    },
    {
      "id": 176553,
      "name": "Kawambwa District",
      "nativeName": "Kawambwa District",
      "code": "ZM-04-176553",
      "countryId": 895949,
      "countryCode": "ZM",
      "stateCode": "ZM-04",
      "latitude": -9.80804,
      "longitude": 29.3125
    },
    {
      "id": 10815865,
      "name": "Lunga District",
      "nativeName": "Lunga District",
      "code": "ZM-04-10815865",
      "countryId": 895949,
      "countryCode": "ZM",
      "stateCode": "ZM-04",
      "latitude": -11.53801,
      "longitude": 30.09244
    },
    {
      "id": 907767,
      "name": "Mansa District",
      "nativeName": "Mansa District",
      "code": "ZM-04-907767",
      "countryId": 895949,
      "countryCode": "ZM",
      "stateCode": "ZM-04",
      "latitude": -11.11672,
      "longitude": 28.95778
    },
    {
      "id": 10800892,
      "name": "Milenge",
      "nativeName": "Milenge",
      "code": "ZM-04-10800892",
      "countryId": 895949,
      "countryCode": "ZM",
      "stateCode": "ZM-04",
      "latitude": -11.84879,
      "longitude": 29.16806
    },
    {
      "id": 10815862,
      "name": "Mwansabombwe District",
      "nativeName": "Mwansabombwe District",
      "code": "ZM-04-10815862",
      "countryId": 895949,
      "countryCode": "ZM",
      "stateCode": "ZM-04",
      "latitude": -9.87814,
      "longitude": 28.78084
    },
    {
      "id": 902718,
      "name": "Mwense District",
      "nativeName": "Mwense District",
      "code": "ZM-04-902718",
      "countryId": 895949,
      "countryCode": "ZM",
      "stateCode": "ZM-04",
      "latitude": -10.43985,
      "longitude": 28.73309
    },
    {
      "id": 175497,
      "name": "Nchelenge District",
      "nativeName": "Nchelenge District",
      "code": "ZM-04-175497",
      "countryId": 895949,
      "countryCode": "ZM",
      "stateCode": "ZM-04",
      "latitude": -9.30484,
      "longitude": 28.74873
    },
    {
      "id": 899273,
      "name": "Samfya District",
      "nativeName": "Samfya District",
      "code": "ZM-04-899273",
      "countryId": 895949,
      "countryCode": "ZM",
      "stateCode": "ZM-04",
      "latitude": -11.45375,
      "longitude": 29.64307
    }
  ]
}