{
  "stateId": 909129,
  "stateCode": "ZM-09",
  "countryCode": "ZM",
  "cities": [
    {
      "id": 10815854,
      "name": "Chilanga District",
      "nativeName": "Chilanga District",
      "code": "ZM-09-10815854",
      "countryId": 895949,
      "countryCode": "ZM",
      "stateCode": "ZM-09",
      "latitude": -15.45131,
      "longitude": 28.07776
    },
    {
      "id": 10815852,
      "name": "Chirundu District",
      "nativeName": "Chirundu District",
      "code": "ZM-09-10815852",
      "countryId": 895949,
      "countryCode": "ZM",
      "stateCode": "ZM-09",
      "latitude": -16.13283,
      "longitude": 28.68775
    },
    {
      "id": 7910080,
      "name": "Chongwe District",
      "nativeName": "Chongwe District",
      "code": "ZM-09-7910080",
      "countryId": 895949,
      "countryCode": "ZM",
      "stateCode": "ZM-09",
      "latitude": -15.72,
      "longitude": 29.33
    },
    {
      "id": 7671220,
      "name": "Kafue district",
      "nativeName": "Kafue district",
      "code": "ZM-09-7671220",
      "countryId": 895949,
      "countryCode": "ZM",
      "stateCode": "ZM-09",
      "latitude": -15.61994,
      "longitude": 28.44125
    },
    {
      "id": 909886,
      "name": "Luangwa District",
      "nativeName": "Luangwa District",
      "code": "ZM-09-909886",
      "countryId": 895949,
      "countryCode": "ZM",
      "stateCode": "ZM-09",
      "latitude": -15.41487,
      "longitude": 30.01031
    },
    {
      "id": 909134,
      "name": "Lusaka District",
      "nativeName": "Lusaka District",
      "code": "ZM-09-909134",
      "countryId": 895949,
      "countryCode": "ZM",
      "stateCode": "ZM-09",
      "latitude": -15.4307,
      "longitude": 28.34419
    },
    {
      "id": 10815855,
      "name": "Rufunsa District",
      "nativeName": "Rufunsa District",
      "code": "ZM-09-10815855",
      "countryId": 895949,
      "countryCode": "ZM",
      "stateCode": "ZM-09",
      "latitude": -15.14901,
      "longitude": 29.52447
    },
    {
      "id": 10815853,
      "name": "Shibuyunji District",
      "nativeName": "Shibuyunji District",
      "code": "ZM-09-10815853",
      "countryId": 895949,
      "countryCode": "ZM",
      "stateCode": "ZM-09",
      "latitude": -15.38923,
      "longitude": 27.70259
    }
  ]
}