{
  "stateId": 896972,
  "stateCode": "ZM-07",
  "countryCode": "ZM",
  "cities": [
    {
      "id": 10815851,
      "name": "Chikankata District",
      "nativeName": "Chikankata District",
      "code": "ZM-07-10815851",
      "countryId": 895949,
      "countryCode": "ZM",
      "stateCode": "ZM-07",
      "latitude": -16.03566,
      "longitude": 28.23971
    },
    {
      "id": 917743,
      "name": "Choma District",
      "nativeName": "Choma District",
      "code": "ZM-07-917743",
      "countryId": 895949,
      "countryCode": "ZM",
      "stateCode": "ZM-07",
      "latitude": -16.68884,
      "longitude": 26.98733
    },
    {
      "id": 917010,
      "name": "Gwembe District",
      "nativeName": "Gwembe District",
      "code": "ZM-07-917010",
      "countryId": 895949,
      "countryCode": "ZM",
      "stateCode": "ZM-07",
      "latitude": -16.64077,
      "longitude": 27.88502
    },
    {
      "id": 8714550,
      "name": "Itezhi-Tezhi District",
      "nativeName": "Itezhi-Tezhi District",
      "code": "ZM-07-8714550",
      "countryId": 895949,
      "countryCode": "ZM",
      "stateCode": "ZM-07",
      "latitude": -15.74092,
      "longitude": 26.04146
    },
    {
      "id": 915082,
      "name": "Kalomo District",
      "nativeName": "Kalomo District",
      "code": "ZM-07-915082",
      "countryId": 895949,
      "countryCode": "ZM",
      "stateCode": "ZM-07",
      "latitude": -17.147,
      "longitude": 26.679
    },
    {
      "id": 8260555,
      "name": "Kazungula District",
      "nativeName": "Kazungula District",
      "code": "ZM-07-8260555",
      "countryId": 895949,
      "countryCode": "ZM",
      "stateCode": "ZM-07",
      "latitude": -17.066,
      "longitude": 25.687
    },
    {
      "id": 910107,
      "name": "Livingstone District",
      "nativeName": "Livingstone District",
      "code": "ZM-07-910107",
      "countryId": 895949,
      "countryCode": "ZM",
      "stateCode": "ZM-07",
      "latitude": -17.802,
      "longitude": 25.867
    },
    {
      "id": 907108,
      "name": "Mazabuka District",
      "nativeName": "Mazabuka District",
      "code": "ZM-07-907108",
      "countryId": 895949,
      "countryCode": "ZM",
      "stateCode": "ZM-07",
      "latitude": -15.85212,
      "longitude": 27.71608
    },
    {
      "id": 906042,
      "name": "Monze District",
      "nativeName": "Monze District",
      "code": "ZM-07-906042",
      "countryId": 895949,
      "countryCode": "ZM",
      "stateCode": "ZM-07",
      "latitude": -16.10444,
      "longitude": 27.35992
    },
    {
      "id": 901764,
      "name": "Namwala District",
      "nativeName": "Namwala District",
      "code": "ZM-07-901764",
      "countryId": 895949,
      "countryCode": "ZM",
      "stateCode": "ZM-07",
      "latitude": -15.91068,
      "longitude": 26.76462
    },
    {
      "id": 10815850,
      "name": "Pemba District",
      "nativeName": "Pemba District",
      "code": "ZM-07-10815850",
      "countryId": 895949,
      "countryCode": "ZM",
      "stateCode": "ZM-07",
      "latitude": -16.67265,
      "longitude": 27.38679
    },
    {
      "id": 7671219,
      "name": "Siavonga District",
      "nativeName": "Siavonga District",
      "code": "ZM-07-7671219",
      "countryId": 895949,
      "countryCode": "ZM",
      "stateCode": "ZM-07",
      "latitude": -16.26742,
      "longitude": 28.55036
    },
    {
      "id": 9072525,
      "name": "Sinazongwe District",
      "nativeName": "Sinazongwe District",
      "code": "ZM-07-9072525",
      "countryId": 895949,
      "countryCode": "ZM",
      "stateCode": "ZM-07",
      "latitude": -17.22236,
      "longitude": 27.47913
    },
    {
      "id": 10815849,
      "name": "Zimba District",
      "nativeName": "Zimba District",
      "code": "ZM-07-10815849",
      "countryId": 895949,
      "countryCode": "ZM",
      "stateCode": "ZM-07",
      "latitude": -17.61733,
      "longitude": 26.54468
    }
  ]
}