{
  "stateId": 12902766,
  "stateCode": "ET-56",
  "countryCode": "ET",
  "cities": [
    {
      "id": 9410266,
      "name": "Amaro Special Woreda",
      "nativeName": "Amaro Special Woreda",
      "code": "ET-56-9410266",
      "countryId": 337996,
      "countryCode": "ET",
      "stateCode": "ET-56",
      "latitude": 5.83333,
      "longitude": 37.83333
    },
    {
      "id": 9410112,
      "name": "Basketo Special Woreda",
      "nativeName": "Basketo Special Woreda",
      "code": "ET-56-9410112",
      "countryId": 337996,
      "countryCode": "ET",
      "stateCode": "ET-56",
      "latitude": 6.25,
      "longitude": 36.58333
    },
    {
      "id": 9410501,
      "name": "Burji Special Woreda",
      "nativeName": "Burji Special Woreda",
      "code": "ET-56-9410501",
      "countryId": 337996,
      "countryCode": "ET",
      "stateCode": "ET-56",
      "latitude": 5.5,
      "longitude": 37.83333
    },
    {
      "id": 9410393,
      "name": "Dirashe Special Woreda",
      "nativeName": "Dirashe Special Woreda",
      "code": "ET-56-9410393",
      "countryId": 337996,
      "countryCode": "ET",
      "stateCode": "ET-56",
      "latitude": 5.66667,
      "longitude": 37.33333
    },
    {
      "id": 9159975,
      "name": "Gamo Gofa Zone",
      "nativeName": "Gamo Gofa Zone",
      "code": "ET-56-9159975",
      "countryId": 337996,
      "countryCode": "ET",
      "stateCode": "ET-56",
      "latitude": 6.25,
      "longitude": 37
    },
    {
      "id": 7670732,
      "name": "Gedeo Zone",
      "nativeName": "Gedeo Zone",
      "code": "ET-56-7670732",
      "countryId": 337996,
      "countryCode": "ET",
      "stateCode": "ET-56",
      "latitude": 6.12727,
      "longitude": 38.27716
    },
    {
      "id": 9410442,
      "name": "Konso Special Woreda",
      "nativeName": "Konso Special Woreda",
      "code": "ET-56-9410442",
      "countryId": 337996,
      "countryCode": "ET",
      "stateCode": "ET-56",
      "latitude": 5.33333,
      "longitude": 37.33333
    },
    {
      "id": 11750824,
      "name": "Segen Peoples",
      "nativeName": "Segen Peoples",
      "code": "ET-56-11750824",
      "countryId": 337996,
      "countryCode": "ET",
      "stateCode": "ET-56",
      "latitude": 5.54625,
      "longitude": 37.55151
    },
    {
      "id": 7729829,
      "name": "South Omo",
      "nativeName": "South Omo",
      "code": "ET-56-7729829",
      "countryId": 337996,
      "countryCode": "ET",
      "stateCode": "ET-56",
      "latitude": 5.46208,
      "longitude": 36.40148
    },
    {
      "id": 10377041,
      "name": "South Omo Zone",
      "nativeName": "South Omo Zone",
      "code": "ET-56-10377041",
      "countryId": 337996,
      "countryCode": "ET",
      "stateCode": "ET-56",
      "latitude": 5.5,
      "longitude": 36.5
    },
    {
      "id": 326423,
      "name": "Wolayita Zone",
      "nativeName": "Wolayita Zone",
      "code": "ET-56-326423",
      "countryId": 337996,
      "countryCode": "ET",
      "stateCode": "ET-56",
      "latitude": 6.84312,
      "longitude": 37.70051
    }
  ]
}