{
  "stateId": 2501296,
  "stateCode": "DZ-02",
  "countryCode": "DZ",
  "cities": [
    {
      "id": 12952644,
      "name": "Abou El Hassane",
      "nativeName": "Abou El Hassane",
      "code": "DZ-02-12952644",
      "countryId": 2589581,
      "countryCode": "DZ",
      "stateCode": "DZ-02",
      "latitude": 36.38379,
      "longitude": 1.13179
    },
    {
      "id": 12952487,
      "name": "Ain Merane",
      "nativeName": "Ain Merane",
      "code": "DZ-02-12952487",
      "countryId": 2589581,
      "countryCode": "DZ",
      "stateCode": "DZ-02",
      "latitude": 36.21196,
      "longitude": 1.0291
    },
    {
      "id": 12952645,
      "name": "Beni Haoua",
      "nativeName": "Beni Haoua",
      "code": "DZ-02-12952645",
      "countryId": 2589581,
      "countryCode": "DZ",
      "stateCode": "DZ-02",
      "latitude": 36.48943,
      "longitude": 1.54898
    },
    {
      "id": 12952646,
      "name": "Boukadir",
      "nativeName": "Boukadir",
      "code": "DZ-02-12952646",
      "countryId": 2589581,
      "countryCode": "DZ",
      "stateCode": "DZ-02",
      "latitude": 36.07576,
      "longitude": 1.11347
    },
    {
      "id": 12952648,
      "name": "Chlef",
      "nativeName": "Chlef",
      "code": "DZ-02-12952648",
      "countryId": 2589581,
      "countryCode": "DZ",
      "stateCode": "DZ-02",
      "latitude": 36.11554,
      "longitude": 1.39664
    },
    {
      "id": 2477145,
      "name": "Daïra de Ténès",
      "nativeName": "Daïra de Ténès",
      "code": "DZ-02-2477145",
      "countryId": 2589581,
      "countryCode": "DZ",
      "stateCode": "DZ-02",
      "latitude": 36.4688,
      "longitude": 1.29092
    },
    {
      "id": 12952650,
      "name": "El Karimia",
      "nativeName": "El Karimia",
      "code": "DZ-02-12952650",
      "countryId": 2589581,
      "countryCode": "DZ",
      "stateCode": "DZ-02",
      "latitude": 36.06212,
      "longitude": 1.58071
    },
    {
      "id": 12952652,
      "name": "El Marsa",
      "nativeName": "El Marsa",
      "code": "DZ-02-12952652",
      "countryId": 2589581,
      "countryCode": "DZ",
      "stateCode": "DZ-02",
      "latitude": 36.38551,
      "longitude": 0.98241
    },
    {
      "id": 12952647,
      "name": "Oued Fodda",
      "nativeName": "Oued Fodda",
      "code": "DZ-02-12952647",
      "countryId": 2589581,
      "countryCode": "DZ",
      "stateCode": "DZ-02",
      "latitude": 36.24827,
      "longitude": 1.52618
    },
    {
      "id": 12952654,
      "name": "Ouled Ben Abdelkader",
      "nativeName": "Ouled Ben Abdelkader",
      "code": "DZ-02-12952654",
      "countryId": 2589581,
      "countryCode": "DZ",
      "stateCode": "DZ-02",
      "latitude": 35.98485,
      "longitude": 1.34272
    },
    {
      "id": 12952656,
      "name": "Ouled Fares",
      "nativeName": "Ouled Fares",
      "code": "DZ-02-12952656",
      "countryId": 2589581,
      "countryCode": "DZ",
      "stateCode": "DZ-02",
      "latitude": 36.24999,
      "longitude": 1.27967
    },
    {
      "id": 12952488,
      "name": "Taougrit",
      "nativeName": "Taougrit",
      "code": "DZ-02-12952488",
      "countryId": 2589581,
      "countryCode": "DZ",
      "stateCode": "DZ-02",
      "latitude": 36.28118,
      "longitude": 0.85343
    },
    {
      "id": 12952658,
      "name": "Zeboudja",
      "nativeName": "Zeboudja",
      "code": "DZ-02-12952658",
      "countryId": 2589581,
      "countryCode": "DZ",
      "stateCode": "DZ-02",
      "latitude": 36.3739,
      "longitude": 1.36524
    }
  ]
}