{
  "stateId": 2481696,
  "stateCode": "DZ-19",
  "countryCode": "DZ",
  "cities": [
    {
      "id": 12952792,
      "name": "Ain Arnat",
      "nativeName": "Ain Arnat",
      "code": "DZ-19-12952792",
      "countryId": 2589581,
      "countryCode": "DZ",
      "stateCode": "DZ-19",
      "latitude": 36.21492,
      "longitude": 5.29871
    },
    {
      "id": 12952794,
      "name": "Ain Azel",
      "nativeName": "Ain Azel",
      "code": "DZ-19-12952794",
      "countryId": 2589581,
      "countryCode": "DZ",
      "stateCode": "DZ-19",
      "latitude": 35.88828,
      "longitude": 5.54921
    },
    {
      "id": 12952795,
      "name": "Amoucha",
      "nativeName": "Amoucha",
      "code": "DZ-19-12952795",
      "countryId": 2589581,
      "countryCode": "DZ",
      "stateCode": "DZ-19",
      "latitude": 36.42461,
      "longitude": 5.39686
    },
    {
      "id": 2507978,
      "name": "Aïn Oulmene",
      "nativeName": "Aïn Oulmene",
      "code": "DZ-19-2507978",
      "countryId": 2589581,
      "countryCode": "DZ",
      "stateCode": "DZ-19",
      "latitude": 35.91667,
      "longitude": 5.3
    },
    {
      "id": 12952796,
      "name": "Babor",
      "nativeName": "Babor",
      "code": "DZ-19-12952796",
      "countryId": 2589581,
      "countryCode": "DZ",
      "stateCode": "DZ-19",
      "latitude": 36.48819,
      "longitude": 5.53304
    },
    {
      "id": 12952797,
      "name": "Beni Aziz",
      "nativeName": "Beni Aziz",
      "code": "DZ-19-12952797",
      "countryId": 2589581,
      "countryCode": "DZ",
      "stateCode": "DZ-19",
      "latitude": 36.4481,
      "longitude": 5.69797
    },
    {
      "id": 12952798,
      "name": "Beni Ourtilane",
      "nativeName": "Beni Ourtilane",
      "code": "DZ-19-12952798",
      "countryId": 2589581,
      "countryCode": "DZ",
      "stateCode": "DZ-19",
      "latitude": 36.44548,
      "longitude": 4.87183
    },
    {
      "id": 12952799,
      "name": "Bir El Arch",
      "nativeName": "Bir El Arch",
      "code": "DZ-19-12952799",
      "countryId": 2589581,
      "countryCode": "DZ",
      "stateCode": "DZ-19",
      "latitude": 36.15354,
      "longitude": 5.84535
    },
    {
      "id": 12952800,
      "name": "Bouandas",
      "nativeName": "Bouandas",
      "code": "DZ-19-12952800",
      "countryId": 2589581,
      "countryCode": "DZ",
      "stateCode": "DZ-19",
      "latitude": 36.51516,
      "longitude": 5.07888
    },
    {
      "id": 2503153,
      "name": "Bougaâ District",
      "nativeName": "Daïra de Bougaa",
      "code": "DZ-19-2503153",
      "countryId": 2589581,
      "countryCode": "DZ",
      "stateCode": "DZ-19",
      "latitude": 36.30652,
      "longitude": 5.14763
    },
    {
      "id": 2508142,
      "name": "Daïra d’‘Aïn el Kebira",
      "nativeName": "Daïra d’‘Aïn el Kebira",
      "code": "DZ-19-2508142",
      "countryId": 2589581,
      "countryCode": "DZ",
      "stateCode": "DZ-19",
      "latitude": 36.37313,
      "longitude": 5.57608
    },
    {
      "id": 12952506,
      "name": "Djemila",
      "nativeName": "Djemila",
      "code": "DZ-19-12952506",
      "countryId": 2589581,
      "countryCode": "DZ",
      "stateCode": "DZ-19",
      "latitude": 36.3248,
      "longitude": 5.77811
    },
    {
      "id": 2498390,
      "name": "El Eulma District",
      "nativeName": "Daïra d’El Eulma",
      "code": "DZ-19-2498390",
      "countryId": 2589581,
      "countryCode": "DZ",
      "stateCode": "DZ-19",
      "latitude": 36.20798,
      "longitude": 5.68594
    },
    {
      "id": 12952505,
      "name": "Guenzet",
      "nativeName": "Guenzet",
      "code": "DZ-19-12952505",
      "countryId": 2589581,
      "countryCode": "DZ",
      "stateCode": "DZ-19",
      "latitude": 36.33981,
      "longitude": 4.88252
    },
    {
      "id": 12952801,
      "name": "Guidjel",
      "nativeName": "Guidjel",
      "code": "DZ-19-12952801",
      "countryId": 2589581,
      "countryCode": "DZ",
      "stateCode": "DZ-19",
      "latitude": 36.1096,
      "longitude": 5.50575
    },
    {
      "id": 12952802,
      "name": "Hammam Guergour",
      "nativeName": "Hammam Guergour",
      "code": "DZ-19-12952802",
      "countryId": 2589581,
      "countryCode": "DZ",
      "stateCode": "DZ-19",
      "latitude": 36.38814,
      "longitude": 5.00891
    },
    {
      "id": 12952793,
      "name": "Hammam Sokhna",
      "nativeName": "Hammam Sokhna",
      "code": "DZ-19-12952793",
      "countryId": 2589581,
      "countryCode": "DZ",
      "stateCode": "DZ-19",
      "latitude": 35.95817,
      "longitude": 5.83473
    },
    {
      "id": 12952461,
      "name": "Maoklane",
      "nativeName": "Maoklane",
      "code": "DZ-19-12952461",
      "countryId": 2589581,
      "countryCode": "DZ",
      "stateCode": "DZ-19",
      "latitude": 36.4273,
      "longitude": 5.10943
    },
    {
      "id": 12952803,
      "name": "Salah Bey",
      "nativeName": "Salah Bey",
      "code": "DZ-19-12952803",
      "countryId": 2589581,
      "countryCode": "DZ",
      "stateCode": "DZ-19",
      "latitude": 35.76302,
      "longitude": 5.25802
    },
    {
      "id": 2481698,
      "name": "Sétif District",
      "nativeName": "Daïra de Sétif",
      "code": "DZ-19-2481698",
      "countryId": 2589581,
      "countryCode": "DZ",
      "stateCode": "DZ-19",
      "latitude": 36.19373,
      "longitude": 5.42864
    }
  ]
}