{
  "stateId": 2476893,
  "stateCode": "DZ-14",
  "countryCode": "DZ",
  "cities": [
    {
      "id": 12952846,
      "name": "Ain Deheb",
      "nativeName": "Ain Deheb",
      "code": "DZ-14-12952846",
      "countryId": 2589581,
      "countryCode": "DZ",
      "stateCode": "DZ-14",
      "latitude": 34.6197,
      "longitude": 1.53465
    },
    {
      "id": 12952847,
      "name": "Ain Kermes",
      "nativeName": "Ain Kermes",
      "code": "DZ-14-12952847",
      "countryId": 2589581,
      "countryCode": "DZ",
      "stateCode": "DZ-14",
      "latitude": 34.67616,
      "longitude": 1.0101
    },
    {
      "id": 12952848,
      "name": "Dahmouni",
      "nativeName": "Dahmouni",
      "code": "DZ-14-12952848",
      "countryId": 2589581,
      "countryCode": "DZ",
      "stateCode": "DZ-14",
      "latitude": 35.39281,
      "longitude": 1.44789
    },
    {
      "id": 2496230,
      "name": "Daïra de Frenda",
      "nativeName": "Daïra de Frenda",
      "code": "DZ-14-2496230",
      "countryId": 2589581,
      "countryCode": "DZ",
      "stateCode": "DZ-14",
      "latitude": 35,
      "longitude": 1
    },
    {
      "id": 12952837,
      "name": "Hamadia",
      "nativeName": "Hamadia",
      "code": "DZ-14-12952837",
      "countryId": 2589581,
      "countryCode": "DZ",
      "stateCode": "DZ-14",
      "latitude": 35.36162,
      "longitude": 2.04573
    },
    {
      "id": 12952839,
      "name": "Ksar Chellala",
      "nativeName": "Ksar Chellala",
      "code": "DZ-14-12952839",
      "countryId": 2589581,
      "countryCode": "DZ",
      "stateCode": "DZ-14",
      "latitude": 35.08633,
      "longitude": 2.38996
    },
    {
      "id": 12952539,
      "name": "Mahdia",
      "nativeName": "Mahdia",
      "code": "DZ-14-12952539",
      "countryId": 2589581,
      "countryCode": "DZ",
      "stateCode": "DZ-14",
      "latitude": 35.31824,
      "longitude": 1.79786
    },
    {
      "id": 12952849,
      "name": "Mechraa Sfa",
      "nativeName": "Mechraa Sfa",
      "code": "DZ-14-12952849",
      "countryId": 2589581,
      "countryCode": "DZ",
      "stateCode": "DZ-14",
      "latitude": 35.35977,
      "longitude": 1.03803
    },
    {
      "id": 12952850,
      "name": "Medroussa",
      "nativeName": "Medroussa",
      "code": "DZ-14-12952850",
      "countryId": 2589581,
      "countryCode": "DZ",
      "stateCode": "DZ-14",
      "latitude": 35.22141,
      "longitude": 1.13945
    },
    {
      "id": 12952852,
      "name": "Oued Lili",
      "nativeName": "Oued Lili",
      "code": "DZ-14-12952852",
      "countryId": 2589581,
      "countryCode": "DZ",
      "stateCode": "DZ-14",
      "latitude": 35.54928,
      "longitude": 1.25524
    },
    {
      "id": 12952854,
      "name": "Rahouia",
      "nativeName": "Rahouia",
      "code": "DZ-14-12952854",
      "countryId": 2589581,
      "countryCode": "DZ",
      "stateCode": "DZ-14",
      "latitude": 35.49033,
      "longitude": 1.08215
    },
    {
      "id": 12952856,
      "name": "Sougueur",
      "nativeName": "Sougueur",
      "code": "DZ-14-12952856",
      "countryId": 2589581,
      "countryCode": "DZ",
      "stateCode": "DZ-14",
      "latitude": 34.9842,
      "longitude": 1.83729
    },
    {
      "id": 12952642,
      "name": "Tiaret",
      "nativeName": "Tiaret",
      "code": "DZ-14-12952642",
      "countryId": 2589581,
      "countryCode": "DZ",
      "stateCode": "DZ-14",
      "latitude": 35.35116,
      "longitude": 1.33744
    },
    {
      "id": 2476895,
      "name": "Tiaret District",
      "nativeName": "Daïra de Tiaret daira de meghila",
      "code": "DZ-14-2476895",
      "countryId": 2589581,
      "countryCode": "DZ",
      "stateCode": "DZ-14",
      "latitude": 35.58792,
      "longitude": 1.41328
    }
  ]
}