{
  "stateId": 2486682,
  "stateCode": "DZ-28",
  "countryCode": "DZ",
  "cities": [
    {
      "id": 12952535,
      "name": "Ain El Hadjel",
      "nativeName": "Ain El Hadjel",
      "code": "DZ-28-12952535",
      "countryId": 2589581,
      "countryCode": "DZ",
      "stateCode": "DZ-28",
      "latitude": 35.66174,
      "longitude": 3.97095
    },
    {
      "id": 12952748,
      "name": "Ain El Melh",
      "nativeName": "Ain El Melh",
      "code": "DZ-28-12952748",
      "countryId": 2589581,
      "countryCode": "DZ",
      "stateCode": "DZ-28",
      "latitude": 34.65988,
      "longitude": 4.13271
    },
    {
      "id": 12952723,
      "name": "Ben Srour",
      "nativeName": "Ben Srour",
      "code": "DZ-28-12952723",
      "countryId": 2589581,
      "countryCode": "DZ",
      "stateCode": "DZ-28",
      "latitude": 34.95683,
      "longitude": 4.65807
    },
    {
      "id": 12952750,
      "name": "Chellal",
      "nativeName": "Chellal",
      "code": "DZ-28-12952750",
      "countryId": 2589581,
      "countryCode": "DZ",
      "stateCode": "DZ-28",
      "latitude": 35.52984,
      "longitude": 4.36706
    },
    {
      "id": 2502382,
      "name": "Daïra de Bou Saâda",
      "nativeName": "Daïra de Bou Saâda",
      "code": "DZ-28-2502382",
      "countryId": 2589581,
      "countryCode": "DZ",
      "stateCode": "DZ-28",
      "latitude": 35.16667,
      "longitude": 4
    },
    {
      "id": 2486687,
      "name": "Daïra de M’Sila",
      "nativeName": "Daïra de M’Sila",
      "code": "DZ-28-2486687",
      "countryId": 2589581,
      "countryCode": "DZ",
      "stateCode": "DZ-28",
      "latitude": 35.7,
      "longitude": 4.55
    },
    {
      "id": 12952458,
      "name": "Djebel Messaad",
      "nativeName": "Djebel Messaad",
      "code": "DZ-28-12952458",
      "countryId": 2589581,
      "countryCode": "DZ",
      "stateCode": "DZ-28",
      "latitude": 34.97254,
      "longitude": 4.03229
    },
    {
      "id": 12952753,
      "name": "Hammam Dalaa",
      "nativeName": "Hammam Dalaa",
      "code": "DZ-28-12952753",
      "countryId": 2589581,
      "countryCode": "DZ",
      "stateCode": "DZ-28",
      "latitude": 35.86727,
      "longitude": 4.32215
    },
    {
      "id": 12952754,
      "name": "Khoubana",
      "nativeName": "Khoubana",
      "code": "DZ-28-12952754",
      "countryId": 2589581,
      "countryCode": "DZ",
      "stateCode": "DZ-28",
      "latitude": 35.25461,
      "longitude": 4.58362
    },
    {
      "id": 12952755,
      "name": "Magra",
      "nativeName": "Magra",
      "code": "DZ-28-12952755",
      "countryId": 2589581,
      "countryCode": "DZ",
      "stateCode": "DZ-28",
      "latitude": 35.60973,
      "longitude": 5.07011
    },
    {
      "id": 12952459,
      "name": "Medjedel",
      "nativeName": "Medjedel",
      "code": "DZ-28-12952459",
      "countryId": 2589581,
      "countryCode": "DZ",
      "stateCode": "DZ-28",
      "latitude": 35.07434,
      "longitude": 3.65274
    },
    {
      "id": 12952757,
      "name": "Ouled Derradj",
      "nativeName": "Ouled Derradj",
      "code": "DZ-28-12952757",
      "countryId": 2589581,
      "countryCode": "DZ",
      "stateCode": "DZ-28",
      "latitude": 35.76009,
      "longitude": 4.75668
    },
    {
      "id": 12952758,
      "name": "Ouled Sidi Brahim",
      "nativeName": "Ouled Sidi Brahim",
      "code": "DZ-28-12952758",
      "countryId": 2589581,
      "countryCode": "DZ",
      "stateCode": "DZ-28",
      "latitude": 35.4357,
      "longitude": 4.11422
    },
    {
      "id": 12952760,
      "name": "Sidi Aissa",
      "nativeName": "Sidi Aissa",
      "code": "DZ-28-12952760",
      "countryId": 2589581,
      "countryCode": "DZ",
      "stateCode": "DZ-28",
      "latitude": 35.76313,
      "longitude": 3.72225
    },
    {
      "id": 12952460,
      "name": "Sidi Ameur",
      "nativeName": "Sidi Ameur",
      "code": "DZ-28-12952460",
      "countryId": 2589581,
      "countryCode": "DZ",
      "stateCode": "DZ-28",
      "latitude": 35.30345,
      "longitude": 3.85382
    }
  ]
}