{
  "stateId": 2481001,
  "stateCode": "DZ-22",
  "countryCode": "DZ",
  "cities": [
    {
      "id": 12952804,
      "name": "Ain El Berd",
      "nativeName": "Ain El Berd",
      "code": "DZ-22-12952804",
      "countryId": 2589581,
      "countryCode": "DZ",
      "stateCode": "DZ-22",
      "latitude": 35.3426,
      "longitude": -0.51014
    },
    {
      "id": 11204640,
      "name": "Ben Badis District",
      "nativeName": "Ben Badis District",
      "code": "DZ-22-11204640",
      "countryId": 2589581,
      "countryCode": "DZ",
      "stateCode": "DZ-22",
      "latitude": 34.9517,
      "longitude": -0.9139
    },
    {
      "id": 2481003,
      "name": "Daïra de Sidi Bel Abbès",
      "nativeName": "Daïra de Sidi Bel Abbès",
      "code": "DZ-22-2481003",
      "countryId": 2589581,
      "countryCode": "DZ",
      "stateCode": "DZ-22",
      "latitude": 35.20498,
      "longitude": -0.62353
    },
    {
      "id": 12952805,
      "name": "Marhoum",
      "nativeName": "Marhoum",
      "code": "DZ-22-12952805",
      "countryId": 2589581,
      "countryCode": "DZ",
      "stateCode": "DZ-22",
      "latitude": 34.32799,
      "longitude": -0.32071
    },
    {
      "id": 12952807,
      "name": "Merine",
      "nativeName": "Merine",
      "code": "DZ-22-12952807",
      "countryId": 2589581,
      "countryCode": "DZ",
      "stateCode": "DZ-22",
      "latitude": 34.68811,
      "longitude": -0.30903
    },
    {
      "id": 12952808,
      "name": "Mostefa  Ben Brahim",
      "nativeName": "Mostefa  Ben Brahim",
      "code": "DZ-22-12952808",
      "countryId": 2589581,
      "countryCode": "DZ",
      "stateCode": "DZ-22",
      "latitude": 35.19148,
      "longitude": -0.44311
    },
    {
      "id": 12952806,
      "name": "Moulay Slissen",
      "nativeName": "Moulay Slissen",
      "code": "DZ-22-12952806",
      "countryId": 2589581,
      "countryCode": "DZ",
      "stateCode": "DZ-22",
      "latitude": 34.77977,
      "longitude": -0.76865
    },
    {
      "id": 12952809,
      "name": "Ras El Ma",
      "nativeName": "Ras El Ma",
      "code": "DZ-22-12952809",
      "countryId": 2589581,
      "countryCode": "DZ",
      "stateCode": "DZ-22",
      "latitude": 34.4067,
      "longitude": -0.82139
    },
    {
      "id": 12952811,
      "name": "Sfisef",
      "nativeName": "Sfisef",
      "code": "DZ-22-12952811",
      "countryId": 2589581,
      "countryCode": "DZ",
      "stateCode": "DZ-22",
      "latitude": 35.2525,
      "longitude": -0.28084
    },
    {
      "id": 12952812,
      "name": "Sidi Ali Ben Youb",
      "nativeName": "Sidi Ali Ben Youb",
      "code": "DZ-22-12952812",
      "countryId": 2589581,
      "countryCode": "DZ",
      "stateCode": "DZ-22",
      "latitude": 34.9977,
      "longitude": -0.71912
    },
    {
      "id": 12952810,
      "name": "Sidi Ali Boussidi",
      "nativeName": "Sidi Ali Boussidi",
      "code": "DZ-22-12952810",
      "countryId": 2589581,
      "countryCode": "DZ",
      "stateCode": "DZ-22",
      "latitude": 35.11291,
      "longitude": -0.86962
    },
    {
      "id": 12952813,
      "name": "Sidi Lahcene",
      "nativeName": "Sidi Lahcene",
      "code": "DZ-22-12952813",
      "countryId": 2589581,
      "countryCode": "DZ",
      "stateCode": "DZ-22",
      "latitude": 35.14167,
      "longitude": -0.69041
    },
    {
      "id": 12952815,
      "name": "Tenira",
      "nativeName": "Tenira",
      "code": "DZ-22-12952815",
      "countryId": 2589581,
      "countryCode": "DZ",
      "stateCode": "DZ-22",
      "latitude": 35.01653,
      "longitude": -0.44523
    },
    {
      "id": 12952814,
      "name": "Tessala",
      "nativeName": "Tessala",
      "code": "DZ-22-12952814",
      "countryId": 2589581,
      "countryCode": "DZ",
      "stateCode": "DZ-22",
      "latitude": 35.2718,
      "longitude": -0.75313
    },
    {
      "id": 2477275,
      "name": "Télagh District",
      "nativeName": "Daïra de Télagh",
      "code": "DZ-22-2477275",
      "countryId": 2589581,
      "countryCode": "DZ",
      "stateCode": "DZ-22",
      "latitude": 34.77655,
      "longitude": -0.5848
    }
  ]
}