{
  "stateId": 7602690,
  "stateCode": "LY-JI",
  "countryCode": "LY",
  "cities": [
    {
      "id": 2220139,
      "name": "Al ‘Azīzīyah",
      "nativeName": "Al ‘Azīzīyah",
      "code": "LY-JI-2220139",
      "countryId": 2215636,
      "countryCode": "LY",
      "stateCode": "LY-JI",
      "latitude": 32.53194,
      "longitude": 13.0175
    },
    {
      "id": 2220480,
      "name": "Abū Ghaylān",
      "nativeName": "Abū Ghaylān",
      "code": "LY-JI-2220480",
      "countryId": 2215636,
      "countryCode": "LY",
      "stateCode": "LY-JI",
      "latitude": 32.26667,
      "longitude": 13.01667
    },
    {
      "id": 2219823,
      "name": "Al Mashāshiţah",
      "nativeName": "Al Mashāshiţah",
      "code": "LY-JI-2219823",
      "countryId": 2215636,
      "countryCode": "LY",
      "stateCode": "LY-JI",
      "latitude": 32.79842,
      "longitude": 12.99914
    },
    {
      "id": 2219847,
      "name": "Al Ma‘mūrah",
      "nativeName": "Al Ma‘mūrah",
      "code": "LY-JI-2219847",
      "countryId": 2215636,
      "countryCode": "LY",
      "stateCode": "LY-JI",
      "latitude": 32.71917,
      "longitude": 12.85694
    },
    {
      "id": 2219812,
      "name": "Al Māyah",
      "nativeName": "Al Māyah",
      "code": "LY-JI-2219812",
      "countryId": 2215636,
      "countryCode": "LY",
      "stateCode": "LY-JI",
      "latitude": 32.80194,
      "longitude": 12.87917
    },
    {
      "id": 2219591,
      "name": "An Nāşirīyah",
      "nativeName": "An Nāşirīyah",
      "code": "LY-JI-2219591",
      "countryId": 2215636,
      "countryCode": "LY",
      "stateCode": "LY-JI",
      "latitude": 32.63278,
      "longitude": 12.87361
    },
    {
      "id": 2219356,
      "name": "As Sawānī",
      "nativeName": "As Sawānī",
      "code": "LY-JI-2219356",
      "countryId": 2215636,
      "countryCode": "LY",
      "stateCode": "LY-JI",
      "latitude": 32.71667,
      "longitude": 13.06667
    },
    {
      "id": 2219209,
      "name": "Awlād Abū Salāmah",
      "nativeName": "Awlād Abū Salāmah",
      "code": "LY-JI-2219209",
      "countryId": 2215636,
      "countryCode": "LY",
      "stateCode": "LY-JI",
      "latitude": 32.25,
      "longitude": 13.03333
    },
    {
      "id": 2218983,
      "name": "Az Zahrā’",
      "nativeName": "Az Zahrā’",
      "code": "LY-JI-2218983",
      "countryId": 2215636,
      "countryCode": "LY",
      "stateCode": "LY-JI",
      "latitude": 32.67889,
      "longitude": 12.87327
    },
    {
      "id": 2218978,
      "name": "Az Zamāmiqah",
      "nativeName": "Az Zamāmiqah",
      "code": "LY-JI-2218978",
      "countryId": 2215636,
      "countryCode": "LY",
      "stateCode": "LY-JI",
      "latitude": 32.24806,
      "longitude": 13.03694
    },
    {
      "id": 2218836,
      "name": "Banī Yakhlaf",
      "nativeName": "Banī Yakhlaf",
      "code": "LY-JI-2218836",
      "countryId": 2215636,
      "countryCode": "LY",
      "stateCode": "LY-JI",
      "latitude": 32.23278,
      "longitude": 13.01
    },
    {
      "id": 2591263,
      "name": "Banī Yakhlif",
      "nativeName": "Banī Yakhlif",
      "code": "LY-JI-2591263",
      "countryId": 2215636,
      "countryCode": "LY",
      "stateCode": "LY-JI",
      "latitude": 32.23278,
      "longitude": 13.03861
    },
    {
      "id": 2218279,
      "name": "Bū Ghaylān",
      "nativeName": "Bū Ghaylān",
      "code": "LY-JI-2218279",
      "countryId": 2215636,
      "countryCode": "LY",
      "stateCode": "LY-JI",
      "latitude": 32.27363,
      "longitude": 13.02909
    },
    {
      "id": 2217470,
      "name": "Funduq ash Shaybānī",
      "nativeName": "Funduq ash Shaybānī",
      "code": "LY-JI-2217470",
      "countryId": 2215636,
      "countryCode": "LY",
      "stateCode": "LY-JI",
      "latitude": 32.38333,
      "longitude": 13.05
    },
    {
      "id": 2216349,
      "name": "Janzūr",
      "nativeName": "Janzūr",
      "code": "LY-JI-2216349",
      "countryId": 2215636,
      "countryCode": "LY",
      "stateCode": "LY-JI",
      "latitude": 32.81868,
      "longitude": 13.01727
    },
    {
      "id": 2214901,
      "name": "Minţaqat al Ḩashshān",
      "nativeName": "Minţaqat al Ḩashshān",
      "code": "LY-JI-2214901",
      "countryId": 2215636,
      "countryCode": "LY",
      "stateCode": "LY-JI",
      "latitude": 32.7425,
      "longitude": 12.91472
    },
    {
      "id": 2214235,
      "name": "Qabīlat Awlād Bin Aḩmad",
      "nativeName": "Qabīlat Awlād Bin Aḩmad",
      "code": "LY-JI-2214235",
      "countryId": 2215636,
      "countryCode": "LY",
      "stateCode": "LY-JI",
      "latitude": 32.83611,
      "longitude": 13.07222
    },
    {
      "id": 2214279,
      "name": "Qabīlat al Abqār",
      "nativeName": "Qabīlat al Abqār",
      "code": "LY-JI-2214279",
      "countryId": 2215636,
      "countryCode": "LY",
      "stateCode": "LY-JI",
      "latitude": 32.26228,
      "longitude": 13.03194
    },
    {
      "id": 2214251,
      "name": "Qabīlat ar Raḩbah",
      "nativeName": "Qabīlat ar Raḩbah",
      "code": "LY-JI-2214251",
      "countryId": 2215636,
      "countryCode": "LY",
      "stateCode": "LY-JI",
      "latitude": 32.25,
      "longitude": 13.03333
    },
    {
      "id": 2213958,
      "name": "Qaryat ad Darārifah",
      "nativeName": "Qaryat ad Darārifah",
      "code": "LY-JI-2213958",
      "countryId": 2215636,
      "countryCode": "LY",
      "stateCode": "LY-JI",
      "latitude": 32.2175,
      "longitude": 13.01722
    },
    {
      "id": 2208400,
      "name": "Sawānī Bin Ādam",
      "nativeName": "Sawānī Bin Ādam",
      "code": "LY-JI-2208400",
      "countryId": 2215636,
      "countryCode": "LY",
      "stateCode": "LY-JI",
      "latitude": 32.71252,
      "longitude": 13.06725
    },
    {
      "id": 2212375,
      "name": "Şayyād",
      "nativeName": "Şayyād",
      "code": "LY-JI-2212375",
      "countryId": 2215636,
      "countryCode": "LY",
      "stateCode": "LY-JI",
      "latitude": 32.81667,
      "longitude": 12.95
    }
  ]
}