{
  "stateId": 88932,
  "stateCode": "LY-KF",
  "countryCode": "LY",
  "cities": [
    {
      "id": 89005,
      "name": "Al Hawwārī",
      "nativeName": "Al Hawwārī",
      "code": "LY-KF-89005",
      "countryId": 2215636,
      "countryCode": "LY",
      "stateCode": "LY-KF",
      "latitude": 24.31667,
      "longitude": 23.16667
    },
    {
      "id": 88962,
      "name": "Al Jawf",
      "nativeName": "Al Jawf",
      "code": "LY-KF-88962",
      "countryId": 2215636,
      "countryCode": "LY",
      "stateCode": "LY-KF",
      "latitude": 24.1989,
      "longitude": 23.29093
    },
    {
      "id": 88818,
      "name": "Al ‘Uwaynāt",
      "nativeName": "Al ‘Uwaynāt",
      "code": "LY-KF-88818",
      "countryId": 2215636,
      "countryCode": "LY",
      "stateCode": "LY-KF",
      "latitude": 21.56667,
      "longitude": 24.83333
    },
    {
      "id": 88562,
      "name": "At Tāj",
      "nativeName": "At Tāj",
      "code": "LY-KF-88562",
      "countryId": 2215636,
      "countryCode": "LY",
      "stateCode": "LY-KF",
      "latitude": 24.20487,
      "longitude": 23.2857
    },
    {
      "id": 88559,
      "name": "Aţ Ţallāb",
      "nativeName": "Aţ Ţallāb",
      "code": "LY-KF-88559",
      "countryId": 2215636,
      "countryCode": "LY",
      "stateCode": "LY-KF",
      "latitude": 24.01667,
      "longitude": 23.16667
    },
    {
      "id": 88147,
      "name": "Buzaymah",
      "nativeName": "Buzaymah",
      "code": "LY-KF-88147",
      "countryId": 2215636,
      "countryCode": "LY",
      "stateCode": "LY-KF",
      "latitude": 24.91667,
      "longitude": 22.03333
    },
    {
      "id": 12060328,
      "name": "Kontangyi",
      "nativeName": "Kontangyi",
      "code": "LY-KF-12060328",
      "countryId": 2215636,
      "countryCode": "LY",
      "stateCode": "LY-KF",
      "latitude": 21.14356,
      "longitude": 21.14356
    },
    {
      "id": 84997,
      "name": "Ma‘tan as Sārah",
      "nativeName": "Ma‘tan as Sārah",
      "code": "LY-KF-84997",
      "countryId": 2215636,
      "countryCode": "LY",
      "stateCode": "LY-KF",
      "latitude": 21.68333,
      "longitude": 21.86667
    },
    {
      "id": 84346,
      "name": "Posto Trucchi",
      "nativeName": "Posto Trucchi",
      "code": "LY-KF-84346",
      "countryId": 2215636,
      "countryCode": "LY",
      "stateCode": "LY-KF",
      "latitude": 26.01667,
      "longitude": 22.23333
    },
    {
      "id": 12687306,
      "name": "Tāzirbū",
      "nativeName": "Tāzirbū",
      "code": "LY-KF-12687306",
      "countryId": 2215636,
      "countryCode": "LY",
      "stateCode": "LY-KF",
      "latitude": 25.67289,
      "longitude": 21.07286
    },
    {
      "id": 80575,
      "name": "Zīghan",
      "nativeName": "Zīghan",
      "code": "LY-KF-80575",
      "countryId": 2215636,
      "countryCode": "LY",
      "stateCode": "LY-KF",
      "latitude": 25.48333,
      "longitude": 22.13333
    },
    {
      "id": 2217665,
      "name": "‘Eoj Wāhş",
      "nativeName": "‘Eoj Wāhş",
      "code": "LY-KF-2217665",
      "countryId": 2215636,
      "countryCode": "LY",
      "stateCode": "LY-KF",
      "latitude": 22.28333,
      "longitude": 19.76667
    }
  ]
}