{
  "stateId": 2214845,
  "stateCode": "LY-MI",
  "countryCode": "LY",
  "cities": [
    {
      "id": 2214846,
      "name": "Misratah",
      "nativeName": "Misratah",
      "code": "LY-MI-2214846",
      "countryId": 2215636,
      "countryCode": "LY",
      "stateCode": "LY-MI",
      "latitude": 32.37535,
      "longitude": 15.09254
    },
    {
      "id": 2220068,
      "name": "Al Ghīrān",
      "nativeName": "Al Ghīrān",
      "code": "LY-MI-2220068",
      "countryId": 2215636,
      "countryCode": "LY",
      "stateCode": "LY-MI",
      "latitude": 32.35,
      "longitude": 15.03333
    },
    {
      "id": 2220054,
      "name": "Al Hadāri‘ah",
      "nativeName": "Al Hadāri‘ah",
      "code": "LY-MI-2220054",
      "countryId": 2215636,
      "countryCode": "LY",
      "stateCode": "LY-MI",
      "latitude": 32.01072,
      "longitude": 15.17891
    },
    {
      "id": 2220007,
      "name": "Al Hayshah",
      "nativeName": "Al Hīshah",
      "code": "LY-MI-2220007",
      "countryId": 2215636,
      "countryCode": "LY",
      "stateCode": "LY-MI",
      "latitude": 31.64827,
      "longitude": 15.27599
    },
    {
      "id": 2219928,
      "name": "Al Karārīm",
      "nativeName": "Al Karārīm",
      "code": "LY-MI-2219928",
      "countryId": 2215636,
      "countryCode": "LY",
      "stateCode": "LY-MI",
      "latitude": 32.39221,
      "longitude": 15.0571
    },
    {
      "id": 2219840,
      "name": "Al Maqāşibah al Baḩrīyah",
      "nativeName": "Al Maqāşibah al Baḩrīyah",
      "code": "LY-MI-2219840",
      "countryId": 2215636,
      "countryCode": "LY",
      "stateCode": "LY-MI",
      "latitude": 32.35757,
      "longitude": 15.10241
    },
    {
      "id": 2219839,
      "name": "Al Maqāşibah al Qiblīyah",
      "nativeName": "Al Maqāşibah al Qiblīyah",
      "code": "LY-MI-2219839",
      "countryId": 2215636,
      "countryCode": "LY",
      "stateCode": "LY-MI",
      "latitude": 32.34225,
      "longitude": 15.10358
    },
    {
      "id": 2220048,
      "name": "Al Ḩalamah",
      "nativeName": "Al Ḩalamah",
      "code": "LY-MI-2220048",
      "countryId": 2215636,
      "countryCode": "LY",
      "stateCode": "LY-MI",
      "latitude": 31.75583,
      "longitude": 14.01806
    },
    {
      "id": 2219485,
      "name": "Ar Rajūbāt",
      "nativeName": "Ar Rajūbāt",
      "code": "LY-MI-2219485",
      "countryId": 2215636,
      "countryCode": "LY",
      "stateCode": "LY-MI",
      "latitude": 32.35,
      "longitude": 15.1
    },
    {
      "id": 2219376,
      "name": "As Sidādah",
      "nativeName": "As Sidādah",
      "code": "LY-MI-2219376",
      "countryId": 2215636,
      "countryCode": "LY",
      "stateCode": "LY-MI",
      "latitude": 31.5175,
      "longitude": 14.75498
    },
    {
      "id": 2219411,
      "name": "Ash Shawāţī",
      "nativeName": "Ash Shawāţī",
      "code": "LY-MI-2219411",
      "countryId": 2215636,
      "countryCode": "LY",
      "stateCode": "LY-MI",
      "latitude": 32.3755,
      "longitude": 15.16549
    },
    {
      "id": 2218840,
      "name": "Bani Walid",
      "nativeName": "Bani Walid",
      "code": "LY-MI-2218840",
      "countryId": 2215636,
      "countryCode": "LY",
      "stateCode": "LY-MI",
      "latitude": 31.74554,
      "longitude": 13.98354
    },
    {
      "id": 11869850,
      "name": "Mallūk",
      "nativeName": "Mallūk",
      "code": "LY-MI-11869850",
      "countryId": 2215636,
      "countryCode": "LY",
      "stateCode": "LY-MI",
      "latitude": 32.01634,
      "longitude": 15.03875
    },
    {
      "id": 2214236,
      "name": "Qabīlat Awlād Ba‘ayyū",
      "nativeName": "Qabīlat Awlād Ba‘ayyū",
      "code": "LY-MI-2214236",
      "countryId": 2215636,
      "countryCode": "LY",
      "stateCode": "LY-MI",
      "latitude": 32.36949,
      "longitude": 15.0611
    },
    {
      "id": 2214237,
      "name": "Qabīlat Awlād aţ Ţāmid",
      "nativeName": "Qabīlat Awlād aţ Ţāmid",
      "code": "LY-MI-2214237",
      "countryId": 2215636,
      "countryCode": "LY",
      "stateCode": "LY-MI",
      "latitude": 31.99672,
      "longitude": 15.19093
    },
    {
      "id": 2214217,
      "name": "Qabīlat Mantar",
      "nativeName": "Qabīlat Mantar",
      "code": "LY-MI-2214217",
      "countryId": 2215636,
      "countryCode": "LY",
      "stateCode": "LY-MI",
      "latitude": 32.38743,
      "longitude": 15.06595
    },
    {
      "id": 2214262,
      "name": "Qabīlat al Malā’iţah",
      "nativeName": "Qabīlat al Malā’iţah",
      "code": "LY-MI-2214262",
      "countryId": 2215636,
      "countryCode": "LY",
      "stateCode": "LY-MI",
      "latitude": 32.37566,
      "longitude": 15.18648
    },
    {
      "id": 2214261,
      "name": "Qabīlat al Maqşabah",
      "nativeName": "Qabīlat al Maqşabah",
      "code": "LY-MI-2214261",
      "countryId": 2215636,
      "countryCode": "LY",
      "stateCode": "LY-MI",
      "latitude": 32.37069,
      "longitude": 15.09009
    },
    {
      "id": 2214256,
      "name": "Qabīlat al Qazzīr",
      "nativeName": "Qabīlat al Qazzīr",
      "code": "LY-MI-2214256",
      "countryId": 2215636,
      "countryCode": "LY",
      "stateCode": "LY-MI",
      "latitude": 32.35027,
      "longitude": 15.07225
    },
    {
      "id": 11799863,
      "name": "Qal‘at al Wasaţ",
      "nativeName": "Qal‘at al Wasaţ",
      "code": "LY-MI-11799863",
      "countryId": 2215636,
      "countryCode": "LY",
      "stateCode": "LY-MI",
      "latitude": 31.43609,
      "longitude": 14.00328
    },
    {
      "id": 2220416,
      "name": "Qaryat Abū Qurayn",
      "nativeName": "Qaryat Abū Qurayn",
      "code": "LY-MI-2220416",
      "countryId": 2215636,
      "countryCode": "LY",
      "stateCode": "LY-MI",
      "latitude": 31.44893,
      "longitude": 15.25345
    },
    {
      "id": 2213960,
      "name": "Qaryat Abū Shārwal",
      "nativeName": "Qaryat Abū Shārwal",
      "code": "LY-MI-2213960",
      "countryId": 2215636,
      "countryCode": "LY",
      "stateCode": "LY-MI",
      "latitude": 32.3923,
      "longitude": 15.13265
    },
    {
      "id": 2213891,
      "name": "Qaryat Awlā Bin Shayyah",
      "nativeName": "Qaryat Awlā Bin Shayyah",
      "code": "LY-MI-2213891",
      "countryId": 2215636,
      "countryCode": "LY",
      "stateCode": "LY-MI",
      "latitude": 32.37878,
      "longitude": 15.13401
    },
    {
      "id": 2213890,
      "name": "Qaryat Awlād Abū Sha‘‘ālah",
      "nativeName": "Qaryat Awlād Abū Sha‘‘ālah",
      "code": "LY-MI-2213890",
      "countryId": 2215636,
      "countryCode": "LY",
      "stateCode": "LY-MI",
      "latitude": 32.37434,
      "longitude": 15.15206
    },
    {
      "id": 2213874,
      "name": "Qaryat Ballālah",
      "nativeName": "Qaryat Ballālah",
      "code": "LY-MI-2213874",
      "countryId": 2215636,
      "countryCode": "LY",
      "stateCode": "LY-MI",
      "latitude": 32.37216,
      "longitude": 15.16528
    },
    {
      "id": 2213868,
      "name": "Qaryat Bū Ruwayyah",
      "nativeName": "Qaryat Bū Ruwayyah",
      "code": "LY-MI-2213868",
      "countryId": 2215636,
      "countryCode": "LY",
      "stateCode": "LY-MI",
      "latitude": 32.38904,
      "longitude": 14.95395
    },
    {
      "id": 2213865,
      "name": "Qaryat Dajājirah",
      "nativeName": "Qaryat Dajājirah",
      "code": "LY-MI-2213865",
      "countryId": 2215636,
      "countryCode": "LY",
      "stateCode": "LY-MI",
      "latitude": 32.33841,
      "longitude": 15.13129
    },
    {
      "id": 2213858,
      "name": "Qaryat Ismā‘īl",
      "nativeName": "Qaryat Ismā‘īl",
      "code": "LY-MI-2213858",
      "countryId": 2215636,
      "countryCode": "LY",
      "stateCode": "LY-MI",
      "latitude": 32.39405,
      "longitude": 15.1404
    },
    {
      "id": 2213848,
      "name": "Qaryat Qarārah",
      "nativeName": "Qaryat Qarārah",
      "code": "LY-MI-2213848",
      "countryId": 2215636,
      "countryCode": "LY",
      "stateCode": "LY-MI",
      "latitude": 32.38009,
      "longitude": 15.11787
    },
    {
      "id": 2213841,
      "name": "Qaryat Ra’s Abū Ḩammār",
      "nativeName": "Qaryat Ra’s Abū Ḩammār",
      "code": "LY-MI-2213841",
      "countryId": 2215636,
      "countryCode": "LY",
      "stateCode": "LY-MI",
      "latitude": 32.36485,
      "longitude": 15.15359
    },
    {
      "id": 2213839,
      "name": "Qaryat Ra’s ath Thūmah",
      "nativeName": "Qaryat Ra’s ath Thūmah",
      "code": "LY-MI-2213839",
      "countryId": 2215636,
      "countryCode": "LY",
      "stateCode": "LY-MI",
      "latitude": 32.38249,
      "longitude": 15.09088
    },
    {
      "id": 2213840,
      "name": "Qaryat Ra’s ‘Alī",
      "nativeName": "Qaryat Ra’s ‘Alī",
      "code": "LY-MI-2213840",
      "countryId": 2215636,
      "countryCode": "LY",
      "stateCode": "LY-MI",
      "latitude": 32.37902,
      "longitude": 15.1072
    },
    {
      "id": 2213838,
      "name": "Qaryat Rufaydah",
      "nativeName": "Qaryat Rufaydah",
      "code": "LY-MI-2213838",
      "countryId": 2215636,
      "countryCode": "LY",
      "stateCode": "LY-MI",
      "latitude": 32.33158,
      "longitude": 15.0974
    },
    {
      "id": 2213833,
      "name": "Qaryat Shumaykh",
      "nativeName": "Qaryat Shumaykh",
      "code": "LY-MI-2213833",
      "countryId": 2215636,
      "countryCode": "LY",
      "stateCode": "LY-MI",
      "latitude": 31.41169,
      "longitude": 13.95186
    },
    {
      "id": 2213830,
      "name": "Qaryat Su‘ūd",
      "nativeName": "Qaryat Su‘ūd",
      "code": "LY-MI-2213830",
      "countryId": 2215636,
      "countryCode": "LY",
      "stateCode": "LY-MI",
      "latitude": 32.38568,
      "longitude": 15.13236
    },
    {
      "id": 2213959,
      "name": "Qaryat ad Dabābisah",
      "nativeName": "Qaryat ad Dabābisah",
      "code": "LY-MI-2213959",
      "countryId": 2215636,
      "countryCode": "LY",
      "stateCode": "LY-MI",
      "latitude": 32.29413,
      "longitude": 15.09648
    },
    {
      "id": 2213956,
      "name": "Qaryat ad Dawā’irah",
      "nativeName": "Qaryat ad Dawā’irah",
      "code": "LY-MI-2213956",
      "countryId": 2215636,
      "countryCode": "LY",
      "stateCode": "LY-MI",
      "latitude": 31.37193,
      "longitude": 14.5386
    },
    {
      "id": 2213941,
      "name": "Qaryat al Ghawīl",
      "nativeName": "Qaryat al Ghawīl",
      "code": "LY-MI-2213941",
      "countryId": 2215636,
      "countryCode": "LY",
      "stateCode": "LY-MI",
      "latitude": 32.37278,
      "longitude": 15.12961
    },
    {
      "id": 2213940,
      "name": "Qaryat al Ghūţ",
      "nativeName": "Qaryat al Ghūţ",
      "code": "LY-MI-2213940",
      "countryId": 2215636,
      "countryCode": "LY",
      "stateCode": "LY-MI",
      "latitude": 32.38592,
      "longitude": 15.10749
    },
    {
      "id": 2213939,
      "name": "Qaryat al Habārah",
      "nativeName": "Qaryat al Habārah",
      "code": "LY-MI-2213939",
      "countryId": 2215636,
      "countryCode": "LY",
      "stateCode": "LY-MI",
      "latitude": 32.36165,
      "longitude": 15.14877
    },
    {
      "id": 2213930,
      "name": "Qaryat al Jaţāliwah",
      "nativeName": "Qaryat al Jaţāliwah",
      "code": "LY-MI-2213930",
      "countryId": 2215636,
      "countryCode": "LY",
      "stateCode": "LY-MI",
      "latitude": 32.38621,
      "longitude": 15.15469
    },
    {
      "id": 2213932,
      "name": "Qaryat al Ja‘āfirah",
      "nativeName": "Qaryat al Ja‘āfirah",
      "code": "LY-MI-2213932",
      "countryId": 2215636,
      "countryCode": "LY",
      "stateCode": "LY-MI",
      "latitude": 32.37523,
      "longitude": 15.1492
    },
    {
      "id": 2213926,
      "name": "Qaryat al Kārrān",
      "nativeName": "Qaryat al Kārrān",
      "code": "LY-MI-2213926",
      "countryId": 2215636,
      "countryCode": "LY",
      "stateCode": "LY-MI",
      "latitude": 32.36016,
      "longitude": 15.12602
    },
    {
      "id": 2213922,
      "name": "Qaryat al Maghāribah",
      "nativeName": "Qaryat al Maghāribah",
      "code": "LY-MI-2213922",
      "countryId": 2215636,
      "countryCode": "LY",
      "stateCode": "LY-MI",
      "latitude": 32.3958,
      "longitude": 15.11844
    },
    {
      "id": 2219768,
      "name": "Qaryat al Qaddāḩīyah",
      "nativeName": "Qaryat al Qaddāḩīyah",
      "code": "LY-MI-2219768",
      "countryId": 2215636,
      "countryCode": "LY",
      "stateCode": "LY-MI",
      "latitude": 31.36016,
      "longitude": 15.2476
    },
    {
      "id": 2213914,
      "name": "Qaryat al Quşaybāt",
      "nativeName": "Qaryat al Quşaybāt",
      "code": "LY-MI-2213914",
      "countryId": 2215636,
      "countryCode": "LY",
      "stateCode": "LY-MI",
      "latitude": 32.40239,
      "longitude": 15.09016
    },
    {
      "id": 2213912,
      "name": "Qaryat al Wafāwāt",
      "nativeName": "Qaryat al Wafāwāt",
      "code": "LY-MI-2213912",
      "countryId": 2215636,
      "countryCode": "LY",
      "stateCode": "LY-MI",
      "latitude": 32.39642,
      "longitude": 15.1206
    },
    {
      "id": 2213951,
      "name": "Qaryat al ‘Arīmah",
      "nativeName": "Qaryat al ‘Arīmah",
      "code": "LY-MI-2213951",
      "countryId": 2215636,
      "countryCode": "LY",
      "stateCode": "LY-MI",
      "latitude": 31.43279,
      "longitude": 13.9761
    },
    {
      "id": 2213950,
      "name": "Qaryat al ‘Awā’idah",
      "nativeName": "Qaryat al ‘Awā’idah",
      "code": "LY-MI-2213950",
      "countryId": 2215636,
      "countryCode": "LY",
      "stateCode": "LY-MI",
      "latitude": 32.39504,
      "longitude": 15.10485
    },
    {
      "id": 2213904,
      "name": "Qaryat ar Ramlah",
      "nativeName": "Qaryat ar Ramlah",
      "code": "LY-MI-2213904",
      "countryId": 2215636,
      "countryCode": "LY",
      "stateCode": "LY-MI",
      "latitude": 32.38523,
      "longitude": 15.1288
    },
    {
      "id": 2213905,
      "name": "Qaryat ar Ra‘īţāt",
      "nativeName": "Qaryat ar Ra‘īţāt",
      "code": "LY-MI-2213905",
      "countryId": 2215636,
      "countryCode": "LY",
      "stateCode": "LY-MI",
      "latitude": 32.36699,
      "longitude": 15.15883
    },
    {
      "id": 2213903,
      "name": "Qaryat ar Ru’aysāt",
      "nativeName": "Qaryat ar Ru’aysāt",
      "code": "LY-MI-2213903",
      "countryId": 2215636,
      "countryCode": "LY",
      "stateCode": "LY-MI",
      "latitude": 32.36601,
      "longitude": 15.1114
    },
    {
      "id": 2213902,
      "name": "Qaryat ar Rūş",
      "nativeName": "Qaryat ar Rūş",
      "code": "LY-MI-2213902",
      "countryId": 2215636,
      "countryCode": "LY",
      "stateCode": "LY-MI",
      "latitude": 32.37389,
      "longitude": 15.1698
    },
    {
      "id": 2213896,
      "name": "Qaryat as Subaykhāt",
      "nativeName": "Qaryat as Subaykhāt",
      "code": "LY-MI-2213896",
      "countryId": 2215636,
      "countryCode": "LY",
      "stateCode": "LY-MI",
      "latitude": 32.3944,
      "longitude": 15.12485
    },
    {
      "id": 2213913,
      "name": "Qaryat at Tawālikīyah",
      "nativeName": "Qaryat at Tawālikīyah",
      "code": "LY-MI-2213913",
      "countryId": 2215636,
      "countryCode": "LY",
      "stateCode": "LY-MI",
      "latitude": 32.39181,
      "longitude": 15.11889
    },
    {
      "id": 2218974,
      "name": "Qaryat az Zarrūq",
      "nativeName": "Qaryat az Zarrūq",
      "code": "LY-MI-2218974",
      "countryId": 2215636,
      "countryCode": "LY",
      "stateCode": "LY-MI",
      "latitude": 32.3749,
      "longitude": 15.13348
    },
    {
      "id": 2213898,
      "name": "Qaryat aş Şabāyah",
      "nativeName": "Qaryat aş Şabāyah",
      "code": "LY-MI-2213898",
      "countryId": 2215636,
      "countryCode": "LY",
      "stateCode": "LY-MI",
      "latitude": 31.40217,
      "longitude": 14.23342
    },
    {
      "id": 2213901,
      "name": "Qaryat aş Şawābīyah",
      "nativeName": "Qaryat aş Şawābīyah",
      "code": "LY-MI-2213901",
      "countryId": 2215636,
      "countryCode": "LY",
      "stateCode": "LY-MI",
      "latitude": 32.35215,
      "longitude": 15.11687
    },
    {
      "id": 2213897,
      "name": "Qaryat aş Şawādiq",
      "nativeName": "Qaryat aş Şawādiq",
      "code": "LY-MI-2213897",
      "countryId": 2215636,
      "countryCode": "LY",
      "stateCode": "LY-MI",
      "latitude": 32.0219,
      "longitude": 15.12111
    },
    {
      "id": 2213895,
      "name": "Qaryat aş Şūwāk ‘Ayn Ghulū",
      "nativeName": "Qaryat aş Şūwāk ‘Ayn Ghulū",
      "code": "LY-MI-2213895",
      "countryId": 2215636,
      "countryCode": "LY",
      "stateCode": "LY-MI",
      "latitude": 32.34728,
      "longitude": 15.12574
    },
    {
      "id": 2213831,
      "name": "Qaryat Şūr A‘rābī",
      "nativeName": "Qaryat Şūr A‘rābī",
      "code": "LY-MI-2213831",
      "countryId": 2215636,
      "countryCode": "LY",
      "stateCode": "LY-MI",
      "latitude": 32.38872,
      "longitude": 15.1092
    },
    {
      "id": 2213832,
      "name": "Qaryat Şūr al ‘Ūd",
      "nativeName": "Qaryat Şūr al ‘Ūd",
      "code": "LY-MI-2213832",
      "countryId": 2215636,
      "countryCode": "LY",
      "stateCode": "LY-MI",
      "latitude": 32.38623,
      "longitude": 15.13626
    },
    {
      "id": 2213860,
      "name": "Qaryat Ḩasan al Ḩājj",
      "nativeName": "Qaryat Ḩasan al Ḩājj",
      "code": "LY-MI-2213860",
      "countryId": 2215636,
      "countryCode": "LY",
      "stateCode": "LY-MI",
      "latitude": 32.38755,
      "longitude": 15.11617
    },
    {
      "id": 2213886,
      "name": "Qaryat ‘Ayn Abū Ghūlah",
      "nativeName": "Qaryat ‘Ayn Abū Ghūlah",
      "code": "LY-MI-2213886",
      "countryId": 2215636,
      "countryCode": "LY",
      "stateCode": "LY-MI",
      "latitude": 32.35589,
      "longitude": 15.13497
    },
    {
      "id": 2213885,
      "name": "Qaryat ‘Ayn Abū Shaybah",
      "nativeName": "Qaryat ‘Ayn Abū Shaybah",
      "code": "LY-MI-2213885",
      "countryId": 2215636,
      "countryCode": "LY",
      "stateCode": "LY-MI",
      "latitude": 32.30003,
      "longitude": 15.09263
    },
    {
      "id": 2213881,
      "name": "Qaryat ‘Ayn Bū al Qā’id",
      "nativeName": "Qaryat ‘Ayn Bū al Qā’id",
      "code": "LY-MI-2213881",
      "countryId": 2215636,
      "countryCode": "LY",
      "stateCode": "LY-MI",
      "latitude": 32.3618,
      "longitude": 15.11542
    },
    {
      "id": 2213880,
      "name": "Qaryat ‘Ayn Fakrūnah",
      "nativeName": "Qaryat ‘Ayn Fakrūnah",
      "code": "LY-MI-2213880",
      "countryId": 2215636,
      "countryCode": "LY",
      "stateCode": "LY-MI",
      "latitude": 32.37018,
      "longitude": 15.10515
    },
    {
      "id": 2213879,
      "name": "Qaryat ‘Ayn Kurayyim",
      "nativeName": "Qaryat ‘Ayn Kurayyim",
      "code": "LY-MI-2213879",
      "countryId": 2215636,
      "countryCode": "LY",
      "stateCode": "LY-MI",
      "latitude": 32.38867,
      "longitude": 15.13787
    },
    {
      "id": 2213878,
      "name": "Qaryat ‘Ayn Makhlūf",
      "nativeName": "Qaryat ‘Ayn Makhlūf",
      "code": "LY-MI-2213878",
      "countryId": 2215636,
      "countryCode": "LY",
      "stateCode": "LY-MI",
      "latitude": 32.34131,
      "longitude": 15.12711
    },
    {
      "id": 2213884,
      "name": "Qaryat ‘Ayn al Kabīr",
      "nativeName": "Qaryat ‘Ayn al Kabīr",
      "code": "LY-MI-2213884",
      "countryId": 2215636,
      "countryCode": "LY",
      "stateCode": "LY-MI",
      "latitude": 32.32339,
      "longitude": 15.10696
    },
    {
      "id": 2213883,
      "name": "Qaryat ‘Ayn al Madham",
      "nativeName": "Qaryat ‘Ayn al Madham",
      "code": "LY-MI-2213883",
      "countryId": 2215636,
      "countryCode": "LY",
      "stateCode": "LY-MI",
      "latitude": 32.35102,
      "longitude": 15.13249
    },
    {
      "id": 2213882,
      "name": "Qaryat ‘Ayn az Zayt",
      "nativeName": "Qaryat ‘Ayn az Zayt",
      "code": "LY-MI-2213882",
      "countryId": 2215636,
      "countryCode": "LY",
      "stateCode": "LY-MI",
      "latitude": 32.34302,
      "longitude": 15.14088
    },
    {
      "id": 2213364,
      "name": "Qarzah",
      "nativeName": "Qarzah",
      "code": "LY-MI-2213364",
      "countryId": 2215636,
      "countryCode": "LY",
      "stateCode": "LY-MI",
      "latitude": 30.96592,
      "longitude": 14.5698
    },
    {
      "id": 2213766,
      "name": "Qaşr Aḩmad al Qiblīyah",
      "nativeName": "Qaşr Aḩmad al Qiblīyah",
      "code": "LY-MI-2213766",
      "countryId": 2215636,
      "countryCode": "LY",
      "stateCode": "LY-MI",
      "latitude": 32.37184,
      "longitude": 15.19881
    },
    {
      "id": 2210091,
      "name": "Tāwurghah",
      "nativeName": "Tāwurghah",
      "code": "LY-MI-2210091",
      "countryId": 2215636,
      "countryCode": "LY",
      "stateCode": "LY-MI",
      "latitude": 32.01195,
      "longitude": 15.11352
    },
    {
      "id": 2213827,
      "name": "Tīnīnāy",
      "nativeName": "Tīnīnāy",
      "code": "LY-MI-2213827",
      "countryId": 2215636,
      "countryCode": "LY",
      "stateCode": "LY-MI",
      "latitude": 31.39334,
      "longitude": 13.74082
    },
    {
      "id": 2208485,
      "name": "Zliten",
      "nativeName": "Zliten",
      "code": "LY-MI-2208485",
      "countryId": 2215636,
      "countryCode": "LY",
      "stateCode": "LY-MI",
      "latitude": 32.46739,
      "longitude": 14.56874
    },
    {
      "id": 2208553,
      "name": "Zāwiyat al Maḩjūb",
      "nativeName": "Zāwiyat al Maḩjūb",
      "code": "LY-MI-2208553",
      "countryId": 2215636,
      "countryCode": "LY",
      "stateCode": "LY-MI",
      "latitude": 32.38443,
      "longitude": 14.98815
    },
    {
      "id": 11800333,
      "name": "Zāzamt",
      "nativeName": "Zāzamt",
      "code": "LY-MI-11800333",
      "countryId": 2215636,
      "countryCode": "LY",
      "stateCode": "LY-MI",
      "latitude": 30.9272,
      "longitude": 14.73217
    },
    {
      "id": 2210314,
      "name": "Ţamīnah",
      "nativeName": "Ţamīnah",
      "code": "LY-MI-2210314",
      "countryId": 2215636,
      "countryCode": "LY",
      "stateCode": "LY-MI",
      "latitude": 32.25,
      "longitude": 15.08333
    }
  ]
}