{
  "stateId": 728379,
  "stateCode": "BG-13",
  "countryCode": "BG",
  "cities": [
    {
      "id": 733431,
      "name": "Batak",
      "nativeName": "Obshtina Batak",
      "code": "BG-13-733431",
      "countryId": 732800,
      "countryCode": "BG",
      "stateCode": "BG-13",
      "latitude": 41.86667,
      "longitude": 24.21667
    },
    {
      "id": 733285,
      "name": "Belovo",
      "nativeName": "Obshtina Belovo",
      "code": "BG-13-733285",
      "countryId": 732800,
      "countryCode": "BG",
      "stateCode": "BG-13",
      "latitude": 42.2,
      "longitude": 23.93333
    },
    {
      "id": 732922,
      "name": "Bratsigovo",
      "nativeName": "Obshtina Bratsigovo",
      "code": "BG-13-732922",
      "countryId": 732800,
      "countryCode": "BG",
      "stateCode": "BG-13",
      "latitude": 42,
      "longitude": 24.4
    },
    {
      "id": 729666,
      "name": "Lesichovo",
      "nativeName": "Obshtina Lesichovo",
      "code": "BG-13-729666",
      "countryId": 732800,
      "countryCode": "BG",
      "stateCode": "BG-13",
      "latitude": 42.36667,
      "longitude": 24.15
    },
    {
      "id": 728447,
      "name": "Panagyurishte",
      "nativeName": "Obshtina Panagyurishte",
      "code": "BG-13-728447",
      "countryId": 732800,
      "countryCode": "BG",
      "stateCode": "BG-13",
      "latitude": 42.5,
      "longitude": 24.16667
    },
    {
      "id": 728376,
      "name": "Pazardzhik",
      "nativeName": "Obshtina Pazardzhik",
      "code": "BG-13-728376",
      "countryId": 732800,
      "countryCode": "BG",
      "stateCode": "BG-13",
      "latitude": 42.2,
      "longitude": 24.33333
    },
    {
      "id": 728315,
      "name": "Peshtera",
      "nativeName": "Obshtina Peshtera",
      "code": "BG-13-728315",
      "countryId": 732800,
      "countryCode": "BG",
      "stateCode": "BG-13",
      "latitude": 42.03333,
      "longitude": 24.3
    },
    {
      "id": 727800,
      "name": "Rakitovo",
      "nativeName": "Obshtina Rakitovo",
      "code": "BG-13-727800",
      "countryId": 732800,
      "countryCode": "BG",
      "stateCode": "BG-13",
      "latitude": 41.99965,
      "longitude": 24.10877
    },
    {
      "id": 726610,
      "name": "Sarnitsa",
      "nativeName": "Sarnitsa Obshtina",
      "code": "BG-13-726610",
      "countryId": 732800,
      "countryCode": "BG",
      "stateCode": "BG-13",
      "latitude": 41.73333,
      "longitude": 24.03333
    },
    {
      "id": 727353,
      "name": "Septemvri",
      "nativeName": "Obshtina Septemvri",
      "code": "BG-13-727353",
      "countryId": 732800,
      "countryCode": "BG",
      "stateCode": "BG-13",
      "latitude": 42.26667,
      "longitude": 24.13333
    },
    {
      "id": 726721,
      "name": "Strelcha",
      "nativeName": "Obshtina Strelcha",
      "code": "BG-13-726721",
      "countryId": 732800,
      "countryCode": "BG",
      "stateCode": "BG-13",
      "latitude": 42.46667,
      "longitude": 24.36667
    },
    {
      "id": 725987,
      "name": "Velingrad",
      "nativeName": "Obshtina Velingrad",
      "code": "BG-13-725987",
      "countryId": 732800,
      "countryCode": "BG",
      "stateCode": "BG-13",
      "latitude": 41.96667,
      "longitude": 23.93333
    }
  ]
}