{
  "countryId": 732800,
  "countryCode": "BG",
  "states": [
    {
      "id": 733192,
      "name": "Blagoevgrad",
      "nativeName": "Blagoevgrad",
      "code": "BG-01",
      "internalCode": "01",
      "countryId": 732800,
      "countryCode": "BG",
      "latitude": 41.73333,
      "longitude": 23.45
    },
    {
      "id": 732771,
      "name": "Burgas",
      "nativeName": "Burgas",
      "code": "BG-02",
      "internalCode": "02",
      "countryId": 732800,
      "countryCode": "BG",
      "latitude": 42.53333,
      "longitude": 27.23333
    },
    {
      "id": 726419,
      "name": "Dobrich",
      "nativeName": "Oblast Dobrich",
      "code": "BG-08",
      "internalCode": "08",
      "countryId": 732800,
      "countryCode": "BG",
      "latitude": 43.68333,
      "longitude": 27.9
    },
    {
      "id": 864552,
      "name": "Gabrovo",
      "nativeName": "Gabrovo",
      "code": "BG-07",
      "internalCode": "07",
      "countryId": 732800,
      "countryCode": "BG",
      "latitude": 42.95,
      "longitude": 25.25
    },
    {
      "id": 730436,
      "name": "Haskovo",
      "nativeName": "Haskovo",
      "code": "BG-26",
      "internalCode": "26",
      "countryId": 732800,
      "countryCode": "BG",
      "latitude": 41.83333,
      "longitude": 25.91667
    },
    {
      "id": 864553,
      "name": "Kardzhali",
      "nativeName": "Oblast Kardzhali",
      "code": "BG-09",
      "internalCode": "09",
      "countryId": 732800,
      "countryCode": "BG",
      "latitude": 41.53333,
      "longitude": 25.43333
    },
    {
      "id": 864554,
      "name": "Kyustendil",
      "nativeName": "Oblast Kyustendil",
      "code": "BG-10",
      "internalCode": "10",
      "countryId": 732800,
      "countryCode": "BG",
      "latitude": 42.25,
      "longitude": 22.9
    },
    {
      "id": 729560,
      "name": "Lovech",
      "nativeName": "Lovech",
      "code": "BG-11",
      "internalCode": "11",
      "countryId": 732800,
      "countryCode": "BG",
      "latitude": 43.03333,
      "longitude": 24.56667
    },
    {
      "id": 453753,
      "name": "Montana",
      "nativeName": "Oblast Montana",
      "code": "BG-12",
      "internalCode": "12",
      "countryId": 732800,
      "countryCode": "BG",
      "latitude": 43.5,
      "longitude": 23.18333
    },
    {
      "id": 728379,
      "name": "Pazardzhik",
      "nativeName": "Pazardzhik",
      "code": "BG-13",
      "internalCode": "13",
      "countryId": 732800,
      "countryCode": "BG",
      "latitude": 42.08333,
      "longitude": 24.16667
    },
    {
      "id": 728331,
      "name": "Pernik",
      "nativeName": "Pernik",
      "code": "BG-14",
      "internalCode": "14",
      "countryId": 732800,
      "countryCode": "BG",
      "latitude": 42.63333,
      "longitude": 22.88333
    },
    {
      "id": 728204,
      "name": "Pleven",
      "nativeName": "Oblast Pleven",
      "code": "BG-15",
      "internalCode": "15",
      "countryId": 732800,
      "countryCode": "BG",
      "latitude": 43.5,
      "longitude": 24.63333
    },
    {
      "id": 728194,
      "name": "Plovdiv",
      "nativeName": "Plovdiv",
      "code": "BG-16",
      "internalCode": "16",
      "countryId": 732800,
      "countryCode": "BG",
      "latitude": 42.26667,
      "longitude": 24.83333
    },
    {
      "id": 453751,
      "name": "Razgrad",
      "nativeName": "Oblast Razgrad",
      "code": "BG-17",
      "internalCode": "17",
      "countryId": 732800,
      "countryCode": "BG",
      "latitude": 43.65,
      "longitude": 26.6
    },
    {
      "id": 727524,
      "name": "Ruse",
      "nativeName": "Oblast Ruse",
      "code": "BG-18",
      "internalCode": "18",
      "countryId": 732800,
      "countryCode": "BG",
      "latitude": 43.7,
      "longitude": 26
    },
    {
      "id": 864555,
      "name": "Shumen",
      "nativeName": "Oblast Shumen",
      "code": "BG-27",
      "internalCode": "27",
      "countryId": 732800,
      "countryCode": "BG",
      "latitude": 43.33333,
      "longitude": 27
    },
    {
      "id": 864556,
      "name": "Silistra",
      "nativeName": "Oblast Silistra",
      "code": "BG-19",
      "internalCode": "19",
      "countryId": 732800,
      "countryCode": "BG",
      "latitude": 43.93333,
      "longitude": 27.05
    },
    {
      "id": 864557,
      "name": "Sliven",
      "nativeName": "Oblast Sliven",
      "code": "BG-20",
      "internalCode": "20",
      "countryId": 732800,
      "countryCode": "BG",
      "latitude": 42.66667,
      "longitude": 26.28333
    },
    {
      "id": 864558,
      "name": "Smolyan",
      "nativeName": "Oblast Smolyan",
      "code": "BG-21",
      "internalCode": "21",
      "countryId": 732800,
      "countryCode": "BG",
      "latitude": 41.61667,
      "longitude": 24.65
    },
    {
      "id": 727012,
      "name": "Sofia",
      "nativeName": "Sofia",
      "code": "BG-23",
      "internalCode": "23",
      "countryId": 732800,
      "countryCode": "BG",
      "latitude": 42.66667,
      "longitude": 23.8
    },
    {
      "id": 731061,
      "name": "Sofia-grad",
      "nativeName": "Sofia-Grad",
      "code": "BG-22",
      "internalCode": "22",
      "countryId": 732800,
      "countryCode": "BG",
      "latitude": 42.66667,
      "longitude": 23.38333
    },
    {
      "id": 864559,
      "name": "Stara Zagora",
      "nativeName": "Oblast Stara Zagora",
      "code": "BG-24",
      "internalCode": "24",
      "countryId": 732800,
      "countryCode": "BG",
      "latitude": 42.45,
      "longitude": 25.56667
    },
    {
      "id": 864560,
      "name": "Targovishte",
      "nativeName": "Oblast Targovishte",
      "code": "BG-25",
      "internalCode": "25",
      "countryId": 732800,
      "countryCode": "BG",
      "latitude": 43.26667,
      "longitude": 26.38333
    },
    {
      "id": 726051,
      "name": "Varna",
      "nativeName": "Varna",
      "code": "BG-03",
      "internalCode": "03",
      "countryId": 732800,
      "countryCode": "BG",
      "latitude": 43.21667,
      "longitude": 27.6
    },
    {
      "id": 864561,
      "name": "Veliko Tarnovo",
      "nativeName": "Oblast Veliko Tarnovo",
      "code": "BG-04",
      "internalCode": "04",
      "countryId": 732800,
      "countryCode": "BG",
      "latitude": 43.23333,
      "longitude": 25.65
    },
    {
      "id": 864562,
      "name": "Vidin",
      "nativeName": "Oblast Vidin",
      "code": "BG-05",
      "internalCode": "05",
      "countryId": 732800,
      "countryCode": "BG",
      "latitude": 43.81667,
      "longitude": 22.71667
    },
    {
      "id": 725713,
      "name": "Vratsa",
      "nativeName": "Oblast Vratsa",
      "code": "BG-06",
      "internalCode": "06",
      "countryId": 732800,
      "countryCode": "BG",
      "latitude": 43.4,
      "longitude": 23.76667
    },
    {
      "id": 864563,
      "name": "Yambol",
      "nativeName": "Oblast Yambol",
      "code": "BG-28",
      "internalCode": "28",
      "countryId": 732800,
      "countryCode": "BG",
      "latitude": 42.33333,
      "longitude": 26.63333
    }
  ]
}