{
  "stateId": 3582676,
  "stateCode": "BZ-BZ",
  "countryCode": "BZ",
  "cities": [
    {
      "id": 3582677,
      "name": "Belize City",
      "nativeName": "Belize City",
      "code": "BZ-BZ-3582677",
      "countryId": 3582678,
      "countryCode": "BZ",
      "stateCode": "BZ-BZ",
      "latitude": 17.49952,
      "longitude": -88.19756
    },
    {
      "id": 3582726,
      "name": "Bacalar Chico",
      "nativeName": "Bacalar Chico",
      "code": "BZ-BZ-3582726",
      "countryId": 3582678,
      "countryCode": "BZ",
      "stateCode": "BZ-BZ",
      "latitude": 18.18657,
      "longitude": -87.86037
    },
    {
      "id": 3582719,
      "name": "Bakers",
      "nativeName": "Bakers",
      "code": "BZ-BZ-3582719",
      "countryId": 3582678,
      "countryCode": "BZ",
      "stateCode": "BZ-BZ",
      "latitude": 17.55,
      "longitude": -88.38333
    },
    {
      "id": 3582661,
      "name": "Bermudian Landing",
      "nativeName": "Bermudian Landing",
      "code": "BZ-BZ-3582661",
      "countryId": 3582678,
      "countryCode": "BZ",
      "stateCode": "BZ-BZ",
      "latitude": 17.5573,
      "longitude": -88.53573
    },
    {
      "id": 3582642,
      "name": "Big Falls",
      "nativeName": "Big Falls",
      "code": "BZ-BZ-3582642",
      "countryId": 3582678,
      "countryCode": "BZ",
      "stateCode": "BZ-BZ",
      "latitude": 17.49467,
      "longitude": -88.58457
    },
    {
      "id": 3582627,
      "name": "Biscayne",
      "nativeName": "Biscayne",
      "code": "BZ-BZ-3582627",
      "countryId": 3582678,
      "countryCode": "BZ",
      "stateCode": "BZ-BZ",
      "latitude": 17.71702,
      "longitude": -88.45723
    },
    {
      "id": 3582575,
      "name": "Bob Eiley",
      "nativeName": "Bob Eiley",
      "code": "BZ-BZ-3582575",
      "countryId": 3582678,
      "countryCode": "BZ",
      "stateCode": "BZ-BZ",
      "latitude": 17.70408,
      "longitude": -88.48561
    },
    {
      "id": 3582570,
      "name": "Bocotora",
      "nativeName": "Bocotora",
      "code": "BZ-BZ-3582570",
      "countryId": 3582678,
      "countryCode": "BZ",
      "stateCode": "BZ-BZ",
      "latitude": 17.25753,
      "longitude": -88.43454
    },
    {
      "id": 3582563,
      "name": "Bomba",
      "nativeName": "Bomba",
      "code": "BZ-BZ-3582563",
      "countryId": 3582678,
      "countryCode": "BZ",
      "stateCode": "BZ-BZ",
      "latitude": 17.89166,
      "longitude": -88.27618
    },
    {
      "id": 3582514,
      "name": "Burrell Boom",
      "nativeName": "Burrell Boom",
      "code": "BZ-BZ-3582514",
      "countryId": 3582678,
      "countryCode": "BZ",
      "stateCode": "BZ-BZ",
      "latitude": 17.56933,
      "longitude": -88.40527
    },
    {
      "id": 3582512,
      "name": "Butcher Burns",
      "nativeName": "Butcher Burns",
      "code": "BZ-BZ-3582512",
      "countryId": 3582678,
      "countryCode": "BZ",
      "stateCode": "BZ-BZ",
      "latitude": 17.41091,
      "longitude": -88.44527
    },
    {
      "id": 3582431,
      "name": "Caye Caulker",
      "nativeName": "Caye Caulker",
      "code": "BZ-BZ-3582431",
      "countryId": 3582678,
      "countryCode": "BZ",
      "stateCode": "BZ-BZ",
      "latitude": 17.73659,
      "longitude": -88.02761
    },
    {
      "id": 3582425,
      "name": "Cedar Bank",
      "nativeName": "Cedar Bank",
      "code": "BZ-BZ-3582425",
      "countryId": 3582678,
      "countryCode": "BZ",
      "stateCode": "BZ-BZ",
      "latitude": 17.38576,
      "longitude": -88.43873
    },
    {
      "id": 3582383,
      "name": "Chicago",
      "nativeName": "Chicago",
      "code": "BZ-BZ-3582383",
      "countryId": 3582678,
      "countryCode": "BZ",
      "stateCode": "BZ-BZ",
      "latitude": 17.81524,
      "longitude": -88.31159
    },
    {
      "id": 3582372,
      "name": "Churchyard",
      "nativeName": "Churchyard",
      "code": "BZ-BZ-3582372",
      "countryId": 3582678,
      "countryCode": "BZ",
      "stateCode": "BZ-BZ",
      "latitude": 17.30533,
      "longitude": -88.5553
    },
    {
      "id": 3582301,
      "name": "Corozalito",
      "nativeName": "Corozalito",
      "code": "BZ-BZ-3582301",
      "countryId": 3582678,
      "countryCode": "BZ",
      "stateCode": "BZ-BZ",
      "latitude": 17.83903,
      "longitude": -88.27395
    },
    {
      "id": 3582289,
      "name": "Cowhead Creek",
      "nativeName": "Cowhead Creek",
      "code": "BZ-BZ-3582289",
      "countryId": 3582678,
      "countryCode": "BZ",
      "stateCode": "BZ-BZ",
      "latitude": 17.76166,
      "longitude": -88.31262
    },
    {
      "id": 3582258,
      "name": "Crooked Tree",
      "nativeName": "Crooked Tree",
      "code": "BZ-BZ-3582258",
      "countryId": 3582678,
      "countryCode": "BZ",
      "stateCode": "BZ-BZ",
      "latitude": 17.77599,
      "longitude": -88.54203
    },
    {
      "id": 3582253,
      "name": "Crossing Landing Bank",
      "nativeName": "Crossing Landing Bank",
      "code": "BZ-BZ-3582253",
      "countryId": 3582678,
      "countryCode": "BZ",
      "stateCode": "BZ-BZ",
      "latitude": 17.22905,
      "longitude": -88.56961
    },
    {
      "id": 3582223,
      "name": "Davis Bank",
      "nativeName": "Davis Bank",
      "code": "BZ-BZ-3582223",
      "countryId": 3582678,
      "countryCode": "BZ",
      "stateCode": "BZ-BZ",
      "latitude": 17.64464,
      "longitude": -88.39591
    },
    {
      "id": 3582194,
      "name": "Double Head Cabbage",
      "nativeName": "Double Head Cabbage",
      "code": "BZ-BZ-3582194",
      "countryId": 3582678,
      "countryCode": "BZ",
      "stateCode": "BZ-BZ",
      "latitude": 17.54358,
      "longitude": -88.5575
    },
    {
      "id": 3582161,
      "name": "Egypt",
      "nativeName": "Egypt",
      "code": "BZ-BZ-3582161",
      "countryId": 3582678,
      "countryCode": "BZ",
      "stateCode": "BZ-BZ",
      "latitude": 17.42533,
      "longitude": -88.39139
    },
    {
      "id": 3582118,
      "name": "Ferguson Bank",
      "nativeName": "Ferguson Bank",
      "code": "BZ-BZ-3582118",
      "countryId": 3582678,
      "countryCode": "BZ",
      "stateCode": "BZ-BZ",
      "latitude": 17.44186,
      "longitude": -88.29526
    },
    {
      "id": 3582099,
      "name": "Flowers Bank",
      "nativeName": "Flowers Bank",
      "code": "BZ-BZ-3582099",
      "countryId": 3582678,
      "countryCode": "BZ",
      "stateCode": "BZ-BZ",
      "latitude": 17.61407,
      "longitude": -88.49292
    },
    {
      "id": 3582078,
      "name": "Freetown Sibun",
      "nativeName": "Freetown Sibun",
      "code": "BZ-BZ-3582078",
      "countryId": 3582678,
      "countryCode": "BZ",
      "stateCode": "BZ-BZ",
      "latitude": 17.42495,
      "longitude": -88.35397
    },
    {
      "id": 3582059,
      "name": "Gales Point",
      "nativeName": "Gales Point",
      "code": "BZ-BZ-3582059",
      "countryId": 3582678,
      "countryCode": "BZ",
      "stateCode": "BZ-BZ",
      "latitude": 17.17101,
      "longitude": -88.3352
    },
    {
      "id": 3582018,
      "name": "Grace Bank",
      "nativeName": "Grace Bank",
      "code": "BZ-BZ-3582018",
      "countryId": 3582678,
      "countryCode": "BZ",
      "stateCode": "BZ-BZ",
      "latitude": 17.64982,
      "longitude": -88.40491
    },
    {
      "id": 3582015,
      "name": "Gracy Rock Bank",
      "nativeName": "Gracy Rock Bank",
      "code": "BZ-BZ-3582015",
      "countryId": 3582678,
      "countryCode": "BZ",
      "stateCode": "BZ-BZ",
      "latitude": 17.36577,
      "longitude": -88.44973
    },
    {
      "id": 3581968,
      "name": "Hattieville",
      "nativeName": "Hattieville",
      "code": "BZ-BZ-3581968",
      "countryId": 3582678,
      "countryCode": "BZ",
      "stateCode": "BZ-BZ",
      "latitude": 17.44779,
      "longitude": -88.39355
    },
    {
      "id": 3581897,
      "name": "Isabella",
      "nativeName": "Isabella",
      "code": "BZ-BZ-3581897",
      "countryId": 3582678,
      "countryCode": "BZ",
      "stateCode": "BZ-BZ",
      "latitude": 17.58333,
      "longitude": -88.53333
    },
    {
      "id": 3581881,
      "name": "Joe Wagner Boom",
      "nativeName": "Joe Wagner Boom",
      "code": "BZ-BZ-3581881",
      "countryId": 3582678,
      "countryCode": "BZ",
      "stateCode": "BZ-BZ",
      "latitude": 17.42336,
      "longitude": -88.36435
    },
    {
      "id": 3581852,
      "name": "La Democracia",
      "nativeName": "La Democracia",
      "code": "BZ-BZ-3581852",
      "countryId": 3582678,
      "countryCode": "BZ",
      "stateCode": "BZ-BZ",
      "latitude": 17.34076,
      "longitude": -88.54472
    },
    {
      "id": 3581851,
      "name": "Ladyville",
      "nativeName": "Ladyville",
      "code": "BZ-BZ-3581851",
      "countryId": 3582678,
      "countryCode": "BZ",
      "stateCode": "BZ-BZ",
      "latitude": 17.55427,
      "longitude": -88.29
    },
    {
      "id": 3581823,
      "name": "Lemonal",
      "nativeName": "Lemonal",
      "code": "BZ-BZ-3581823",
      "countryId": 3582678,
      "countryCode": "BZ",
      "stateCode": "BZ-BZ",
      "latitude": 17.60807,
      "longitude": -88.60299
    },
    {
      "id": 3581817,
      "name": "Lime Walk",
      "nativeName": "Lime Walk",
      "code": "BZ-BZ-3581817",
      "countryId": 3582678,
      "countryCode": "BZ",
      "stateCode": "BZ-BZ",
      "latitude": 17.63089,
      "longitude": -88.49183
    },
    {
      "id": 3581812,
      "name": "Little Bermudian Landing",
      "nativeName": "Little Bermudian Landing",
      "code": "BZ-BZ-3581812",
      "countryId": 3582678,
      "countryCode": "BZ",
      "stateCode": "BZ-BZ",
      "latitude": 17.57531,
      "longitude": -88.54186
    },
    {
      "id": 3581771,
      "name": "Lucky Strike",
      "nativeName": "Lucky Strike",
      "code": "BZ-BZ-3581771",
      "countryId": 3582678,
      "countryCode": "BZ",
      "stateCode": "BZ-BZ",
      "latitude": 17.77922,
      "longitude": -88.31685
    },
    {
      "id": 3581723,
      "name": "Maskall",
      "nativeName": "Maskall",
      "code": "BZ-BZ-3581723",
      "countryId": 3582678,
      "countryCode": "BZ",
      "stateCode": "BZ-BZ",
      "latitude": 17.87788,
      "longitude": -88.31174
    },
    {
      "id": 3581705,
      "name": "May Pen",
      "nativeName": "May Pen",
      "code": "BZ-BZ-3581705",
      "countryId": 3582678,
      "countryCode": "BZ",
      "stateCode": "BZ-BZ",
      "latitude": 17.65544,
      "longitude": -88.47129
    },
    {
      "id": 3581637,
      "name": "More Force",
      "nativeName": "More Force",
      "code": "BZ-BZ-3581637",
      "countryId": 3582678,
      "countryCode": "BZ",
      "stateCode": "BZ-BZ",
      "latitude": 17.84262,
      "longitude": -88.36903
    },
    {
      "id": 3581600,
      "name": "Nago Bank",
      "nativeName": "Nago Bank",
      "code": "BZ-BZ-3581600",
      "countryId": 3582678,
      "countryCode": "BZ",
      "stateCode": "BZ-BZ",
      "latitude": 17.88026,
      "longitude": -88.29134
    },
    {
      "id": 3581363,
      "name": "Rancho Dolores",
      "nativeName": "Rancho Dolores",
      "code": "BZ-BZ-3581363",
      "countryId": 3582678,
      "countryCode": "BZ",
      "stateCode": "BZ-BZ",
      "latitude": 17.53569,
      "longitude": -88.6285
    },
    {
      "id": 3581328,
      "name": "Revenge",
      "nativeName": "Revenge",
      "code": "BZ-BZ-3581328",
      "countryId": 3582678,
      "countryCode": "BZ",
      "stateCode": "BZ-BZ",
      "latitude": 17.86254,
      "longitude": -88.55164
    },
    {
      "id": 3581288,
      "name": "Rockstone Pond",
      "nativeName": "Rockstone Pond",
      "code": "BZ-BZ-3581288",
      "countryId": 3582678,
      "countryCode": "BZ",
      "stateCode": "BZ-BZ",
      "latitude": 17.75386,
      "longitude": -88.34368
    },
    {
      "id": 3581287,
      "name": "Rockville",
      "nativeName": "Rockville",
      "code": "BZ-BZ-3581287",
      "countryId": 3582678,
      "countryCode": "BZ",
      "stateCode": "BZ-BZ",
      "latitude": 17.4,
      "longitude": -88.46667
    },
    {
      "id": 3581246,
      "name": "Saint Paul’s",
      "nativeName": "Saint Paul’s",
      "code": "BZ-BZ-3581246",
      "countryId": 3582678,
      "countryCode": "BZ",
      "stateCode": "BZ-BZ",
      "latitude": 17.51156,
      "longitude": -88.59074
    },
    {
      "id": 8695172,
      "name": "Salt Creek",
      "nativeName": "Salt Creek",
      "code": "BZ-BZ-8695172",
      "countryId": 3582678,
      "countryCode": "BZ",
      "stateCode": "BZ-BZ",
      "latitude": 17.66315,
      "longitude": -88.3288
    },
    {
      "id": 3581164,
      "name": "San Pedro Town",
      "nativeName": "San Pedro",
      "code": "BZ-BZ-3581164",
      "countryId": 3582678,
      "countryCode": "BZ",
      "stateCode": "BZ-BZ",
      "latitude": 17.91598,
      "longitude": -87.9659
    },
    {
      "id": 3581208,
      "name": "Sand Hill",
      "nativeName": "Sand Hill",
      "code": "BZ-BZ-3581208",
      "countryId": 3582678,
      "countryCode": "BZ",
      "stateCode": "BZ-BZ",
      "latitude": 17.64038,
      "longitude": -88.36828
    },
    {
      "id": 3581139,
      "name": "Santana",
      "nativeName": "Santana",
      "code": "BZ-BZ-3581139",
      "countryId": 3582678,
      "countryCode": "BZ",
      "stateCode": "BZ-BZ",
      "latitude": 17.80324,
      "longitude": -88.29657
    },
    {
      "id": 3581096,
      "name": "Scotland",
      "nativeName": "Scotland",
      "code": "BZ-BZ-3581096",
      "countryId": 3582678,
      "countryCode": "BZ",
      "stateCode": "BZ-BZ",
      "latitude": 17.56667,
      "longitude": -88.51667
    },
    {
      "id": 3580888,
      "name": "Tropical Park",
      "nativeName": "Tropical Park",
      "code": "BZ-BZ-3580888",
      "countryId": 3582678,
      "countryCode": "BZ",
      "stateCode": "BZ-BZ",
      "latitude": 17.46667,
      "longitude": -88.38333
    },
    {
      "id": 3580833,
      "name": "Washing Tree",
      "nativeName": "Washing Tree",
      "code": "BZ-BZ-3580833",
      "countryId": 3582678,
      "countryCode": "BZ",
      "stateCode": "BZ-BZ",
      "latitude": 17.68533,
      "longitude": -88.46035
    },
    {
      "id": 3580826,
      "name": "Watters Bank",
      "nativeName": "Watters Bank",
      "code": "BZ-BZ-3580826",
      "countryId": 3582678,
      "countryCode": "BZ",
      "stateCode": "BZ-BZ",
      "latitude": 17.31197,
      "longitude": -88.35607
    },
    {
      "id": 3580812,
      "name": "White Hill",
      "nativeName": "White Hill",
      "code": "BZ-BZ-3580812",
      "countryId": 3582678,
      "countryCode": "BZ",
      "stateCode": "BZ-BZ",
      "latitude": 17.25,
      "longitude": -88.48333
    },
    {
      "id": 3580805,
      "name": "Willows Bank",
      "nativeName": "Willows Bank",
      "code": "BZ-BZ-3580805",
      "countryId": 3582678,
      "countryCode": "BZ",
      "stateCode": "BZ-BZ",
      "latitude": 17.52894,
      "longitude": -88.57274
    }
  ]
}