{
  "stateId": 3580913,
  "stateCode": "BZ-TOL",
  "countryCode": "BZ",
  "cities": [
    {
      "id": 3581398,
      "name": "Punta Gorda",
      "nativeName": "Punta Gorda",
      "code": "BZ-TOL-3581398",
      "countryId": 3582678,
      "countryCode": "BZ",
      "stateCode": "BZ-TOL",
      "latitude": 16.09835,
      "longitude": -88.8097
    },
    {
      "id": 3582778,
      "name": "Aguacate",
      "nativeName": "Aguacate",
      "code": "BZ-TOL-3582778",
      "countryId": 3582678,
      "countryCode": "BZ",
      "stateCode": "BZ-TOL",
      "latitude": 16.16222,
      "longitude": -89.09389
    },
    {
      "id": 3582699,
      "name": "Barranco",
      "nativeName": "Barranco",
      "code": "BZ-TOL-3582699",
      "countryId": 3582678,
      "countryCode": "BZ",
      "stateCode": "BZ-TOL",
      "latitude": 16,
      "longitude": -88.91667
    },
    {
      "id": 3582687,
      "name": "Beattie Pen",
      "nativeName": "Beattie Pen",
      "code": "BZ-TOL-3582687",
      "countryId": 3582678,
      "countryCode": "BZ",
      "stateCode": "BZ-TOL",
      "latitude": 16.40855,
      "longitude": -88.71344
    },
    {
      "id": 13286766,
      "name": "Bella Vista",
      "nativeName": "Bella Vista",
      "code": "BZ-TOL-13286766",
      "countryId": 3582678,
      "countryCode": "BZ",
      "stateCode": "BZ-TOL",
      "latitude": 16.50948,
      "longitude": -88.53169
    },
    {
      "id": 3582645,
      "name": "Big Fall",
      "nativeName": "Big Fall",
      "code": "BZ-TOL-3582645",
      "countryId": 3582678,
      "countryCode": "BZ",
      "stateCode": "BZ-TOL",
      "latitude": 16.25692,
      "longitude": -88.89097
    },
    {
      "id": 13286767,
      "name": "Bladen",
      "nativeName": "Bladen",
      "code": "BZ-TOL-13286767",
      "countryId": 3582678,
      "countryCode": "BZ",
      "stateCode": "BZ-TOL",
      "latitude": 16.47194,
      "longitude": -88.62452
    },
    {
      "id": 3582588,
      "name": "Blue Creek Village",
      "nativeName": "Blue Creek Village",
      "code": "BZ-TOL-3582588",
      "countryId": 3582678,
      "countryCode": "BZ",
      "stateCode": "BZ-TOL",
      "latitude": 16.19778,
      "longitude": -89.04222
    },
    {
      "id": 8695566,
      "name": "Boom Creek",
      "nativeName": "Boom Creek",
      "code": "BZ-TOL-8695566",
      "countryId": 3582678,
      "countryCode": "BZ",
      "stateCode": "BZ-TOL",
      "latitude": 16.07314,
      "longitude": -88.90682
    },
    {
      "id": 3582520,
      "name": "Burgos",
      "nativeName": "Burgos",
      "code": "BZ-TOL-3582520",
      "countryId": 3582678,
      "countryCode": "BZ",
      "stateCode": "BZ-TOL",
      "latitude": 16.44498,
      "longitude": -89.11029
    },
    {
      "id": 3582502,
      "name": "Cabro",
      "nativeName": "Cabro",
      "code": "BZ-TOL-3582502",
      "countryId": 3582678,
      "countryCode": "BZ",
      "stateCode": "BZ-TOL",
      "latitude": 16.40056,
      "longitude": -89.06749
    },
    {
      "id": 3582486,
      "name": "Calera Camp",
      "nativeName": "Calera Camp",
      "code": "BZ-TOL-3582486",
      "countryId": 3582678,
      "countryCode": "BZ",
      "stateCode": "BZ-TOL",
      "latitude": 16.53183,
      "longitude": -88.78105
    },
    {
      "id": 3580874,
      "name": "Campamento Unión",
      "nativeName": "Campamento Unión",
      "code": "BZ-TOL-3580874",
      "countryId": 3582678,
      "countryCode": "BZ",
      "stateCode": "BZ-TOL",
      "latitude": 16.39639,
      "longitude": -89.14194
    },
    {
      "id": 3582440,
      "name": "Cattle Landing",
      "nativeName": "Cattle Landing",
      "code": "BZ-TOL-3582440",
      "countryId": 3582678,
      "countryCode": "BZ",
      "stateCode": "BZ-TOL",
      "latitude": 16.11947,
      "longitude": -88.79523
    },
    {
      "id": 3582375,
      "name": "Chan Bank",
      "nativeName": "Chan Bank",
      "code": "BZ-TOL-3582375",
      "countryId": 3582678,
      "countryCode": "BZ",
      "stateCode": "BZ-TOL",
      "latitude": 16.53852,
      "longitude": -88.70219
    },
    {
      "id": 3582390,
      "name": "Chan Quebrada",
      "nativeName": "Chan Quebrada",
      "code": "BZ-TOL-3582390",
      "countryId": 3582678,
      "countryCode": "BZ",
      "stateCode": "BZ-TOL",
      "latitude": 16.51659,
      "longitude": -88.68503
    },
    {
      "id": 3582327,
      "name": "Conejo",
      "nativeName": "Conejo",
      "code": "BZ-TOL-3582327",
      "countryId": 3582678,
      "countryCode": "BZ",
      "stateCode": "BZ-TOL",
      "latitude": 16.04097,
      "longitude": -89.00184
    },
    {
      "id": 3582295,
      "name": "Corozon",
      "nativeName": "Corozon",
      "code": "BZ-TOL-3582295",
      "countryId": 3582678,
      "countryCode": "BZ",
      "stateCode": "BZ-TOL",
      "latitude": 16.05528,
      "longitude": -89.12417
    },
    {
      "id": 3582266,
      "name": "Crique Jute",
      "nativeName": "Crique Jute",
      "code": "BZ-TOL-3582266",
      "countryId": 3582678,
      "countryCode": "BZ",
      "stateCode": "BZ-TOL",
      "latitude": 16.26667,
      "longitude": -89.01667
    },
    {
      "id": 3582265,
      "name": "Crique Sarco",
      "nativeName": "Crique Sarco",
      "code": "BZ-TOL-3582265",
      "countryId": 3582678,
      "countryCode": "BZ",
      "stateCode": "BZ-TOL",
      "latitude": 15.98333,
      "longitude": -89.1
    },
    {
      "id": 3582202,
      "name": "Dolores",
      "nativeName": "Dolores",
      "code": "BZ-TOL-3582202",
      "countryId": 3582678,
      "countryCode": "BZ",
      "stateCode": "BZ-TOL",
      "latitude": 15.98903,
      "longitude": -89.21085
    },
    {
      "id": 13286768,
      "name": "Eldridgeville",
      "nativeName": "Eldridgeville",
      "code": "BZ-TOL-13286768",
      "countryId": 3582678,
      "countryCode": "BZ",
      "stateCode": "BZ-TOL",
      "latitude": 16.13818,
      "longitude": -88.84068
    },
    {
      "id": 8695653,
      "name": "Esparasca",
      "nativeName": "Esparasca",
      "code": "BZ-TOL-8695653",
      "countryId": 3582678,
      "countryCode": "BZ",
      "stateCode": "BZ-TOL",
      "latitude": 16.43912,
      "longitude": -88.52372
    },
    {
      "id": 3582139,
      "name": "Esperanza",
      "nativeName": "Esperanza",
      "code": "BZ-TOL-3582139",
      "countryId": 3582678,
      "countryCode": "BZ",
      "stateCode": "BZ-TOL",
      "latitude": 16.49812,
      "longitude": -88.87141
    },
    {
      "id": 3582134,
      "name": "Esperanza Camp",
      "nativeName": "Esperanza Camp",
      "code": "BZ-TOL-3582134",
      "countryId": 3582678,
      "countryCode": "BZ",
      "stateCode": "BZ-TOL",
      "latitude": 16.41722,
      "longitude": -89.02306
    },
    {
      "id": 8695403,
      "name": "Esperino",
      "nativeName": "Esperino",
      "code": "BZ-TOL-8695403",
      "countryId": 3582678,
      "countryCode": "BZ",
      "stateCode": "BZ-TOL",
      "latitude": 16.29102,
      "longitude": -89.19851
    },
    {
      "id": 8695564,
      "name": "Esporanza",
      "nativeName": "Esporanza",
      "code": "BZ-TOL-8695564",
      "countryId": 3582678,
      "countryCode": "BZ",
      "stateCode": "BZ-TOL",
      "latitude": 16.24915,
      "longitude": -88.89925
    },
    {
      "id": 3582096,
      "name": "Forest Home",
      "nativeName": "Forest Home",
      "code": "BZ-TOL-3582096",
      "countryId": 3582678,
      "countryCode": "BZ",
      "stateCode": "BZ-TOL",
      "latitude": 16.13873,
      "longitude": -88.83302
    },
    {
      "id": 8695765,
      "name": "Golden Stream Village",
      "nativeName": "Golden Stream Village",
      "code": "BZ-TOL-8695765",
      "countryId": 3582678,
      "countryCode": "BZ",
      "stateCode": "BZ-TOL",
      "latitude": 16.3635,
      "longitude": -88.80538
    },
    {
      "id": 3581981,
      "name": "Hamidli Creek Settlement",
      "nativeName": "Hamidli Creek Settlement",
      "code": "BZ-TOL-3581981",
      "countryId": 3582678,
      "countryCode": "BZ",
      "stateCode": "BZ-TOL",
      "latitude": 16.21995,
      "longitude": -88.90172
    },
    {
      "id": 8695287,
      "name": "Happy Farms Village",
      "nativeName": "Happy Farms Village",
      "code": "BZ-TOL-8695287",
      "countryId": 3582678,
      "countryCode": "BZ",
      "stateCode": "BZ-TOL",
      "latitude": 15.90964,
      "longitude": -89.18865
    },
    {
      "id": 3581960,
      "name": "Hellgate",
      "nativeName": "Hellgate",
      "code": "BZ-TOL-3581960",
      "countryId": 3582678,
      "countryCode": "BZ",
      "stateCode": "BZ-TOL",
      "latitude": 16.36091,
      "longitude": -88.79708
    },
    {
      "id": 13286769,
      "name": "Hicattee",
      "nativeName": "Hicattee",
      "code": "BZ-TOL-13286769",
      "countryId": 3582678,
      "countryCode": "BZ",
      "stateCode": "BZ-TOL",
      "latitude": 16.28294,
      "longitude": -88.87659
    },
    {
      "id": 3581923,
      "name": "Hopital",
      "nativeName": "Hopital",
      "code": "BZ-TOL-3581923",
      "countryId": 3582678,
      "countryCode": "BZ",
      "stateCode": "BZ-TOL",
      "latitude": 16.46667,
      "longitude": -88.96667
    },
    {
      "id": 8695405,
      "name": "Indian Creek Village",
      "nativeName": "Indian Creek Village",
      "code": "BZ-TOL-8695405",
      "countryId": 3582678,
      "countryCode": "BZ",
      "stateCode": "BZ-TOL",
      "latitude": 16.31509,
      "longitude": -88.8317
    },
    {
      "id": 3581892,
      "name": "Jacinto Landing",
      "nativeName": "Jacinto Landing",
      "code": "BZ-TOL-3581892",
      "countryId": 3582678,
      "countryCode": "BZ",
      "stateCode": "BZ-TOL",
      "latitude": 16.16667,
      "longitude": -88.85
    },
    {
      "id": 13286770,
      "name": "Jacintoville",
      "nativeName": "Jacintoville",
      "code": "BZ-TOL-13286770",
      "countryId": 3582678,
      "countryCode": "BZ",
      "stateCode": "BZ-TOL",
      "latitude": 16.15288,
      "longitude": -88.87707
    },
    {
      "id": 3581890,
      "name": "Jalacte",
      "nativeName": "Jalacte",
      "code": "BZ-TOL-3581890",
      "countryId": 3582678,
      "countryCode": "BZ",
      "stateCode": "BZ-TOL",
      "latitude": 16.15806,
      "longitude": -89.14667
    },
    {
      "id": 3581886,
      "name": "Jimmy Cut",
      "nativeName": "Jimmy Cut",
      "code": "BZ-TOL-3581886",
      "countryId": 3582678,
      "countryCode": "BZ",
      "stateCode": "BZ-TOL",
      "latitude": 16.29359,
      "longitude": -89.04052
    },
    {
      "id": 8695292,
      "name": "Jordan",
      "nativeName": "Jordan",
      "code": "BZ-TOL-8695292",
      "countryId": 3582678,
      "countryCode": "BZ",
      "stateCode": "BZ-TOL",
      "latitude": 16.15386,
      "longitude": -89.01486
    },
    {
      "id": 3581868,
      "name": "Joventud",
      "nativeName": "Joventud",
      "code": "BZ-TOL-3581868",
      "countryId": 3582678,
      "countryCode": "BZ",
      "stateCode": "BZ-TOL",
      "latitude": 16.11509,
      "longitude": -89.16727
    },
    {
      "id": 3581845,
      "name": "Lagoona",
      "nativeName": "Lagoona",
      "code": "BZ-TOL-3581845",
      "countryId": 3582678,
      "countryCode": "BZ",
      "stateCode": "BZ-TOL",
      "latitude": 16.16907,
      "longitude": -88.93795
    },
    {
      "id": 3581799,
      "name": "Logan’s Bank",
      "nativeName": "Logan’s Bank",
      "code": "BZ-TOL-3581799",
      "countryId": 3582678,
      "countryCode": "BZ",
      "stateCode": "BZ-TOL",
      "latitude": 16.48943,
      "longitude": -88.54279
    },
    {
      "id": 13286771,
      "name": "Mabilha",
      "nativeName": "Mabilha",
      "code": "BZ-TOL-13286771",
      "countryId": 3582678,
      "countryCode": "BZ",
      "stateCode": "BZ-TOL",
      "latitude": 16.1006,
      "longitude": -89.08706
    },
    {
      "id": 3581765,
      "name": "Machaca",
      "nativeName": "Machaca",
      "code": "BZ-TOL-3581765",
      "countryId": 3582678,
      "countryCode": "BZ",
      "stateCode": "BZ-TOL",
      "latitude": 16.14028,
      "longitude": -89.115
    },
    {
      "id": 3581764,
      "name": "Machaca Camp",
      "nativeName": "Machaca Camp",
      "code": "BZ-TOL-3581764",
      "countryId": 3582678,
      "countryCode": "BZ",
      "stateCode": "BZ-TOL",
      "latitude": 16.19903,
      "longitude": -88.88854
    },
    {
      "id": 13286786,
      "name": "Machakilha",
      "nativeName": "Machakilha",
      "code": "BZ-TOL-13286786",
      "countryId": 3582678,
      "countryCode": "BZ",
      "stateCode": "BZ-TOL",
      "latitude": 15.94105,
      "longitude": -89.19097
    },
    {
      "id": 3581701,
      "name": "Medina Bank",
      "nativeName": "Medina Bank",
      "code": "BZ-TOL-3581701",
      "countryId": 3582678,
      "countryCode": "BZ",
      "stateCode": "BZ-TOL",
      "latitude": 16.44446,
      "longitude": -88.74226
    },
    {
      "id": 8695565,
      "name": "Medway City Main Village",
      "nativeName": "Medway City Main Village",
      "code": "BZ-TOL-8695565",
      "countryId": 3582678,
      "countryCode": "BZ",
      "stateCode": "BZ-TOL",
      "latitude": 16.05985,
      "longitude": -88.95093
    },
    {
      "id": 3581692,
      "name": "Melvin’s Bank",
      "nativeName": "Melvin’s Bank",
      "code": "BZ-TOL-3581692",
      "countryId": 3582678,
      "countryCode": "BZ",
      "stateCode": "BZ-TOL",
      "latitude": 16.44302,
      "longitude": -88.63669
    },
    {
      "id": 8695288,
      "name": "Metchekin",
      "nativeName": "Metchekin",
      "code": "BZ-TOL-8695288",
      "countryId": 3582678,
      "countryCode": "BZ",
      "stateCode": "BZ-TOL",
      "latitude": 15.97187,
      "longitude": -89.14509
    },
    {
      "id": 3581643,
      "name": "Monkey River Town",
      "nativeName": "Monkey River Town",
      "code": "BZ-TOL-3581643",
      "countryId": 3582678,
      "countryCode": "BZ",
      "stateCode": "BZ-TOL",
      "latitude": 16.36166,
      "longitude": -88.48517
    },
    {
      "id": 9253636,
      "name": "Na Luum Ca",
      "nativeName": "Na Luum Ca",
      "code": "BZ-TOL-9253636",
      "countryId": 3582678,
      "countryCode": "BZ",
      "stateCode": "BZ-TOL",
      "latitude": 16.28538,
      "longitude": -89.08178
    },
    {
      "id": 3581601,
      "name": "Nafreda",
      "nativeName": "Nafreda",
      "code": "BZ-TOL-3581601",
      "countryId": 3582678,
      "countryCode": "BZ",
      "stateCode": "BZ-TOL",
      "latitude": 16.24418,
      "longitude": -88.99268
    },
    {
      "id": 3581589,
      "name": "Nasario Perez",
      "nativeName": "Nasario Perez",
      "code": "BZ-TOL-3581589",
      "countryId": 3582678,
      "countryCode": "BZ",
      "stateCode": "BZ-TOL",
      "latitude": 16.43136,
      "longitude": -89.13734
    },
    {
      "id": 3581573,
      "name": "New Haven",
      "nativeName": "New Haven",
      "code": "BZ-TOL-3581573",
      "countryId": 3582678,
      "countryCode": "BZ",
      "stateCode": "BZ-TOL",
      "latitude": 16.25418,
      "longitude": -88.59054
    },
    {
      "id": 8695291,
      "name": "New Mahbilla",
      "nativeName": "New Mahbilla",
      "code": "BZ-TOL-8695291",
      "countryId": 3582678,
      "countryCode": "BZ",
      "stateCode": "BZ-TOL",
      "latitude": 16.10543,
      "longitude": -89.08012
    },
    {
      "id": 13286788,
      "name": "New Road Area",
      "nativeName": "New Road Area",
      "code": "BZ-TOL-13286788",
      "countryId": 3582678,
      "countryCode": "BZ",
      "stateCode": "BZ-TOL",
      "latitude": 16.10831,
      "longitude": -88.81338
    },
    {
      "id": 3581561,
      "name": "Nimu Punit",
      "nativeName": "Nimu Punit",
      "code": "BZ-TOL-3581561",
      "countryId": 3582678,
      "countryCode": "BZ",
      "stateCode": "BZ-TOL",
      "latitude": 16.32129,
      "longitude": -88.81563
    },
    {
      "id": 8695290,
      "name": "Old Mabilha",
      "nativeName": "Old Mabilha",
      "code": "BZ-TOL-8695290",
      "countryId": 3582678,
      "countryCode": "BZ",
      "stateCode": "BZ-TOL",
      "latitude": 16.10744,
      "longitude": -89.09556
    },
    {
      "id": 8695289,
      "name": "Old Marbel Ha",
      "nativeName": "Old Marbel Ha",
      "code": "BZ-TOL-8695289",
      "countryId": 3582678,
      "countryCode": "BZ",
      "stateCode": "BZ-TOL",
      "latitude": 16.09963,
      "longitude": -89.09899
    },
    {
      "id": 3581510,
      "name": "Otoxha Village",
      "nativeName": "Otoxha Village",
      "code": "BZ-TOL-3581510",
      "countryId": 3582678,
      "countryCode": "BZ",
      "stateCode": "BZ-TOL",
      "latitude": 16.02129,
      "longitude": -89.17592
    },
    {
      "id": 3581504,
      "name": "Palmar Camp",
      "nativeName": "Palmar Camp",
      "code": "BZ-TOL-3581504",
      "countryId": 3582678,
      "countryCode": "BZ",
      "stateCode": "BZ-TOL",
      "latitude": 16.44905,
      "longitude": -88.88177
    },
    {
      "id": 3581477,
      "name": "Perry Bank",
      "nativeName": "Perry Bank",
      "code": "BZ-TOL-3581477",
      "countryId": 3582678,
      "countryCode": "BZ",
      "stateCode": "BZ-TOL",
      "latitude": 16.6098,
      "longitude": -88.57667
    },
    {
      "id": 3581470,
      "name": "Piebra",
      "nativeName": "Piebra",
      "code": "BZ-TOL-3581470",
      "countryId": 3582678,
      "countryCode": "BZ",
      "stateCode": "BZ-TOL",
      "latitude": 16.10434,
      "longitude": -88.93915
    },
    {
      "id": 13286791,
      "name": "Pinehill",
      "nativeName": "Pinehill",
      "code": "BZ-TOL-13286791",
      "countryId": 3582678,
      "countryCode": "BZ",
      "stateCode": "BZ-TOL",
      "latitude": 16.24464,
      "longitude": -88.82946
    },
    {
      "id": 3581407,
      "name": "Pueblo Viejo",
      "nativeName": "Pueblo Viejo",
      "code": "BZ-TOL-3581407",
      "countryId": 3582678,
      "countryCode": "BZ",
      "stateCode": "BZ-TOL",
      "latitude": 16.20528,
      "longitude": -89.14167
    },
    {
      "id": 3581359,
      "name": "Ranger Camp",
      "nativeName": "Ranger Camp",
      "code": "BZ-TOL-3581359",
      "countryId": 3582678,
      "countryCode": "BZ",
      "stateCode": "BZ-TOL",
      "latitude": 16.4788,
      "longitude": -88.80496
    },
    {
      "id": 3581324,
      "name": "Rice Station",
      "nativeName": "Rice Station",
      "code": "BZ-TOL-3581324",
      "countryId": 3582678,
      "countryCode": "BZ",
      "stateCode": "BZ-TOL",
      "latitude": 16.1359,
      "longitude": -88.84387
    },
    {
      "id": 3581315,
      "name": "Rio Blanco",
      "nativeName": "Rio Blanco",
      "code": "BZ-TOL-3581315",
      "countryId": 3582678,
      "countryCode": "BZ",
      "stateCode": "BZ-TOL",
      "latitude": 16.22972,
      "longitude": -89.10861
    },
    {
      "id": 3581309,
      "name": "Rito Bonillo",
      "nativeName": "Rito Bonillo",
      "code": "BZ-TOL-3581309",
      "countryId": 3582678,
      "countryCode": "BZ",
      "stateCode": "BZ-TOL",
      "latitude": 16.4275,
      "longitude": -89.11444
    },
    {
      "id": 13286794,
      "name": "Roseville",
      "nativeName": "Roseville",
      "code": "BZ-TOL-13286794",
      "countryId": 3582678,
      "countryCode": "BZ",
      "stateCode": "BZ-TOL",
      "latitude": 16.6387,
      "longitude": -88.59201
    },
    {
      "id": 3581244,
      "name": "Saint Vincent Block",
      "nativeName": "Saint Vincent Block",
      "code": "BZ-TOL-3581244",
      "countryId": 3582678,
      "countryCode": "BZ",
      "stateCode": "BZ-TOL",
      "latitude": 16.1144,
      "longitude": -88.82654
    },
    {
      "id": 3581223,
      "name": "San Antonia",
      "nativeName": "San Antonia",
      "code": "BZ-TOL-3581223",
      "countryId": 3582678,
      "countryCode": "BZ",
      "stateCode": "BZ-TOL",
      "latitude": 16.1,
      "longitude": -88.93333
    },
    {
      "id": 3581222,
      "name": "San Antonio",
      "nativeName": "San Antonio",
      "code": "BZ-TOL-3581222",
      "countryId": 3582678,
      "countryCode": "BZ",
      "stateCode": "BZ-TOL",
      "latitude": 16.24361,
      "longitude": -89.02417
    },
    {
      "id": 3581215,
      "name": "San Benito Poite",
      "nativeName": "San Benito Poite",
      "code": "BZ-TOL-3581215",
      "countryId": 3582678,
      "countryCode": "BZ",
      "stateCode": "BZ-TOL",
      "latitude": 16.11254,
      "longitude": -89.18604
    },
    {
      "id": 3581201,
      "name": "San Felipe",
      "nativeName": "San Felipe",
      "code": "BZ-TOL-3581201",
      "countryId": 3582678,
      "countryCode": "BZ",
      "stateCode": "BZ-TOL",
      "latitude": 16.13259,
      "longitude": -88.90498
    },
    {
      "id": 13286795,
      "name": "San Isidro",
      "nativeName": "San Isidro",
      "code": "BZ-TOL-13286795",
      "countryId": 3582678,
      "countryCode": "BZ",
      "stateCode": "BZ-TOL",
      "latitude": 16.51161,
      "longitude": -88.5447
    },
    {
      "id": 3581190,
      "name": "San Jose",
      "nativeName": "San Jose",
      "code": "BZ-TOL-3581190",
      "countryId": 3582678,
      "countryCode": "BZ",
      "stateCode": "BZ-TOL",
      "latitude": 16.26713,
      "longitude": -89.09363
    },
    {
      "id": 3581176,
      "name": "San Lucas",
      "nativeName": "San Lucas",
      "code": "BZ-TOL-3581176",
      "countryId": 3582678,
      "countryCode": "BZ",
      "stateCode": "BZ-TOL",
      "latitude": 16.07679,
      "longitude": -89.09852
    },
    {
      "id": 8695764,
      "name": "San Margos",
      "nativeName": "San Margos",
      "code": "BZ-TOL-8695764",
      "countryId": 3582678,
      "countryCode": "BZ",
      "stateCode": "BZ-TOL",
      "latitude": 16.21675,
      "longitude": -88.90095
    },
    {
      "id": 3581172,
      "name": "San Miguel",
      "nativeName": "San Miguel",
      "code": "BZ-TOL-3581172",
      "countryId": 3582678,
      "countryCode": "BZ",
      "stateCode": "BZ-TOL",
      "latitude": 16.29304,
      "longitude": -88.93197
    },
    {
      "id": 13286796,
      "name": "San Pablo",
      "nativeName": "San Pablo",
      "code": "BZ-TOL-13286796",
      "countryId": 3582678,
      "countryCode": "BZ",
      "stateCode": "BZ-TOL",
      "latitude": 16.61218,
      "longitude": -88.58039
    },
    {
      "id": 3581166,
      "name": "San Pedro Columbia",
      "nativeName": "San Pedro",
      "code": "BZ-TOL-3581166",
      "countryId": 3582678,
      "countryCode": "BZ",
      "stateCode": "BZ-TOL",
      "latitude": 16.27153,
      "longitude": -88.95437
    },
    {
      "id": 3581159,
      "name": "San Pedro Landing",
      "nativeName": "San Pedro Landing",
      "code": "BZ-TOL-3581159",
      "countryId": 3582678,
      "countryCode": "BZ",
      "stateCode": "BZ-TOL",
      "latitude": 15.93768,
      "longitude": -89.20444
    },
    {
      "id": 8695293,
      "name": "San Vincente",
      "nativeName": "San Vincente",
      "code": "BZ-TOL-8695293",
      "countryId": 3582678,
      "countryCode": "BZ",
      "stateCode": "BZ-TOL",
      "latitude": 16.23889,
      "longitude": -89.19975
    },
    {
      "id": 3581152,
      "name": "Santa Anna",
      "nativeName": "Santa Anna",
      "code": "BZ-TOL-3581152",
      "countryId": 3582678,
      "countryCode": "BZ",
      "stateCode": "BZ-TOL",
      "latitude": 16.10415,
      "longitude": -88.95443
    },
    {
      "id": 3581150,
      "name": "Santa Cruz",
      "nativeName": "Santa Cruz",
      "code": "BZ-TOL-3581150",
      "countryId": 3582678,
      "countryCode": "BZ",
      "stateCode": "BZ-TOL",
      "latitude": 16.23433,
      "longitude": -89.07661
    },
    {
      "id": 8695295,
      "name": "Santa Cruz",
      "nativeName": "Santa Cruz",
      "code": "BZ-TOL-8695295",
      "countryId": 3582678,
      "countryCode": "BZ",
      "stateCode": "BZ-TOL",
      "latitude": 16.18409,
      "longitude": -89.20534
    },
    {
      "id": 8695404,
      "name": "Santa Rosea",
      "nativeName": "Santa Rosea",
      "code": "BZ-TOL-8695404",
      "countryId": 3582678,
      "countryCode": "BZ",
      "stateCode": "BZ-TOL",
      "latitude": 16.2782,
      "longitude": -89.19941
    },
    {
      "id": 3581130,
      "name": "Santa Theresa",
      "nativeName": "Santa Theresa",
      "code": "BZ-TOL-3581130",
      "countryId": 3582678,
      "countryCode": "BZ",
      "stateCode": "BZ-TOL",
      "latitude": 16.13333,
      "longitude": -89.05
    },
    {
      "id": 8695294,
      "name": "Santiago Jalacte",
      "nativeName": "Santiago Jalacte",
      "code": "BZ-TOL-8695294",
      "countryId": 3582678,
      "countryCode": "BZ",
      "stateCode": "BZ-TOL",
      "latitude": 16.24505,
      "longitude": -89.20197
    },
    {
      "id": 13286828,
      "name": "Silver Creek",
      "nativeName": "Silver Creek",
      "code": "BZ-TOL-13286828",
      "countryId": 3582678,
      "countryCode": "BZ",
      "stateCode": "BZ-TOL",
      "latitude": 16.27985,
      "longitude": -88.89013
    },
    {
      "id": 3581013,
      "name": "Solomon Camp",
      "nativeName": "Solomon Camp",
      "code": "BZ-TOL-3581013",
      "countryId": 3582678,
      "countryCode": "BZ",
      "stateCode": "BZ-TOL",
      "latitude": 16.55779,
      "longitude": -88.75655
    },
    {
      "id": 8695296,
      "name": "Sunday Wood Creek Village",
      "nativeName": "Sunday Wood Creek Village",
      "code": "BZ-TOL-8695296",
      "countryId": 3582678,
      "countryCode": "BZ",
      "stateCode": "BZ-TOL",
      "latitude": 16.0391,
      "longitude": -89.02868
    },
    {
      "id": 13286831,
      "name": "Tambran",
      "nativeName": "Tambran",
      "code": "BZ-TOL-13286831",
      "countryId": 3582678,
      "countryCode": "BZ",
      "stateCode": "BZ-TOL",
      "latitude": 16.38638,
      "longitude": -88.77524
    },
    {
      "id": 3580940,
      "name": "Teakettle Camp",
      "nativeName": "Teakettle Camp",
      "code": "BZ-TOL-3580940",
      "countryId": 3582678,
      "countryCode": "BZ",
      "stateCode": "BZ-TOL",
      "latitude": 16.51441,
      "longitude": -88.8313
    },
    {
      "id": 3580932,
      "name": "The Dump",
      "nativeName": "The Dump",
      "code": "BZ-TOL-3580932",
      "countryId": 3582678,
      "countryCode": "BZ",
      "stateCode": "BZ-TOL",
      "latitude": 16.22743,
      "longitude": -88.93742
    },
    {
      "id": 3580912,
      "name": "Toledo Settlement",
      "nativeName": "Toledo Settlement",
      "code": "BZ-TOL-3580912",
      "countryId": 3582678,
      "countryCode": "BZ",
      "stateCode": "BZ-TOL",
      "latitude": 16.13383,
      "longitude": -88.82624
    },
    {
      "id": 3580889,
      "name": "Trio Camp",
      "nativeName": "Trio Camp",
      "code": "BZ-TOL-3580889",
      "countryId": 3582678,
      "countryCode": "BZ",
      "stateCode": "BZ-TOL",
      "latitude": 16.58519,
      "longitude": -88.67036
    },
    {
      "id": 8695455,
      "name": "Trio Village",
      "nativeName": "Trio Village",
      "code": "BZ-TOL-8695455",
      "countryId": 3582678,
      "countryCode": "BZ",
      "stateCode": "BZ-TOL",
      "latitude": 16.51529,
      "longitude": -88.63577
    },
    {
      "id": 3580847,
      "name": "Waha Leaf Camp",
      "nativeName": "Waha Leaf Camp",
      "code": "BZ-TOL-3580847",
      "countryId": 3582678,
      "countryCode": "BZ",
      "stateCode": "BZ-TOL",
      "latitude": 16.59399,
      "longitude": -88.64713
    },
    {
      "id": 13286833,
      "name": "Yemeri Grove",
      "nativeName": "Yemeri Grove",
      "code": "BZ-TOL-13286833",
      "countryId": 3582678,
      "countryCode": "BZ",
      "stateCode": "BZ-TOL",
      "latitude": 16.17236,
      "longitude": -88.89682
    }
  ]
}