{
  "stateId": 285841,
  "stateCode": "KW-AH",
  "countryCode": "KW",
  "cities": [
    {
      "id": 12216375,
      "name": "Abū Ḩalīfah",
      "nativeName": "Abū Ḩalīfah",
      "code": "KW-AH-12216375",
      "countryId": 285570,
      "countryCode": "KW",
      "stateCode": "KW-AH",
      "latitude": 29.13106,
      "longitude": 48.12766
    },
    {
      "id": 12216379,
      "name": "Al Faḩaḩīl",
      "nativeName": "Al Faḩaḩīl",
      "code": "KW-AH-12216379",
      "countryId": 285570,
      "countryCode": "KW",
      "stateCode": "KW-AH",
      "latitude": 29.08318,
      "longitude": 48.1336
    },
    {
      "id": 12216368,
      "name": "Al Finţās",
      "nativeName": "Al Finţās",
      "code": "KW-AH-12216368",
      "countryId": 285570,
      "countryCode": "KW",
      "stateCode": "KW-AH",
      "latitude": 29.17045,
      "longitude": 48.11907
    },
    {
      "id": 12216372,
      "name": "Al Mahbūlah",
      "nativeName": "Al Mahbūlah",
      "code": "KW-AH-12216372",
      "countryId": 285570,
      "countryCode": "KW",
      "stateCode": "KW-AH",
      "latitude": 29.15017,
      "longitude": 48.11867
    },
    {
      "id": 12216377,
      "name": "Al Manqaf",
      "nativeName": "Al Manqaf",
      "code": "KW-AH-12216377",
      "countryId": 285570,
      "countryCode": "KW",
      "stateCode": "KW-AH",
      "latitude": 29.10716,
      "longitude": 48.12582
    },
    {
      "id": 12216332,
      "name": "Al Maqwa‘",
      "nativeName": "Al Maqwa‘",
      "code": "KW-AH-12216332",
      "countryId": 285570,
      "countryCode": "KW",
      "stateCode": "KW-AH",
      "latitude": 29.14045,
      "longitude": 48.04426
    },
    {
      "id": 12216369,
      "name": "Al ‘Uqaylah",
      "nativeName": "Al ‘Uqaylah",
      "code": "KW-AH-12216369",
      "countryId": 285570,
      "countryCode": "KW",
      "stateCode": "KW-AH",
      "latitude": 29.16872,
      "longitude": 48.1009
    },
    {
      "id": 12216373,
      "name": "Ar Riqqah",
      "nativeName": "Ar Riqqah",
      "code": "KW-AH-12216373",
      "countryId": 285570,
      "countryCode": "KW",
      "stateCode": "KW-AH",
      "latitude": 29.15037,
      "longitude": 48.1053
    },
    {
      "id": 12216371,
      "name": "Az̧ Z̧ahr",
      "nativeName": "Az̧ Z̧ahr",
      "code": "KW-AH-12216371",
      "countryId": 285570,
      "countryCode": "KW",
      "stateCode": "KW-AH",
      "latitude": 29.16591,
      "longitude": 48.06463
    },
    {
      "id": 12216378,
      "name": "Aş Şabāḩīyah",
      "nativeName": "Aş Şabāḩīyah",
      "code": "KW-AH-12216378",
      "countryId": 285570,
      "countryCode": "KW",
      "stateCode": "KW-AH",
      "latitude": 29.10494,
      "longitude": 48.10532
    },
    {
      "id": 12216376,
      "name": "Fahd al Aḩmad",
      "nativeName": "Fahd al Aḩmad",
      "code": "KW-AH-12216376",
      "countryId": 285570,
      "countryCode": "KW",
      "stateCode": "KW-AH",
      "latitude": 29.12726,
      "longitude": 48.1062
    },
    {
      "id": 12216374,
      "name": "Hadīyah",
      "nativeName": "Hadīyah",
      "code": "KW-AH-12216374",
      "countryId": 285570,
      "countryCode": "KW",
      "stateCode": "KW-AH",
      "latitude": 29.15009,
      "longitude": 48.09017
    },
    {
      "id": 12216335,
      "name": "Janūb ash Shu‘aybah",
      "nativeName": "Janūb ash Shu‘aybah",
      "code": "KW-AH-12216335",
      "countryId": 285570,
      "countryCode": "KW",
      "stateCode": "KW-AH",
      "latitude": 29.0205,
      "longitude": 48.12817
    },
    {
      "id": 12216333,
      "name": "Janūb aş Şabāḩīyah",
      "nativeName": "Janūb aş Şabāḩīyah",
      "code": "KW-AH-12216333",
      "countryId": 285570,
      "countryCode": "KW",
      "stateCode": "KW-AH",
      "latitude": 29.08279,
      "longitude": 48.1079
    },
    {
      "id": 12216370,
      "name": "Jābir al ‘Alī",
      "nativeName": "Jābir al ‘Alī",
      "code": "KW-AH-12216370",
      "countryId": 285570,
      "countryCode": "KW",
      "stateCode": "KW-AH",
      "latitude": 29.17001,
      "longitude": 48.08211
    },
    {
      "id": 12216380,
      "name": "Madīnat al Aḩmadī",
      "nativeName": "Madīnat al Aḩmadī",
      "code": "KW-AH-12216380",
      "countryId": 285570,
      "countryCode": "KW",
      "stateCode": "KW-AH",
      "latitude": 29.08348,
      "longitude": 48.07371
    },
    {
      "id": 12216336,
      "name": "Mīnā’ ‘Abd Allāh",
      "nativeName": "Mīnā’ ‘Abd Allāh",
      "code": "KW-AH-12216336",
      "countryId": 285570,
      "countryCode": "KW",
      "stateCode": "KW-AH",
      "latitude": 29.00208,
      "longitude": 48.1524
    },
    {
      "id": 12216334,
      "name": "Shamāl ash Shu‘aybah",
      "nativeName": "Shamāl ash Shu‘aybah",
      "code": "KW-AH-12216334",
      "countryId": 285570,
      "countryCode": "KW",
      "stateCode": "KW-AH",
      "latitude": 29.05925,
      "longitude": 48.1155
    }
  ]
}