{
  "stateId": 2756631,
  "stateCode": "NL-DR",
  "countryCode": "NL",
  "cities": [
    {
      "id": 2759632,
      "name": "Assen Municipality",
      "nativeName": "Gemeente Assen",
      "code": "NL-DR-2759632",
      "countryId": 2750405,
      "countryCode": "NL",
      "stateCode": "NL-DR",
      "latitude": 52.99635,
      "longitude": 6.55255
    },
    {
      "id": 2758619,
      "name": "Borger-Odoorn Municipality",
      "nativeName": "Gemeente Borger-Odoorn",
      "code": "NL-DR-2758619",
      "countryId": 2750405,
      "countryCode": "NL",
      "stateCode": "NL-DR",
      "latitude": 52.90501,
      "longitude": 6.88042
    },
    {
      "id": 2757936,
      "name": "Coevorden Municipality",
      "nativeName": "Gemeente Coevorden",
      "code": "NL-DR-2757936",
      "countryId": 2750405,
      "countryCode": "NL",
      "stateCode": "NL-DR",
      "latitude": 52.74344,
      "longitude": 6.72487
    },
    {
      "id": 6544296,
      "name": "Gemeente Aa en Hunze",
      "nativeName": "Gemeente Aa en Hunze",
      "code": "NL-DR-6544296",
      "countryId": 2750405,
      "countryCode": "NL",
      "stateCode": "NL-DR",
      "latitude": 53.00445,
      "longitude": 6.74908
    },
    {
      "id": 6544227,
      "name": "Gemeente De Wolden",
      "nativeName": "Gemeente De Wolden",
      "code": "NL-DR-6544227",
      "countryId": 2750405,
      "countryCode": "NL",
      "stateCode": "NL-DR",
      "latitude": 52.70102,
      "longitude": 6.37277
    },
    {
      "id": 2756134,
      "name": "Gemeente Emmen",
      "nativeName": "Gemeente Emmen",
      "code": "NL-DR-2756134",
      "countryId": 2750405,
      "countryCode": "NL",
      "stateCode": "NL-DR",
      "latitude": 52.75243,
      "longitude": 6.95938
    },
    {
      "id": 2753718,
      "name": "Gemeente Hoogeveen",
      "nativeName": "Gemeente Hoogeveen",
      "code": "NL-DR-2753718",
      "countryId": 2750405,
      "countryCode": "NL",
      "stateCode": "NL-DR",
      "latitude": 52.7182,
      "longitude": 6.51803
    },
    {
      "id": 6544297,
      "name": "Gemeente Midden-Drenthe",
      "nativeName": "Gemeente Midden-Drenthe",
      "code": "NL-DR-6544297",
      "countryId": 2750405,
      "countryCode": "NL",
      "stateCode": "NL-DR",
      "latitude": 52.86716,
      "longitude": 6.5384
    },
    {
      "id": 6544287,
      "name": "Gemeente Noordenveld",
      "nativeName": "Gemeente Noordenveld",
      "code": "NL-DR-6544287",
      "countryId": 2750405,
      "countryCode": "NL",
      "stateCode": "NL-DR",
      "latitude": 53.11494,
      "longitude": 6.44622
    },
    {
      "id": 6544282,
      "name": "Gemeente Tynaarlo",
      "nativeName": "Gemeente Tynaarlo",
      "code": "NL-DR-6544282",
      "countryId": 2750405,
      "countryCode": "NL",
      "stateCode": "NL-DR",
      "latitude": 53.10417,
      "longitude": 6.60271
    },
    {
      "id": 6544239,
      "name": "Gemeente Westerveld",
      "nativeName": "Gemeente Westerveld",
      "code": "NL-DR-6544239",
      "countryId": 2750405,
      "countryCode": "NL",
      "stateCode": "NL-DR",
      "latitude": 52.827,
      "longitude": 6.2906
    },
    {
      "id": 2750946,
      "name": "Meppel Municipality",
      "nativeName": "Gemeente Meppel",
      "code": "NL-DR-2750946",
      "countryId": 2750405,
      "countryCode": "NL",
      "stateCode": "NL-DR",
      "latitude": 52.70885,
      "longitude": 6.19727
    }
  ]
}