{
  "stateId": 2749879,
  "stateCode": "NL-NH",
  "countryCode": "NL",
  "cities": [
    {
      "id": 2760133,
      "name": "Aalsmeer Municipality",
      "nativeName": "Gemeente Aalsmeer",
      "code": "NL-NH-2760133",
      "countryId": 2750405,
      "countryCode": "NL",
      "stateCode": "NL-NH",
      "latitude": 52.26406,
      "longitude": 4.76532
    },
    {
      "id": 2759898,
      "name": "Alkmaar Municipality",
      "nativeName": "Gemeente Alkmaar",
      "code": "NL-NH-2759898",
      "countryId": 2750405,
      "countryCode": "NL",
      "stateCode": "NL-NH",
      "latitude": 52.6289,
      "longitude": 4.74403
    },
    {
      "id": 2759797,
      "name": "Amstelveen Municipality",
      "nativeName": "Gemeente Amstelveen",
      "code": "NL-NH-2759797",
      "countryId": 2750405,
      "countryCode": "NL",
      "stateCode": "NL-NH",
      "latitude": 52.2984,
      "longitude": 4.85767
    },
    {
      "id": 2759151,
      "name": "Bergen",
      "nativeName": "Gemeente Bergen",
      "code": "NL-NH-2759151",
      "countryId": 2750405,
      "countryCode": "NL",
      "stateCode": "NL-NH",
      "latitude": 52.65783,
      "longitude": 4.6761
    },
    {
      "id": 2758997,
      "name": "Beverwijk Municipality",
      "nativeName": "Gemeente Beverwijk",
      "code": "NL-NH-2758997",
      "countryId": 2750405,
      "countryCode": "NL",
      "stateCode": "NL-NH",
      "latitude": 52.48273,
      "longitude": 4.65468
    },
    {
      "id": 2758867,
      "name": "Blaricum Municipality",
      "nativeName": "Gemeente Blaricum",
      "code": "NL-NH-2758867",
      "countryId": 2750405,
      "countryCode": "NL",
      "stateCode": "NL-NH",
      "latitude": 52.28548,
      "longitude": 5.2683
    },
    {
      "id": 2757990,
      "name": "Castricum Municipality",
      "nativeName": "Gemeente Castricum",
      "code": "NL-NH-2757990",
      "countryId": 2750405,
      "countryCode": "NL",
      "stateCode": "NL-NH",
      "latitude": 52.55577,
      "longitude": 4.68945
    },
    {
      "id": 2757219,
      "name": "Den Helder Municipality",
      "nativeName": "Gemeente Den Helder",
      "code": "NL-NH-2757219",
      "countryId": 2750405,
      "countryCode": "NL",
      "stateCode": "NL-NH",
      "latitude": 52.92366,
      "longitude": 4.75793
    },
    {
      "id": 2756887,
      "name": "Diemen Municipality",
      "nativeName": "Gemeente Diemen",
      "code": "NL-NH-2756887",
      "countryId": 2750405,
      "countryCode": "NL",
      "stateCode": "NL-NH",
      "latitude": 52.34163,
      "longitude": 4.96805
    },
    {
      "id": 12494997,
      "name": "Dijk en Waard",
      "nativeName": "Dijk en Waard",
      "code": "NL-NH-12494997",
      "countryId": 2750405,
      "countryCode": "NL",
      "stateCode": "NL-NH",
      "latitude": 52.68423,
      "longitude": 4.81908
    },
    {
      "id": 2756430,
      "name": "Edam-Volendam",
      "nativeName": "Gemeente Edam-Volendam",
      "code": "NL-NH-2756430",
      "countryId": 2750405,
      "countryCode": "NL",
      "stateCode": "NL-NH",
      "latitude": 52.50556,
      "longitude": 5.0592
    },
    {
      "id": 2759793,
      "name": "Gemeente Amsterdam",
      "nativeName": "Gemeente Amsterdam",
      "code": "NL-NH-2759793",
      "countryId": 2750405,
      "countryCode": "NL",
      "stateCode": "NL-NH",
      "latitude": 52.37302,
      "longitude": 4.89856
    },
    {
      "id": 2758802,
      "name": "Gemeente Bloemendaal",
      "nativeName": "Gemeente Bloemendaal",
      "code": "NL-NH-2758802",
      "countryId": 2750405,
      "countryCode": "NL",
      "stateCode": "NL-NH",
      "latitude": 52.3623,
      "longitude": 4.58968
    },
    {
      "id": 6544254,
      "name": "Gemeente Drechterland",
      "nativeName": "Gemeente Drechterland",
      "code": "NL-NH-6544254",
      "countryId": 2750405,
      "countryCode": "NL",
      "stateCode": "NL-NH",
      "latitude": 52.66454,
      "longitude": 5.16569
    },
    {
      "id": 2756076,
      "name": "Gemeente Enkhuizen",
      "nativeName": "Gemeente Enkhuizen",
      "code": "NL-NH-2756076",
      "countryId": 2750405,
      "countryCode": "NL",
      "stateCode": "NL-NH",
      "latitude": 52.71653,
      "longitude": 5.27615
    },
    {
      "id": 2755002,
      "name": "Gemeente Haarlem",
      "nativeName": "Gemeente Haarlem",
      "code": "NL-NH-2755002",
      "countryId": 2750405,
      "countryCode": "NL",
      "stateCode": "NL-NH",
      "latitude": 52.38074,
      "longitude": 4.644
    },
    {
      "id": 2754999,
      "name": "Gemeente Haarlemmermeer",
      "nativeName": "Gemeente Haarlemmermeer",
      "code": "NL-NH-2754999",
      "countryId": 2750405,
      "countryCode": "NL",
      "stateCode": "NL-NH",
      "latitude": 52.30623,
      "longitude": 4.68418
    },
    {
      "id": 2754696,
      "name": "Gemeente Heemskerk",
      "nativeName": "Gemeente Heemskerk",
      "code": "NL-NH-2754696",
      "countryId": 2750405,
      "countryCode": "NL",
      "stateCode": "NL-NH",
      "latitude": 52.50945,
      "longitude": 4.65386
    },
    {
      "id": 2754691,
      "name": "Gemeente Heemstede",
      "nativeName": "Gemeente Heemstede",
      "code": "NL-NH-2754691",
      "countryId": 2750405,
      "countryCode": "NL",
      "stateCode": "NL-NH",
      "latitude": 52.34719,
      "longitude": 4.61838
    },
    {
      "id": 2758257,
      "name": "Gemeente Waterland",
      "nativeName": "Gemeente Waterland",
      "code": "NL-NH-2758257",
      "countryId": 2750405,
      "countryCode": "NL",
      "stateCode": "NL-NH",
      "latitude": 52.4376,
      "longitude": 5.01371
    },
    {
      "id": 2744903,
      "name": "Gemeente Weesp",
      "nativeName": "Gemeente Weesp",
      "code": "NL-NH-2744903",
      "countryId": 2750405,
      "countryCode": "NL",
      "stateCode": "NL-NH",
      "latitude": 52.30575,
      "longitude": 5.04152
    },
    {
      "id": 6544263,
      "name": "Gemeente Wormerland",
      "nativeName": "Gemeente Wormerland",
      "code": "NL-NH-6544263",
      "countryId": 2750405,
      "countryCode": "NL",
      "stateCode": "NL-NH",
      "latitude": 52.497,
      "longitude": 4.83364
    },
    {
      "id": 2744113,
      "name": "Gemeente Zaanstad",
      "nativeName": "Gemeente Zaanstad",
      "code": "NL-NH-2744113",
      "countryId": 2750405,
      "countryCode": "NL",
      "stateCode": "NL-NH",
      "latitude": 52.45308,
      "longitude": 4.81253
    },
    {
      "id": 2744040,
      "name": "Gemeente Zandvoort",
      "nativeName": "Gemeente Zandvoort",
      "code": "NL-NH-2744040",
      "countryId": 2750405,
      "countryCode": "NL",
      "stateCode": "NL-NH",
      "latitude": 52.35769,
      "longitude": 4.54388
    },
    {
      "id": 11189015,
      "name": "Gooise Meren",
      "nativeName": "Gooise Meren",
      "code": "NL-NH-11189015",
      "countryId": 2750405,
      "countryCode": "NL",
      "stateCode": "NL-NH",
      "latitude": 52.29735,
      "longitude": 5.13371
    },
    {
      "id": 2754515,
      "name": "Heiloo Municipality",
      "nativeName": "Gemeente Heiloo",
      "code": "NL-NH-2754515",
      "countryId": 2750405,
      "countryCode": "NL",
      "stateCode": "NL-NH",
      "latitude": 52.60122,
      "longitude": 4.70945
    },
    {
      "id": 2754063,
      "name": "Hilversum Municipality",
      "nativeName": "Gemeente Hilversum",
      "code": "NL-NH-2754063",
      "countryId": 2750405,
      "countryCode": "NL",
      "stateCode": "NL-NH",
      "latitude": 52.22252,
      "longitude": 5.16789
    },
    {
      "id": 8426240,
      "name": "Hollands Kroon Municipality",
      "nativeName": "Gemeente Hollands Kroon",
      "code": "NL-NH-8426240",
      "countryId": 2750405,
      "countryCode": "NL",
      "stateCode": "NL-NH",
      "latitude": 52.84882,
      "longitude": 4.90711
    },
    {
      "id": 2753635,
      "name": "Hoorn Municipality",
      "nativeName": "Gemeente Hoorn",
      "code": "NL-NH-2753635",
      "countryId": 2750405,
      "countryCode": "NL",
      "stateCode": "NL-NH",
      "latitude": 52.64312,
      "longitude": 5.05779
    },
    {
      "id": 2753467,
      "name": "Huizen Municipality",
      "nativeName": "Gemeente Huizen",
      "code": "NL-NH-2753467",
      "countryId": 2750405,
      "countryCode": "NL",
      "stateCode": "NL-NH",
      "latitude": 52.29664,
      "longitude": 5.24132
    },
    {
      "id": 6544220,
      "name": "Koggenland Municipality",
      "nativeName": "Gemeente Koggenland",
      "code": "NL-NH-6544220",
      "countryId": 2750405,
      "countryCode": "NL",
      "stateCode": "NL-NH",
      "latitude": 52.64163,
      "longitude": 4.94909
    },
    {
      "id": 2751979,
      "name": "Landsmeer Municipality",
      "nativeName": "Gemeente Landsmeer",
      "code": "NL-NH-2751979",
      "countryId": 2750405,
      "countryCode": "NL",
      "stateCode": "NL-NH",
      "latitude": 52.431,
      "longitude": 4.9157
    },
    {
      "id": 2751873,
      "name": "Laren Municipality",
      "nativeName": "Gemeente Laren",
      "code": "NL-NH-2751873",
      "countryId": 2750405,
      "countryCode": "NL",
      "stateCode": "NL-NH",
      "latitude": 52.24518,
      "longitude": 5.21701
    },
    {
      "id": 2751072,
      "name": "Medemblik Municipality",
      "nativeName": "Gemeente Medemblik",
      "code": "NL-NH-2751072",
      "countryId": 2750405,
      "countryCode": "NL",
      "stateCode": "NL-NH",
      "latitude": 52.72496,
      "longitude": 5.12204
    },
    {
      "id": 2749319,
      "name": "Oostzaan Municipality",
      "nativeName": "Gemeente Oostzaan",
      "code": "NL-NH-2749319",
      "countryId": 2750405,
      "countryCode": "NL",
      "stateCode": "NL-NH",
      "latitude": 52.4378,
      "longitude": 4.87604
    },
    {
      "id": 2749285,
      "name": "Opmeer Municipality",
      "nativeName": "Gemeente Opmeer",
      "code": "NL-NH-2749285",
      "countryId": 2750405,
      "countryCode": "NL",
      "stateCode": "NL-NH",
      "latitude": 52.71468,
      "longitude": 4.95334
    },
    {
      "id": 2749027,
      "name": "Ouder-Amstel",
      "nativeName": "Gemeente Ouder-Amstel",
      "code": "NL-NH-2749027",
      "countryId": 2750405,
      "countryCode": "NL",
      "stateCode": "NL-NH",
      "latitude": 52.30659,
      "longitude": 4.91432
    },
    {
      "id": 2748412,
      "name": "Purmerend Municipality",
      "nativeName": "Gemeente Purmerend",
      "code": "NL-NH-2748412",
      "countryId": 2750405,
      "countryCode": "NL",
      "stateCode": "NL-NH",
      "latitude": 52.50515,
      "longitude": 4.95243
    },
    {
      "id": 2747719,
      "name": "Schagen Municipality",
      "nativeName": "Gemeente Schagen",
      "code": "NL-NH-2747719",
      "countryId": 2750405,
      "countryCode": "NL",
      "stateCode": "NL-NH",
      "latitude": 52.78823,
      "longitude": 4.79965
    },
    {
      "id": 6544238,
      "name": "Stede Broec Municipality",
      "nativeName": "Gemeente Stede Broec",
      "code": "NL-NH-6544238",
      "countryId": 2750405,
      "countryCode": "NL",
      "stateCode": "NL-NH",
      "latitude": 52.69617,
      "longitude": 5.22389
    },
    {
      "id": 2746383,
      "name": "Texel Municipality",
      "nativeName": "Gemeente Texel",
      "code": "NL-NH-2746383",
      "countryId": 2750405,
      "countryCode": "NL",
      "stateCode": "NL-NH",
      "latitude": 53.07883,
      "longitude": 4.81166
    },
    {
      "id": 2745977,
      "name": "Uitgeest Municipality",
      "nativeName": "Gemeente Uitgeest",
      "code": "NL-NH-2745977",
      "countryId": 2750405,
      "countryCode": "NL",
      "stateCode": "NL-NH",
      "latitude": 52.52855,
      "longitude": 4.71176
    },
    {
      "id": 2745972,
      "name": "Uithoorn Municipality",
      "nativeName": "Gemeente Uithoorn",
      "code": "NL-NH-2745972",
      "countryId": 2750405,
      "countryCode": "NL",
      "stateCode": "NL-NH",
      "latitude": 52.23999,
      "longitude": 4.83072
    },
    {
      "id": 2745675,
      "name": "Velsen Municipality",
      "nativeName": "Gemeente Velsen",
      "code": "NL-NH-2745675",
      "countryId": 2750405,
      "countryCode": "NL",
      "stateCode": "NL-NH",
      "latitude": 52.45182,
      "longitude": 4.63211
    },
    {
      "id": 3345301,
      "name": "Wijdemeren Municipality",
      "nativeName": "Gemeente Wijdemeren",
      "code": "NL-NH-3345301",
      "countryId": 2750405,
      "countryCode": "NL",
      "stateCode": "NL-NH",
      "latitude": 52.22756,
      "longitude": 5.08445
    }
  ]
}