{
  "stateId": 162152,
  "stateCode": "TM-B",
  "countryCode": "TM",
  "cities": [
    {
      "id": 161616,
      "name": "Balkanabat",
      "nativeName": "Balkanabat",
      "code": "TM-B-161616",
      "countryId": 1218197,
      "countryCode": "TM",
      "stateCode": "TM-B",
      "latitude": 39.51075,
      "longitude": 54.36713
    },
    {
      "id": 162245,
      "name": "Adzhiyab",
      "nativeName": "Ajyýap",
      "code": "TM-B-162245",
      "countryId": 1218197,
      "countryCode": "TM",
      "stateCode": "TM-B",
      "latitude": 37.41972,
      "longitude": 54.15833
    },
    {
      "id": 410786,
      "name": "Agach-Arvat",
      "nativeName": "Agach-Arvat",
      "code": "TM-B-410786",
      "countryId": 1218197,
      "countryCode": "TM",
      "stateCode": "TM-B",
      "latitude": 37.70119,
      "longitude": 54.78339
    },
    {
      "id": 12226652,
      "name": "Akdaş",
      "nativeName": "Akdaş",
      "code": "TM-B-12226652",
      "countryId": 1218197,
      "countryCode": "TM",
      "stateCode": "TM-B",
      "latitude": 40.04222,
      "longitude": 53.12608
    },
    {
      "id": 601782,
      "name": "Akguýy",
      "nativeName": "Akguýy",
      "code": "TM-B-601782",
      "countryId": 1218197,
      "countryCode": "TM",
      "stateCode": "TM-B",
      "latitude": 40.15683,
      "longitude": 54.35707
    },
    {
      "id": 162216,
      "name": "Akyayla",
      "nativeName": "Akyayla",
      "code": "TM-B-162216",
      "countryId": 1218197,
      "countryCode": "TM",
      "stateCode": "TM-B",
      "latitude": 37.48889,
      "longitude": 54.69111
    },
    {
      "id": 162213,
      "name": "Alaja",
      "nativeName": "Alaja",
      "code": "TM-B-162213",
      "countryId": 1218197,
      "countryCode": "TM",
      "stateCode": "TM-B",
      "latitude": 39.35694,
      "longitude": 53.21222
    },
    {
      "id": 442585,
      "name": "Alangyrtly",
      "nativeName": "Alangyrtly",
      "code": "TM-B-442585",
      "countryId": 1218197,
      "countryCode": "TM",
      "stateCode": "TM-B",
      "latitude": 38.46528,
      "longitude": 54.35417
    },
    {
      "id": 442581,
      "name": "Altykui",
      "nativeName": "Altykui",
      "code": "TM-B-442581",
      "countryId": 1218197,
      "countryCode": "TM",
      "stateCode": "TM-B",
      "latitude": 38.60889,
      "longitude": 54.2125
    },
    {
      "id": 8707482,
      "name": "Arabata",
      "nativeName": "Arabata",
      "code": "TM-B-8707482",
      "countryId": 1218197,
      "countryCode": "TM",
      "stateCode": "TM-B",
      "latitude": 38.42929,
      "longitude": 56.43853
    },
    {
      "id": 162196,
      "name": "Arapchuk",
      "nativeName": "Arapchuk",
      "code": "TM-B-162196",
      "countryId": 1218197,
      "countryCode": "TM",
      "stateCode": "TM-B",
      "latitude": 38.43202,
      "longitude": 56.46966
    },
    {
      "id": 601538,
      "name": "Awlamyş",
      "nativeName": "Awlamyş",
      "code": "TM-B-601538",
      "countryId": 1218197,
      "countryCode": "TM",
      "stateCode": "TM-B",
      "latitude": 40.64246,
      "longitude": 55.20529
    },
    {
      "id": 162167,
      "name": "Aydere",
      "nativeName": "Aydere",
      "code": "TM-B-162167",
      "countryId": 1218197,
      "countryCode": "TM",
      "stateCode": "TM-B",
      "latitude": 38.40046,
      "longitude": 56.74856
    },
    {
      "id": 12226662,
      "name": "Bada",
      "nativeName": "Bada",
      "code": "TM-B-12226662",
      "countryId": 1218197,
      "countryCode": "TM",
      "stateCode": "TM-B",
      "latitude": 40.37143,
      "longitude": 56.94242
    },
    {
      "id": 442588,
      "name": "Balkui",
      "nativeName": "Balkui",
      "code": "TM-B-442588",
      "countryId": 1218197,
      "countryCode": "TM",
      "stateCode": "TM-B",
      "latitude": 38.38944,
      "longitude": 54.47972
    },
    {
      "id": 162150,
      "name": "Balla-Ishem",
      "nativeName": "Balla-Ishem",
      "code": "TM-B-162150",
      "countryId": 1218197,
      "countryCode": "TM",
      "stateCode": "TM-B",
      "latitude": 39.43333,
      "longitude": 54.48333
    },
    {
      "id": 410651,
      "name": "Bazar",
      "nativeName": "Bazar",
      "code": "TM-B-410651",
      "countryId": 1218197,
      "countryCode": "TM",
      "stateCode": "TM-B",
      "latitude": 37.59306,
      "longitude": 53.89306
    },
    {
      "id": 162123,
      "name": "Bekibent",
      "nativeName": "Bekibent",
      "code": "TM-B-162123",
      "countryId": 1218197,
      "countryCode": "TM",
      "stateCode": "TM-B",
      "latitude": 38.62342,
      "longitude": 55.18878
    },
    {
      "id": 162141,
      "name": "Belek",
      "nativeName": "Belek",
      "code": "TM-B-162141",
      "countryId": 1218197,
      "countryCode": "TM",
      "stateCode": "TM-B",
      "latitude": 39.92917,
      "longitude": 53.8425
    },
    {
      "id": 162139,
      "name": "Bendesen",
      "nativeName": "Bendesen",
      "code": "TM-B-162139",
      "countryId": 1218197,
      "countryCode": "TM",
      "stateCode": "TM-B",
      "latitude": 38.637,
      "longitude": 56.60187
    },
    {
      "id": 161974,
      "name": "Bereket",
      "nativeName": "Bereket",
      "code": "TM-B-161974",
      "countryId": 1218197,
      "countryCode": "TM",
      "stateCode": "TM-B",
      "latitude": 39.24463,
      "longitude": 55.51536
    },
    {
      "id": 162106,
      "name": "Bugdaýly",
      "nativeName": "Bugdaýly",
      "code": "TM-B-162106",
      "countryId": 1218197,
      "countryCode": "TM",
      "stateCode": "TM-B",
      "latitude": 38.49765,
      "longitude": 54.37565
    },
    {
      "id": 12226682,
      "name": "Burgun",
      "nativeName": "Burgun",
      "code": "TM-B-12226682",
      "countryId": 1218197,
      "countryCode": "TM",
      "stateCode": "TM-B",
      "latitude": 39.89816,
      "longitude": 55.90528
    },
    {
      "id": 162098,
      "name": "Byurgyutli",
      "nativeName": "Byurgyutli",
      "code": "TM-B-162098",
      "countryId": 1218197,
      "countryCode": "TM",
      "stateCode": "TM-B",
      "latitude": 38.16667,
      "longitude": 55.51667
    },
    {
      "id": 162093,
      "name": "Chalsu",
      "nativeName": "Chalsu",
      "code": "TM-B-162093",
      "countryId": 1218197,
      "countryCode": "TM",
      "stateCode": "TM-B",
      "latitude": 38.83335,
      "longitude": 56.21668
    },
    {
      "id": 410793,
      "name": "Chat",
      "nativeName": "Chat",
      "code": "TM-B-410793",
      "countryId": 1218197,
      "countryCode": "TM",
      "stateCode": "TM-B",
      "latitude": 38.02513,
      "longitude": 55.22696
    },
    {
      "id": 162080,
      "name": "Chekur-Yurt",
      "nativeName": "Chekur-Yurt",
      "code": "TM-B-162080",
      "countryId": 1218197,
      "countryCode": "TM",
      "stateCode": "TM-B",
      "latitude": 38.22822,
      "longitude": 56.89027
    },
    {
      "id": 162044,
      "name": "Dardali",
      "nativeName": "Dardali",
      "code": "TM-B-162044",
      "countryId": 1218197,
      "countryCode": "TM",
      "stateCode": "TM-B",
      "latitude": 38.15,
      "longitude": 56.03333
    },
    {
      "id": 8708310,
      "name": "Dovletkhan",
      "nativeName": "Dovletkhan",
      "code": "TM-B-8708310",
      "countryId": 1218197,
      "countryCode": "TM",
      "stateCode": "TM-B",
      "latitude": 38.37869,
      "longitude": 56.74184
    },
    {
      "id": 162011,
      "name": "Durdykhan",
      "nativeName": "Durdykhan",
      "code": "TM-B-162011",
      "countryId": 1218197,
      "countryCode": "TM",
      "stateCode": "TM-B",
      "latitude": 38.38291,
      "longitude": 56.73769
    },
    {
      "id": 162005,
      "name": "Duzlydepe",
      "nativeName": "Duzlydepe",
      "code": "TM-B-162005",
      "countryId": 1218197,
      "countryCode": "TM",
      "stateCode": "TM-B",
      "latitude": 38.30159,
      "longitude": 56.74529
    },
    {
      "id": 161996,
      "name": "Dzhedzhirs",
      "nativeName": "Dzhedzhirs",
      "code": "TM-B-161996",
      "countryId": 1218197,
      "countryCode": "TM",
      "stateCode": "TM-B",
      "latitude": 38.70821,
      "longitude": 56.49853
    },
    {
      "id": 161991,
      "name": "Dzhuvaldy",
      "nativeName": "Dzhuvaldy",
      "code": "TM-B-161991",
      "countryId": 1218197,
      "countryCode": "TM",
      "stateCode": "TM-B",
      "latitude": 38.6,
      "longitude": 56.58333
    },
    {
      "id": 162045,
      "name": "Däneata",
      "nativeName": "Däneata",
      "code": "TM-B-162045",
      "countryId": 1218197,
      "countryCode": "TM",
      "stateCode": "TM-B",
      "latitude": 39.11123,
      "longitude": 55.14879
    },
    {
      "id": 162006,
      "name": "Düwünçi",
      "nativeName": "Düwünçi",
      "code": "TM-B-162006",
      "countryId": 1218197,
      "countryCode": "TM",
      "stateCode": "TM-B",
      "latitude": 39.7283,
      "longitude": 55.11981
    },
    {
      "id": 161597,
      "name": "Ekerem",
      "nativeName": "Ekerem",
      "code": "TM-B-161597",
      "countryId": 1218197,
      "countryCode": "TM",
      "stateCode": "TM-B",
      "latitude": 38.07039,
      "longitude": 53.83848
    },
    {
      "id": 161371,
      "name": "Esenguly",
      "nativeName": "Esenguly",
      "code": "TM-B-161371",
      "countryId": 1218197,
      "countryCode": "TM",
      "stateCode": "TM-B",
      "latitude": 37.46461,
      "longitude": 53.97256
    },
    {
      "id": 161370,
      "name": "Etrek",
      "nativeName": "Etrek",
      "code": "TM-B-161370",
      "countryId": 1218197,
      "countryCode": "TM",
      "stateCode": "TM-B",
      "latitude": 37.66114,
      "longitude": 54.76645
    },
    {
      "id": 442580,
      "name": "Gamyşlyja",
      "nativeName": "Gamyşlyja",
      "code": "TM-B-442580",
      "countryId": 1218197,
      "countryCode": "TM",
      "stateCode": "TM-B",
      "latitude": 38.39359,
      "longitude": 54.0154
    },
    {
      "id": 12226658,
      "name": "Garaaýman",
      "nativeName": "Garaaýman",
      "code": "TM-B-12226658",
      "countryId": 1218197,
      "countryCode": "TM",
      "stateCode": "TM-B",
      "latitude": 40.74685,
      "longitude": 55.99478
    },
    {
      "id": 12226681,
      "name": "Garabogaz",
      "nativeName": "Garabogaz",
      "code": "TM-B-12226681",
      "countryId": 1218197,
      "countryCode": "TM",
      "stateCode": "TM-B",
      "latitude": 39.28151,
      "longitude": 56.46039
    },
    {
      "id": 161883,
      "name": "Garadegish",
      "nativeName": "Garadegish",
      "code": "TM-B-161883",
      "countryId": 1218197,
      "countryCode": "TM",
      "stateCode": "TM-B",
      "latitude": 37.44359,
      "longitude": 54.4997
    },
    {
      "id": 442578,
      "name": "Garadepe",
      "nativeName": "Garadepe",
      "code": "TM-B-442578",
      "countryId": 1218197,
      "countryCode": "TM",
      "stateCode": "TM-B",
      "latitude": 38.03222,
      "longitude": 54.03556
    },
    {
      "id": 161877,
      "name": "Garagöl",
      "nativeName": "Garagöl",
      "code": "TM-B-161877",
      "countryId": 1218197,
      "countryCode": "TM",
      "stateCode": "TM-B",
      "latitude": 39.37982,
      "longitude": 53.17342
    },
    {
      "id": 8991373,
      "name": "Garahan",
      "nativeName": "Garahan",
      "code": "TM-B-8991373",
      "countryId": 1218197,
      "countryCode": "TM",
      "stateCode": "TM-B",
      "latitude": 38.21128,
      "longitude": 55.81233
    },
    {
      "id": 410763,
      "name": "Garajabatyr",
      "nativeName": "Garajabatyr",
      "code": "TM-B-410763",
      "countryId": 1218197,
      "countryCode": "TM",
      "stateCode": "TM-B",
      "latitude": 37.64639,
      "longitude": 54.42278
    },
    {
      "id": 12226661,
      "name": "Garaýylgyn",
      "nativeName": "Garaýylgyn",
      "code": "TM-B-12226661",
      "countryId": 1218197,
      "countryCode": "TM",
      "stateCode": "TM-B",
      "latitude": 40.11321,
      "longitude": 55.44373
    },
    {
      "id": 8707480,
      "name": "Garkel",
      "nativeName": "Garkel",
      "code": "TM-B-8707480",
      "countryId": 1218197,
      "countryCode": "TM",
      "stateCode": "TM-B",
      "latitude": 38.43052,
      "longitude": 56.33366
    },
    {
      "id": 12226647,
      "name": "Garşy",
      "nativeName": "Garşy",
      "code": "TM-B-12226647",
      "countryId": 1218197,
      "countryCode": "TM",
      "stateCode": "TM-B",
      "latitude": 40.71981,
      "longitude": 52.85702
    },
    {
      "id": 161368,
      "name": "Goturdepe",
      "nativeName": "Goturdepe",
      "code": "TM-B-161368",
      "countryId": 1218197,
      "countryCode": "TM",
      "stateCode": "TM-B",
      "latitude": 39.46699,
      "longitude": 53.716
    },
    {
      "id": 161749,
      "name": "Goç",
      "nativeName": "Goç",
      "code": "TM-B-161749",
      "countryId": 1218197,
      "countryCode": "TM",
      "stateCode": "TM-B",
      "latitude": 38.81636,
      "longitude": 56.59591
    },
    {
      "id": 12226659,
      "name": "Goýmat",
      "nativeName": "Goýmat",
      "code": "TM-B-12226659",
      "countryId": 1218197,
      "countryCode": "TM",
      "stateCode": "TM-B",
      "latitude": 40.44929,
      "longitude": 55.85903
    },
    {
      "id": 601603,
      "name": "Goşaoba",
      "nativeName": "Goşaoba",
      "code": "TM-B-601603",
      "countryId": 1218197,
      "countryCode": "TM",
      "stateCode": "TM-B",
      "latitude": 40.33134,
      "longitude": 54.22758
    },
    {
      "id": 12226686,
      "name": "Gulmaç",
      "nativeName": "Gulmaç",
      "code": "TM-B-12226686",
      "countryId": 1218197,
      "countryCode": "TM",
      "stateCode": "TM-B",
      "latitude": 39.05729,
      "longitude": 55.9379
    },
    {
      "id": 161943,
      "name": "Gumdag",
      "nativeName": "Gumdag",
      "code": "TM-B-161943",
      "countryId": 1218197,
      "countryCode": "TM",
      "stateCode": "TM-B",
      "latitude": 39.20611,
      "longitude": 54.59056
    },
    {
      "id": 9534489,
      "name": "Gurruk",
      "nativeName": "Gurruk",
      "code": "TM-B-9534489",
      "countryId": 1218197,
      "countryCode": "TM",
      "stateCode": "TM-B",
      "latitude": 37.68025,
      "longitude": 54.07406
    },
    {
      "id": 161678,
      "name": "Gyzyl",
      "nativeName": "Gyzyl",
      "code": "TM-B-161678",
      "countryId": 1218197,
      "countryCode": "TM",
      "stateCode": "TM-B",
      "latitude": 38.42992,
      "longitude": 56.20506
    },
    {
      "id": 161538,
      "name": "Gyzylbaýyr",
      "nativeName": "Gyzylbaýyr",
      "code": "TM-B-161538",
      "countryId": 1218197,
      "countryCode": "TM",
      "stateCode": "TM-B",
      "latitude": 38.21968,
      "longitude": 55.6507
    },
    {
      "id": 161754,
      "name": "Gyzylsuw",
      "nativeName": "Gyzylsuw",
      "code": "TM-B-161754",
      "countryId": 1218197,
      "countryCode": "TM",
      "stateCode": "TM-B",
      "latitude": 39.79901,
      "longitude": 53.01361
    },
    {
      "id": 161672,
      "name": "Gyzylymam",
      "nativeName": "Gyzylymam",
      "code": "TM-B-161672",
      "countryId": 1218197,
      "countryCode": "TM",
      "stateCode": "TM-B",
      "latitude": 38.14648,
      "longitude": 56.04003
    },
    {
      "id": 442582,
      "name": "Gögerendag",
      "nativeName": "Gögerendag",
      "code": "TM-B-442582",
      "countryId": 1218197,
      "countryCode": "TM",
      "stateCode": "TM-B",
      "latitude": 38.88317,
      "longitude": 54.33161
    },
    {
      "id": 12226660,
      "name": "Gökdere",
      "nativeName": "Gökdere",
      "code": "TM-B-12226660",
      "countryId": 1218197,
      "countryCode": "TM",
      "stateCode": "TM-B",
      "latitude": 40.35199,
      "longitude": 55.52475
    },
    {
      "id": 161947,
      "name": "Güdürolum",
      "nativeName": "Güdürolum",
      "code": "TM-B-161947",
      "countryId": 1218197,
      "countryCode": "TM",
      "stateCode": "TM-B",
      "latitude": 37.47385,
      "longitude": 54.65193
    },
    {
      "id": 12226656,
      "name": "Gürje",
      "nativeName": "Gürje",
      "code": "TM-B-12226656",
      "countryId": 1218197,
      "countryCode": "TM",
      "stateCode": "TM-B",
      "latitude": 40.29575,
      "longitude": 54.35782
    },
    {
      "id": 12226650,
      "name": "Hasan",
      "nativeName": "Hasan",
      "code": "TM-B-12226650",
      "countryId": 1218197,
      "countryCode": "TM",
      "stateCode": "TM-B",
      "latitude": 40.18094,
      "longitude": 53.53361
    },
    {
      "id": 161785,
      "name": "Hojagala",
      "nativeName": "Hojagala",
      "code": "TM-B-161785",
      "countryId": 1218197,
      "countryCode": "TM",
      "stateCode": "TM-B",
      "latitude": 38.25261,
      "longitude": 56.80981
    },
    {
      "id": 161773,
      "name": "Hudaýberdi",
      "nativeName": "Hudaýberdi",
      "code": "TM-B-161773",
      "countryId": 1218197,
      "countryCode": "TM",
      "stateCode": "TM-B",
      "latitude": 39.94198,
      "longitude": 54.78217
    },
    {
      "id": 161925,
      "name": "Ilidzha",
      "nativeName": "Ilidzha",
      "code": "TM-B-161925",
      "countryId": 1218197,
      "countryCode": "TM",
      "stateCode": "TM-B",
      "latitude": 38.1111,
      "longitude": 55.43048
    },
    {
      "id": 161924,
      "name": "Imeni Dvadtsati Shesti Bakinskikh Komissarov",
      "nativeName": "Imeni Dvadtsati Shesti Bakinskikh Komissarov",
      "code": "TM-B-161924",
      "countryId": 1218197,
      "countryCode": "TM",
      "stateCode": "TM-B",
      "latitude": 39.34222,
      "longitude": 54.16806
    },
    {
      "id": 161920,
      "name": "Imeni Lenina",
      "nativeName": "Imeni Lenina",
      "code": "TM-B-161920",
      "countryId": 1218197,
      "countryCode": "TM",
      "stateCode": "TM-B",
      "latitude": 38.08333,
      "longitude": 54.85
    },
    {
      "id": 8708309,
      "name": "Inzhar",
      "nativeName": "Inzhar",
      "code": "TM-B-8708309",
      "countryId": 1218197,
      "countryCode": "TM",
      "stateCode": "TM-B",
      "latitude": 38.3866,
      "longitude": 56.7442
    },
    {
      "id": 601674,
      "name": "Irikli",
      "nativeName": "Irikli",
      "code": "TM-B-601674",
      "countryId": 1218197,
      "countryCode": "TM",
      "stateCode": "TM-B",
      "latitude": 40.16759,
      "longitude": 54.30411
    },
    {
      "id": 12226687,
      "name": "Isgender",
      "nativeName": "Isgender",
      "code": "TM-B-12226687",
      "countryId": 1218197,
      "countryCode": "TM",
      "stateCode": "TM-B",
      "latitude": 39.07946,
      "longitude": 55.93178
    },
    {
      "id": 161999,
      "name": "Janahyr",
      "nativeName": "Janahyr",
      "code": "TM-B-161999",
      "countryId": 1218197,
      "countryCode": "TM",
      "stateCode": "TM-B",
      "latitude": 38.97276,
      "longitude": 56.22742
    },
    {
      "id": 449424,
      "name": "Jashan",
      "nativeName": "Jashan",
      "code": "TM-B-449424",
      "countryId": 1218197,
      "countryCode": "TM",
      "stateCode": "TM-B",
      "latitude": 39.68333,
      "longitude": 55.56667
    },
    {
      "id": 161997,
      "name": "Jebel",
      "nativeName": "Jebel",
      "code": "TM-B-161997",
      "countryId": 1218197,
      "countryCode": "TM",
      "stateCode": "TM-B",
      "latitude": 39.63415,
      "longitude": 54.23053
    },
    {
      "id": 12226679,
      "name": "Jemal",
      "nativeName": "Jemal",
      "code": "TM-B-12226679",
      "countryId": 1218197,
      "countryCode": "TM",
      "stateCode": "TM-B",
      "latitude": 39.90457,
      "longitude": 56.07843
    },
    {
      "id": 442596,
      "name": "Kara-Agach",
      "nativeName": "Kara-Agach",
      "code": "TM-B-442596",
      "countryId": 1218197,
      "countryCode": "TM",
      "stateCode": "TM-B",
      "latitude": 38.09088,
      "longitude": 55.34089
    },
    {
      "id": 601758,
      "name": "Karabogaz",
      "nativeName": "Garabogaz",
      "code": "TM-B-601758",
      "countryId": 1218197,
      "countryCode": "TM",
      "stateCode": "TM-B",
      "latitude": 41.54013,
      "longitude": 52.57344
    },
    {
      "id": 8734815,
      "name": "Karabugra",
      "nativeName": "Karabugra",
      "code": "TM-B-8734815",
      "countryId": 1218197,
      "countryCode": "TM",
      "stateCode": "TM-B",
      "latitude": 38.67944,
      "longitude": 56.67938
    },
    {
      "id": 161849,
      "name": "Karnas",
      "nativeName": "Karnas",
      "code": "TM-B-161849",
      "countryId": 1218197,
      "countryCode": "TM",
      "stateCode": "TM-B",
      "latitude": 38.13333,
      "longitude": 56.01667
    },
    {
      "id": 161839,
      "name": "Kayrayuz",
      "nativeName": "Kayrayuz",
      "code": "TM-B-161839",
      "countryId": 1218197,
      "countryCode": "TM",
      "stateCode": "TM-B",
      "latitude": 39.53778,
      "longitude": 53.18639
    },
    {
      "id": 12226651,
      "name": "Kenar",
      "nativeName": "Kenar",
      "code": "TM-B-12226651",
      "countryId": 1218197,
      "countryCode": "TM",
      "stateCode": "TM-B",
      "latitude": 40.00317,
      "longitude": 53.07121
    },
    {
      "id": 8701627,
      "name": "Kergeli",
      "nativeName": "Kergeli",
      "code": "TM-B-8701627",
      "countryId": 1218197,
      "countryCode": "TM",
      "stateCode": "TM-B",
      "latitude": 38.24004,
      "longitude": 56.8384
    },
    {
      "id": 161784,
      "name": "Khodzhakala",
      "nativeName": "Hojagala",
      "code": "TM-B-161784",
      "countryId": 1218197,
      "countryCode": "TM",
      "stateCode": "TM-B",
      "latitude": 38.71127,
      "longitude": 56.33832
    },
    {
      "id": 161931,
      "name": "Kizil-Arvat",
      "nativeName": "Serdar",
      "code": "TM-B-161931",
      "countryId": 1218197,
      "countryCode": "TM",
      "stateCode": "TM-B",
      "latitude": 38.97644,
      "longitude": 56.27575
    },
    {
      "id": 161761,
      "name": "Kizyl-Cherek",
      "nativeName": "Kizyl-Cherek",
      "code": "TM-B-161761",
      "countryId": 1218197,
      "countryCode": "TM",
      "stateCode": "TM-B",
      "latitude": 38.14565,
      "longitude": 56.04237
    },
    {
      "id": 12226683,
      "name": "Kiçijikýazy",
      "nativeName": "Kiçijikýazy",
      "code": "TM-B-12226683",
      "countryId": 1218197,
      "countryCode": "TM",
      "stateCode": "TM-B",
      "latitude": 39.73017,
      "longitude": 55.25448
    },
    {
      "id": 161713,
      "name": "Kurbanseyid",
      "nativeName": "Kurbanseyid",
      "code": "TM-B-161713",
      "countryId": 1218197,
      "countryCode": "TM",
      "stateCode": "TM-B",
      "latitude": 38.13578,
      "longitude": 54.74773
    },
    {
      "id": 161701,
      "name": "Kuruždeý",
      "nativeName": "Kuruždeý",
      "code": "TM-B-161701",
      "countryId": 1218197,
      "countryCode": "TM",
      "stateCode": "TM-B",
      "latitude": 38.34273,
      "longitude": 56.74191
    },
    {
      "id": 601571,
      "name": "Kuuli-Mayak",
      "nativeName": "Guwlymaýak",
      "code": "TM-B-601571",
      "countryId": 1218197,
      "countryCode": "TM",
      "stateCode": "TM-B",
      "latitude": 40.2443,
      "longitude": 52.74151
    },
    {
      "id": 161820,
      "name": "Könekesir",
      "nativeName": "Könekesir",
      "code": "TM-B-161820",
      "countryId": 1218197,
      "countryCode": "TM",
      "stateCode": "TM-B",
      "latitude": 38.21935,
      "longitude": 56.92502
    },
    {
      "id": 161665,
      "name": "Madaw",
      "nativeName": "Madaw",
      "code": "TM-B-161665",
      "countryId": 1218197,
      "countryCode": "TM",
      "stateCode": "TM-B",
      "latitude": 38.14046,
      "longitude": 54.74406
    },
    {
      "id": 12226663,
      "name": "Melegoç",
      "nativeName": "Melegoç",
      "code": "TM-B-12226663",
      "countryId": 1218197,
      "countryCode": "TM",
      "stateCode": "TM-B",
      "latitude": 40.03455,
      "longitude": 56.67133
    },
    {
      "id": 161632,
      "name": "Mollagara",
      "nativeName": "Mollagara",
      "code": "TM-B-161632",
      "countryId": 1218197,
      "countryCode": "TM",
      "stateCode": "TM-B",
      "latitude": 39.62764,
      "longitude": 54.18079
    },
    {
      "id": 161629,
      "name": "Monzhukly",
      "nativeName": "Monzhukly",
      "code": "TM-B-161629",
      "countryId": 1218197,
      "countryCode": "TM",
      "stateCode": "TM-B",
      "latitude": 38.15,
      "longitude": 55.88333
    },
    {
      "id": 12226688,
      "name": "Mämili",
      "nativeName": "Mämili",
      "code": "TM-B-12226688",
      "countryId": 1218197,
      "countryCode": "TM",
      "stateCode": "TM-B",
      "latitude": 39.0539,
      "longitude": 56.6482
    },
    {
      "id": 161622,
      "name": "Naara",
      "nativeName": "Naara",
      "code": "TM-B-161622",
      "countryId": 1218197,
      "countryCode": "TM",
      "stateCode": "TM-B",
      "latitude": 38.44893,
      "longitude": 56.35833
    },
    {
      "id": 12226648,
      "name": "Nefes",
      "nativeName": "Nefes",
      "code": "TM-B-12226648",
      "countryId": 1218197,
      "countryCode": "TM",
      "stateCode": "TM-B",
      "latitude": 40.2685,
      "longitude": 52.97653
    },
    {
      "id": 12226684,
      "name": "Oboý",
      "nativeName": "Oboý",
      "code": "TM-B-12226684",
      "countryId": 1218197,
      "countryCode": "TM",
      "stateCode": "TM-B",
      "latitude": 39.15166,
      "longitude": 55.31214
    },
    {
      "id": 161600,
      "name": "Ogomana",
      "nativeName": "Ogomana",
      "code": "TM-B-161600",
      "countryId": 1218197,
      "countryCode": "TM",
      "stateCode": "TM-B",
      "latitude": 39.39774,
      "longitude": 53.27163
    },
    {
      "id": 161599,
      "name": "Ogurjaly",
      "nativeName": "Ogurjaly",
      "code": "TM-B-161599",
      "countryId": 1218197,
      "countryCode": "TM",
      "stateCode": "TM-B",
      "latitude": 39.06184,
      "longitude": 53.04196
    },
    {
      "id": 12226689,
      "name": "Ok",
      "nativeName": "Ok",
      "code": "TM-B-12226689",
      "countryId": 1218197,
      "countryCode": "TM",
      "stateCode": "TM-B",
      "latitude": 39.36734,
      "longitude": 56.19027
    },
    {
      "id": 442586,
      "name": "Orunchaga",
      "nativeName": "Orunchaga",
      "code": "TM-B-442586",
      "countryId": 1218197,
      "countryCode": "TM",
      "stateCode": "TM-B",
      "latitude": 38.45139,
      "longitude": 54.43667
    },
    {
      "id": 161583,
      "name": "Paraw",
      "nativeName": "Paraw",
      "code": "TM-B-161583",
      "countryId": 1218197,
      "countryCode": "TM",
      "stateCode": "TM-B",
      "latitude": 39.03126,
      "longitude": 56.05556
    },
    {
      "id": 161568,
      "name": "Purnuwar",
      "nativeName": "Purnuwar",
      "code": "TM-B-161568",
      "countryId": 1218197,
      "countryCode": "TM",
      "stateCode": "TM-B",
      "latitude": 38.86173,
      "longitude": 56.33282
    },
    {
      "id": 8707481,
      "name": "Sakar",
      "nativeName": "Sakar",
      "code": "TM-B-8707481",
      "countryId": 1218197,
      "countryCode": "TM",
      "stateCode": "TM-B",
      "latitude": 38.43287,
      "longitude": 56.3945
    },
    {
      "id": 8698748,
      "name": "Serli",
      "nativeName": "Serli",
      "code": "TM-B-8698748",
      "countryId": 1218197,
      "countryCode": "TM",
      "stateCode": "TM-B",
      "latitude": 38.22982,
      "longitude": 56.35746
    },
    {
      "id": 8707486,
      "name": "Shekhveder",
      "nativeName": "Shekhveder",
      "code": "TM-B-8707486",
      "countryId": 1218197,
      "countryCode": "TM",
      "stateCode": "TM-B",
      "latitude": 38.38355,
      "longitude": 56.51186
    },
    {
      "id": 161515,
      "name": "Sotsializm",
      "nativeName": "Sotsializm",
      "code": "TM-B-161515",
      "countryId": 1218197,
      "countryCode": "TM",
      "stateCode": "TM-B",
      "latitude": 38.41667,
      "longitude": 56.33333
    },
    {
      "id": 601479,
      "name": "Soýli",
      "nativeName": "Soýli",
      "code": "TM-B-601479",
      "countryId": 1218197,
      "countryCode": "TM",
      "stateCode": "TM-B",
      "latitude": 40.38083,
      "longitude": 53.71973
    },
    {
      "id": 442590,
      "name": "Suydzhermen",
      "nativeName": "Suydzhermen",
      "code": "TM-B-442590",
      "countryId": 1218197,
      "countryCode": "TM",
      "stateCode": "TM-B",
      "latitude": 38.14444,
      "longitude": 54.73611
    },
    {
      "id": 12226649,
      "name": "Sülmen",
      "nativeName": "Sülmen",
      "code": "TM-B-12226649",
      "countryId": 1218197,
      "countryCode": "TM",
      "stateCode": "TM-B",
      "latitude": 40.41985,
      "longitude": 53.31296
    },
    {
      "id": 161489,
      "name": "Tazabad",
      "nativeName": "Tazabad",
      "code": "TM-B-161489",
      "countryId": 1218197,
      "countryCode": "TM",
      "stateCode": "TM-B",
      "latitude": 39.85872,
      "longitude": 52.95495
    },
    {
      "id": 410781,
      "name": "Tekendzhik",
      "nativeName": "Tekendzhik",
      "code": "TM-B-410781",
      "countryId": 1218197,
      "countryCode": "TM",
      "stateCode": "TM-B",
      "latitude": 37.90272,
      "longitude": 55.05121
    },
    {
      "id": 161485,
      "name": "Teki-Moor",
      "nativeName": "Teki-Moor",
      "code": "TM-B-161485",
      "countryId": 1218197,
      "countryCode": "TM",
      "stateCode": "TM-B",
      "latitude": 38.69301,
      "longitude": 56.64755
    },
    {
      "id": 9280135,
      "name": "Telyarli",
      "nativeName": "Telyarli",
      "code": "TM-B-9280135",
      "countryId": 1218197,
      "countryCode": "TM",
      "stateCode": "TM-B",
      "latitude": 38.32461,
      "longitude": 56.05418
    },
    {
      "id": 161478,
      "name": "Tersakan",
      "nativeName": "Tersakan",
      "code": "TM-B-161478",
      "countryId": 1218197,
      "countryCode": "TM",
      "stateCode": "TM-B",
      "latitude": 38.4001,
      "longitude": 55.9549
    },
    {
      "id": 161473,
      "name": "Tertarach",
      "nativeName": "Tertarach",
      "code": "TM-B-161473",
      "countryId": 1218197,
      "countryCode": "TM",
      "stateCode": "TM-B",
      "latitude": 38.86667,
      "longitude": 56.35
    },
    {
      "id": 161466,
      "name": "Tutly",
      "nativeName": "Tutly",
      "code": "TM-B-161466",
      "countryId": 1218197,
      "countryCode": "TM",
      "stateCode": "TM-B",
      "latitude": 39.17335,
      "longitude": 56.55922
    },
    {
      "id": 601594,
      "name": "Türkmenbaşy",
      "nativeName": "Türkmenbaşy",
      "code": "TM-B-601594",
      "countryId": 1218197,
      "countryCode": "TM",
      "stateCode": "TM-B",
      "latitude": 40.02216,
      "longitude": 52.95517
    },
    {
      "id": 12226685,
      "name": "Türkmenistan",
      "nativeName": "Türkmenistan",
      "code": "TM-B-12226685",
      "countryId": 1218197,
      "countryCode": "TM",
      "stateCode": "TM-B",
      "latitude": 39.40619,
      "longitude": 55.81513
    },
    {
      "id": 601452,
      "name": "Tüwer",
      "nativeName": "Tüwer",
      "code": "TM-B-601452",
      "countryId": 1218197,
      "countryCode": "TM",
      "stateCode": "TM-B",
      "latitude": 40.84087,
      "longitude": 55.16824
    },
    {
      "id": 410775,
      "name": "Udey",
      "nativeName": "Udey",
      "code": "TM-B-410775",
      "countryId": 1218197,
      "countryCode": "TM",
      "stateCode": "TM-B",
      "latitude": 37.57806,
      "longitude": 54.79278
    },
    {
      "id": 161446,
      "name": "Udzhi",
      "nativeName": "Udzhi",
      "code": "TM-B-161446",
      "countryId": 1218197,
      "countryCode": "TM",
      "stateCode": "TM-B",
      "latitude": 38.36435,
      "longitude": 56.7298
    },
    {
      "id": 12226690,
      "name": "Uzboý",
      "nativeName": "Uzboý",
      "code": "TM-B-12226690",
      "countryId": 1218197,
      "countryCode": "TM",
      "stateCode": "TM-B",
      "latitude": 39.33635,
      "longitude": 54.1544
    },
    {
      "id": 161424,
      "name": "Uzynsuw",
      "nativeName": "Uzynsuw",
      "code": "TM-B-161424",
      "countryId": 1218197,
      "countryCode": "TM",
      "stateCode": "TM-B",
      "latitude": 39.17977,
      "longitude": 55.69953
    },
    {
      "id": 8708311,
      "name": "Verkhniy Aydere",
      "nativeName": "Verkhniy Aydere",
      "code": "TM-B-8708311",
      "countryId": 1218197,
      "countryCode": "TM",
      "stateCode": "TM-B",
      "latitude": 38.42096,
      "longitude": 56.88422
    },
    {
      "id": 8738537,
      "name": "Verkhniy Chemelli",
      "nativeName": "Verkhniy Chemelli",
      "code": "TM-B-8738537",
      "countryId": 1218197,
      "countryCode": "TM",
      "stateCode": "TM-B",
      "latitude": 38.8173,
      "longitude": 56.43089
    },
    {
      "id": 161414,
      "name": "Yaglyolum",
      "nativeName": "Yaglyolum",
      "code": "TM-B-161414",
      "countryId": 1218197,
      "countryCode": "TM",
      "stateCode": "TM-B",
      "latitude": 37.78477,
      "longitude": 54.86425
    },
    {
      "id": 410773,
      "name": "Yarymtyk",
      "nativeName": "Yarymtyk",
      "code": "TM-B-410773",
      "countryId": 1218197,
      "countryCode": "TM",
      "stateCode": "TM-B",
      "latitude": 37.5057,
      "longitude": 54.66229
    },
    {
      "id": 161395,
      "name": "Yauzy",
      "nativeName": "Yauzy",
      "code": "TM-B-161395",
      "countryId": 1218197,
      "countryCode": "TM",
      "stateCode": "TM-B",
      "latitude": 39.95917,
      "longitude": 52.85917
    },
    {
      "id": 12226657,
      "name": "Ybyk",
      "nativeName": "Ybyk",
      "code": "TM-B-12226657",
      "countryId": 1218197,
      "countryCode": "TM",
      "stateCode": "TM-B",
      "latitude": 40.25044,
      "longitude": 54.70686
    },
    {
      "id": 9534213,
      "name": "Yegat",
      "nativeName": "Yegat",
      "code": "TM-B-9534213",
      "countryId": 1218197,
      "countryCode": "TM",
      "stateCode": "TM-B",
      "latitude": 38.12841,
      "longitude": 54.14526
    },
    {
      "id": 442584,
      "name": "Yegridzhar",
      "nativeName": "Yegridzhar",
      "code": "TM-B-442584",
      "countryId": 1218197,
      "countryCode": "TM",
      "stateCode": "TM-B",
      "latitude": 38.55194,
      "longitude": 54.27639
    },
    {
      "id": 410724,
      "name": "Yňdyrlan",
      "nativeName": "Yňdyrlan",
      "code": "TM-B-410724",
      "countryId": 1218197,
      "countryCode": "TM",
      "stateCode": "TM-B",
      "latitude": 37.97562,
      "longitude": 54.29789
    },
    {
      "id": 161374,
      "name": "Zaw",
      "nativeName": "Zaw",
      "code": "TM-B-161374",
      "countryId": 1218197,
      "countryCode": "TM",
      "stateCode": "TM-B",
      "latitude": 38.76497,
      "longitude": 56.70119
    },
    {
      "id": 601744,
      "name": "Çagyl",
      "nativeName": "Çagyl",
      "code": "TM-B-601744",
      "countryId": 1218197,
      "countryCode": "TM",
      "stateCode": "TM-B",
      "latitude": 40.78447,
      "longitude": 55.38065
    },
    {
      "id": 162094,
      "name": "Çaloyuk",
      "nativeName": "Çaloyuk",
      "code": "TM-B-162094",
      "countryId": 1218197,
      "countryCode": "TM",
      "stateCode": "TM-B",
      "latitude": 37.41078,
      "longitude": 54.32652
    },
    {
      "id": 162081,
      "name": "Çekişler",
      "nativeName": "Çekişler",
      "code": "TM-B-162081",
      "countryId": 1218197,
      "countryCode": "TM",
      "stateCode": "TM-B",
      "latitude": 37.57339,
      "longitude": 53.89858
    },
    {
      "id": 162079,
      "name": "Çeleken",
      "nativeName": "Çeleken",
      "code": "TM-B-162079",
      "countryId": 1218197,
      "countryCode": "TM",
      "stateCode": "TM-B",
      "latitude": 39.40632,
      "longitude": 53.12832
    },
    {
      "id": 162073,
      "name": "Çemenli",
      "nativeName": "Çemenli",
      "code": "TM-B-162073",
      "countryId": 1218197,
      "countryCode": "TM",
      "stateCode": "TM-B",
      "latitude": 38.83747,
      "longitude": 56.4164
    },
    {
      "id": 162072,
      "name": "Çerkezli",
      "nativeName": "Çerkezli",
      "code": "TM-B-162072",
      "countryId": 1218197,
      "countryCode": "TM",
      "stateCode": "TM-B",
      "latitude": 39.35071,
      "longitude": 56.26719
    },
    {
      "id": 410774,
      "name": "Çetli",
      "nativeName": "Çetli",
      "code": "TM-B-410774",
      "countryId": 1218197,
      "countryCode": "TM",
      "stateCode": "TM-B",
      "latitude": 37.52375,
      "longitude": 54.73953
    },
    {
      "id": 162054,
      "name": "Çukur",
      "nativeName": "Çukur",
      "code": "TM-B-162054",
      "countryId": 1218197,
      "countryCode": "TM",
      "stateCode": "TM-B",
      "latitude": 38.68365,
      "longitude": 56.46354
    },
    {
      "id": 8994641,
      "name": "Öýleguşluk",
      "nativeName": "Öýleguşluk",
      "code": "TM-B-8994641",
      "countryId": 1218197,
      "countryCode": "TM",
      "stateCode": "TM-B",
      "latitude": 38.63867,
      "longitude": 55.79533
    },
    {
      "id": 161398,
      "name": "Ýasga",
      "nativeName": "Ýasga",
      "code": "TM-B-161398",
      "countryId": 1218197,
      "countryCode": "TM",
      "stateCode": "TM-B",
      "latitude": 39.70768,
      "longitude": 55.5576
    },
    {
      "id": 12226655,
      "name": "Ýazygşem",
      "nativeName": "Ýazygşem",
      "code": "TM-B-12226655",
      "countryId": 1218197,
      "countryCode": "TM",
      "stateCode": "TM-B",
      "latitude": 40.45023,
      "longitude": 53.98872
    },
    {
      "id": 161376,
      "name": "Ýuwangala",
      "nativeName": "Ýuwangala",
      "code": "TM-B-161376",
      "countryId": 1218197,
      "countryCode": "TM",
      "stateCode": "TM-B",
      "latitude": 38.44304,
      "longitude": 56.49553
    },
    {
      "id": 12226680,
      "name": "Ýylgynly",
      "nativeName": "Ýylgynly",
      "code": "TM-B-12226680",
      "countryId": 1218197,
      "countryCode": "TM",
      "stateCode": "TM-B",
      "latitude": 39.86239,
      "longitude": 56.1917
    },
    {
      "id": 442587,
      "name": "Şahman",
      "nativeName": "Şahman",
      "code": "TM-B-442587",
      "countryId": 1218197,
      "countryCode": "TM",
      "stateCode": "TM-B",
      "latitude": 38.40599,
      "longitude": 54.46054
    },
    {
      "id": 161980,
      "name": "Magtymguly",
      "nativeName": "Magtymguly",
      "code": "TM-B-161980",
      "countryId": 1218197,
      "countryCode": "TM",
      "stateCode": "TM-B",
      "latitude": 38.43749,
      "longitude": 56.28081
    }
  ]
}