{
  "stateId": 146383,
  "stateCode": "CY-02",
  "countryCode": "CY",
  "cities": [
    {
      "id": 12207071,
      "name": "Agios Amvrosios (Lemesou)",
      "nativeName": "Agios Amvrosios (Lemesou)",
      "code": "CY-02-12207071",
      "countryId": 146669,
      "countryCode": "CY",
      "stateCode": "CY-02",
      "latitude": 34.75528,
      "longitude": 32.8167
    },
    {
      "id": 12207072,
      "name": "Agios Georgios (Lemesou)",
      "nativeName": "Agios Georgios (Lemesou)",
      "code": "CY-02-12207072",
      "countryId": 146669,
      "countryCode": "CY",
      "stateCode": "CY-02",
      "latitude": 34.79972,
      "longitude": 32.89804
    },
    {
      "id": 12207067,
      "name": "Agios Ioannis (Lemesou)",
      "nativeName": "Agios Ioannis (Lemesou)",
      "code": "CY-02-12207067",
      "countryId": 146669,
      "countryCode": "CY",
      "stateCode": "CY-02",
      "latitude": 34.89065,
      "longitude": 33.01318
    },
    {
      "id": 12207066,
      "name": "Agios Theodoros (Lemesou)",
      "nativeName": "Agios Theodoros (Lemesou)",
      "code": "CY-02-12207066",
      "countryId": 146669,
      "countryCode": "CY",
      "stateCode": "CY-02",
      "latitude": 34.89231,
      "longitude": 33.04318
    },
    {
      "id": 10347038,
      "name": "Agrídia",
      "nativeName": "Agrídia",
      "code": "CY-02-10347038",
      "countryId": 146669,
      "countryCode": "CY",
      "stateCode": "CY-02",
      "latitude": 34.93124,
      "longitude": 32.99446
    },
    {
      "id": 10347037,
      "name": "Agrós",
      "nativeName": "Agrós",
      "code": "CY-02-10347037",
      "countryId": 146669,
      "countryCode": "CY",
      "stateCode": "CY-02",
      "latitude": 34.91866,
      "longitude": 33.01858
    },
    {
      "id": 10346973,
      "name": "Akapnoú",
      "nativeName": "Akapnoú",
      "code": "CY-02-10346973",
      "countryId": 146669,
      "countryCode": "CY",
      "stateCode": "CY-02",
      "latitude": 34.84317,
      "longitude": 33.19892
    },
    {
      "id": 10346982,
      "name": "Akrotíri",
      "nativeName": "Akrotíri",
      "code": "CY-02-10346982",
      "countryId": 146669,
      "countryCode": "CY",
      "stateCode": "CY-02",
      "latitude": 34.60044,
      "longitude": 32.96563
    },
    {
      "id": 10346962,
      "name": "Akroúnta",
      "nativeName": "Akroúnta",
      "code": "CY-02-10346962",
      "countryId": 146669,
      "countryCode": "CY",
      "stateCode": "CY-02",
      "latitude": 34.76977,
      "longitude": 33.08411
    },
    {
      "id": 10346993,
      "name": "Aléktora",
      "nativeName": "Aléktora",
      "code": "CY-02-10346993",
      "countryId": 146669,
      "countryCode": "CY",
      "stateCode": "CY-02",
      "latitude": 34.70319,
      "longitude": 32.66891
    },
    {
      "id": 10347032,
      "name": "Amíantos",
      "nativeName": "Amíantos",
      "code": "CY-02-10347032",
      "countryId": 146669,
      "countryCode": "CY",
      "stateCode": "CY-02",
      "latitude": 34.92809,
      "longitude": 32.92421
    },
    {
      "id": 10346994,
      "name": "Anógyra",
      "nativeName": "Anógyra",
      "code": "CY-02-10346994",
      "countryId": 146669,
      "countryCode": "CY",
      "stateCode": "CY-02",
      "latitude": 34.74041,
      "longitude": 32.73391
    },
    {
      "id": 10346955,
      "name": "Apesiá",
      "nativeName": "Apesiá",
      "code": "CY-02-10346955",
      "countryId": 146669,
      "countryCode": "CY",
      "stateCode": "CY-02",
      "latitude": 34.78288,
      "longitude": 32.97612
    },
    {
      "id": 10346954,
      "name": "Apsioú",
      "nativeName": "Apsioú",
      "code": "CY-02-10346954",
      "countryId": 146669,
      "countryCode": "CY",
      "stateCode": "CY-02",
      "latitude": 34.8007,
      "longitude": 33.03011
    },
    {
      "id": 10346976,
      "name": "Arakapás",
      "nativeName": "Arakapás",
      "code": "CY-02-10346976",
      "countryId": 146669,
      "countryCode": "CY",
      "stateCode": "CY-02",
      "latitude": 34.85208,
      "longitude": 33.1056
    },
    {
      "id": 10346960,
      "name": "Armenochóri",
      "nativeName": "Armenochóri",
      "code": "CY-02-10346960",
      "countryId": 146669,
      "countryCode": "CY",
      "stateCode": "CY-02",
      "latitude": 34.75195,
      "longitude": 33.12448
    },
    {
      "id": 10346967,
      "name": "Asgáta",
      "nativeName": "Asgáta",
      "code": "CY-02-10346967",
      "countryId": 146669,
      "countryCode": "CY",
      "stateCode": "CY-02",
      "latitude": 34.77711,
      "longitude": 33.2503
    },
    {
      "id": 12207062,
      "name": "Asomatos (Lemesou)",
      "nativeName": "Asomatos (Lemesou)",
      "code": "CY-02-12207062",
      "countryId": 146669,
      "countryCode": "CY",
      "stateCode": "CY-02",
      "latitude": 34.63069,
      "longitude": 32.97316
    },
    {
      "id": 10346990,
      "name": "Avdímou",
      "nativeName": "Avdímou",
      "code": "CY-02-10346990",
      "countryId": 146669,
      "countryCode": "CY",
      "stateCode": "CY-02",
      "latitude": 34.68484,
      "longitude": 32.76065
    },
    {
      "id": 10347039,
      "name": "Chandriá",
      "nativeName": "Chandriá",
      "code": "CY-02-10347039",
      "countryId": 146669,
      "countryCode": "CY",
      "stateCode": "CY-02",
      "latitude": 34.94697,
      "longitude": 32.99132
    },
    {
      "id": 10346975,
      "name": "Dieróna",
      "nativeName": "Dieróna",
      "code": "CY-02-10346975",
      "countryId": 146669,
      "countryCode": "CY",
      "stateCode": "CY-02",
      "latitude": 34.81905,
      "longitude": 33.09774
    },
    {
      "id": 10347011,
      "name": "Dorá",
      "nativeName": "Dorá",
      "code": "CY-02-10347011",
      "countryId": 146669,
      "countryCode": "CY",
      "stateCode": "CY-02",
      "latitude": 34.78131,
      "longitude": 32.73129
    },
    {
      "id": 10347003,
      "name": "Dorós",
      "nativeName": "Dorós",
      "code": "CY-02-10347003",
      "countryId": 146669,
      "countryCode": "CY",
      "stateCode": "CY-02",
      "latitude": 34.79756,
      "longitude": 32.92421
    },
    {
      "id": 10347035,
      "name": "Dýmes",
      "nativeName": "Dýmes",
      "code": "CY-02-10347035",
      "countryId": 146669,
      "countryCode": "CY",
      "stateCode": "CY-02",
      "latitude": 34.92757,
      "longitude": 32.96878
    },
    {
      "id": 10346986,
      "name": "Episkopí",
      "nativeName": "Episkopí",
      "code": "CY-02-10346986",
      "countryId": 146669,
      "countryCode": "CY",
      "stateCode": "CY-02",
      "latitude": 34.67383,
      "longitude": 32.8828
    },
    {
      "id": 10346974,
      "name": "Eptagóneia",
      "nativeName": "Eptagóneia",
      "code": "CY-02-10346974",
      "countryId": 146669,
      "countryCode": "CY",
      "stateCode": "CY-02",
      "latitude": 34.84474,
      "longitude": 33.14912
    },
    {
      "id": 10346985,
      "name": "Erími",
      "nativeName": "Erími",
      "code": "CY-02-10346985",
      "countryId": 146669,
      "countryCode": "CY",
      "stateCode": "CY-02",
      "latitude": 34.69009,
      "longitude": 32.92002
    },
    {
      "id": 10346951,
      "name": "Fasoúla",
      "nativeName": "Fasoúla",
      "code": "CY-02-10346951",
      "countryId": 146669,
      "countryCode": "CY",
      "stateCode": "CY-02",
      "latitude": 34.75719,
      "longitude": 33.02959
    },
    {
      "id": 10346961,
      "name": "Foinikária",
      "nativeName": "Foinikária",
      "code": "CY-02-10346961",
      "countryId": 146669,
      "countryCode": "CY",
      "stateCode": "CY-02",
      "latitude": 34.76034,
      "longitude": 33.10613
    },
    {
      "id": 10347031,
      "name": "Foiní",
      "nativeName": "Foiní",
      "code": "CY-02-10347031",
      "countryId": 146669,
      "countryCode": "CY",
      "stateCode": "CY-02",
      "latitude": 34.90398,
      "longitude": 32.82041
    },
    {
      "id": 10346944,
      "name": "Germasogeia",
      "nativeName": "Germasógeia",
      "code": "CY-02-10346944",
      "countryId": 146669,
      "countryCode": "CY",
      "stateCode": "CY-02",
      "latitude": 34.72207,
      "longitude": 33.08254
    },
    {
      "id": 10347012,
      "name": "Gerovása",
      "nativeName": "Gerovása",
      "code": "CY-02-10347012",
      "countryId": 146669,
      "countryCode": "CY",
      "stateCode": "CY-02",
      "latitude": 34.81538,
      "longitude": 32.73549
    },
    {
      "id": 10346953,
      "name": "Gerása",
      "nativeName": "Gerása",
      "code": "CY-02-10346953",
      "countryId": 146669,
      "countryCode": "CY",
      "stateCode": "CY-02",
      "latitude": 34.81014,
      "longitude": 32.99551
    },
    {
      "id": 12207078,
      "name": "Kalo Chorio (Lemesou)",
      "nativeName": "Kalo Chorio (Lemesou)",
      "code": "CY-02-12207078",
      "countryId": 146669,
      "countryCode": "CY",
      "stateCode": "CY-02",
      "latitude": 34.84557,
      "longitude": 33.02746
    },
    {
      "id": 10347026,
      "name": "Kaminária",
      "nativeName": "Kaminária",
      "code": "CY-02-10347026",
      "countryId": 146669,
      "countryCode": "CY",
      "stateCode": "CY-02",
      "latitude": 34.92285,
      "longitude": 32.78057
    },
    {
      "id": 10346987,
      "name": "Kantoú",
      "nativeName": "Kantoú",
      "code": "CY-02-10346987",
      "countryId": 146669,
      "countryCode": "CY",
      "stateCode": "CY-02",
      "latitude": 34.70057,
      "longitude": 32.90325
    },
    {
      "id": 10346958,
      "name": "Kapileió",
      "nativeName": "Kapileió",
      "code": "CY-02-10346958",
      "countryId": 146669,
      "countryCode": "CY",
      "stateCode": "CY-02",
      "latitude": 34.83111,
      "longitude": 32.96563
    },
    {
      "id": 10346972,
      "name": "Kelláki",
      "nativeName": "Kelláki",
      "code": "CY-02-10346972",
      "countryId": 146669,
      "countryCode": "CY",
      "stateCode": "CY-02",
      "latitude": 34.81329,
      "longitude": 33.16065
    },
    {
      "id": 10347014,
      "name": "Kissoúsa",
      "nativeName": "Kissoúsa",
      "code": "CY-02-10347014",
      "countryId": 146669,
      "countryCode": "CY",
      "stateCode": "CY-02",
      "latitude": 34.80804,
      "longitude": 32.79682
    },
    {
      "id": 10346970,
      "name": "Klonári",
      "nativeName": "Klonári",
      "code": "CY-02-10346970",
      "countryId": 146669,
      "countryCode": "CY",
      "stateCode": "CY-02",
      "latitude": 34.82901,
      "longitude": 33.17847
    },
    {
      "id": 10347022,
      "name": "Koiláni",
      "nativeName": "Koiláni",
      "code": "CY-02-10347022",
      "countryId": 146669,
      "countryCode": "CY",
      "stateCode": "CY-02",
      "latitude": 34.84212,
      "longitude": 32.85449
    },
    {
      "id": 10346984,
      "name": "Kolóssi",
      "nativeName": "Kolóssi",
      "code": "CY-02-10346984",
      "countryId": 146669,
      "countryCode": "CY",
      "stateCode": "CY-02",
      "latitude": 34.66807,
      "longitude": 32.93313
    },
    {
      "id": 10346956,
      "name": "Korfí",
      "nativeName": "Korfí",
      "code": "CY-02-10346956",
      "countryId": 146669,
      "countryCode": "CY",
      "stateCode": "CY-02",
      "latitude": 34.79232,
      "longitude": 32.95934
    },
    {
      "id": 10347009,
      "name": "Kouká",
      "nativeName": "Kouká",
      "code": "CY-02-10347009",
      "countryId": 146669,
      "countryCode": "CY",
      "stateCode": "CY-02",
      "latitude": 34.85522,
      "longitude": 32.89276
    },
    {
      "id": 10347040,
      "name": "Kyperoúnta",
      "nativeName": "Kyperoúnta",
      "code": "CY-02-10347040",
      "countryId": 146669,
      "countryCode": "CY",
      "stateCode": "CY-02",
      "latitude": 34.94539,
      "longitude": 32.96406
    },
    {
      "id": 10346998,
      "name": "Káto Kivídes",
      "nativeName": "Káto Kivídes",
      "code": "CY-02-10346998",
      "countryId": 146669,
      "countryCode": "CY",
      "stateCode": "CY-02",
      "latitude": 34.76558,
      "longitude": 32.87022
    },
    {
      "id": 10347033,
      "name": "Káto Mýlos",
      "nativeName": "Káto Mýlos",
      "code": "CY-02-10347033",
      "countryId": 146669,
      "countryCode": "CY",
      "stateCode": "CY-02",
      "latitude": 34.89769,
      "longitude": 33.00233
    },
    {
      "id": 10347029,
      "name": "Káto Plátres",
      "nativeName": "Káto Plátres",
      "code": "CY-02-10347029",
      "countryId": 146669,
      "countryCode": "CY",
      "stateCode": "CY-02",
      "latitude": 34.88039,
      "longitude": 32.82828
    },
    {
      "id": 10346947,
      "name": "Káto Polemídia",
      "nativeName": "Káto Polemídia",
      "code": "CY-02-10346947",
      "countryId": 146669,
      "countryCode": "CY",
      "stateCode": "CY-02",
      "latitude": 34.70319,
      "longitude": 32.97769
    },
    {
      "id": 10346941,
      "name": "Lemesós",
      "nativeName": "Lemesós",
      "code": "CY-02-10346941",
      "countryId": 146669,
      "countryCode": "CY",
      "stateCode": "CY-02",
      "latitude": 34.69218,
      "longitude": 33.02854
    },
    {
      "id": 10347028,
      "name": "Lemíthou",
      "nativeName": "Lemíthou",
      "code": "CY-02-10347028",
      "countryId": 146669,
      "countryCode": "CY",
      "stateCode": "CY-02",
      "latitude": 34.95011,
      "longitude": 32.80678
    },
    {
      "id": 10346957,
      "name": "Limnátis",
      "nativeName": "Limnátis",
      "code": "CY-02-10346957",
      "countryId": 146669,
      "countryCode": "CY",
      "stateCode": "CY-02",
      "latitude": 34.79756,
      "longitude": 32.94519
    },
    {
      "id": 10346980,
      "name": "Louvarás",
      "nativeName": "Louvarás",
      "code": "CY-02-10346980",
      "countryId": 146669,
      "countryCode": "CY",
      "stateCode": "CY-02",
      "latitude": 34.83111,
      "longitude": 33.04165
    },
    {
      "id": 10347004,
      "name": "Láneia",
      "nativeName": "Láneia",
      "code": "CY-02-10347004",
      "countryId": 146669,
      "countryCode": "CY",
      "stateCode": "CY-02",
      "latitude": 34.83006,
      "longitude": 32.91845
    },
    {
      "id": 10347001,
      "name": "Lófou",
      "nativeName": "Lófou",
      "code": "CY-02-10347001",
      "countryId": 146669,
      "countryCode": "CY",
      "stateCode": "CY-02",
      "latitude": 34.80332,
      "longitude": 32.87913
    },
    {
      "id": 10347015,
      "name": "Maliá",
      "nativeName": "Maliá",
      "code": "CY-02-10347015",
      "countryId": 146669,
      "countryCode": "CY",
      "stateCode": "CY-02",
      "latitude": 34.80647,
      "longitude": 32.76537
    },
    {
      "id": 10347019,
      "name": "Mandriá",
      "nativeName": "Mandriá",
      "code": "CY-02-10347019",
      "countryId": 146669,
      "countryCode": "CY",
      "stateCode": "CY-02",
      "latitude": 34.86781,
      "longitude": 32.83667
    },
    {
      "id": 10346952,
      "name": "Mathikolóni",
      "nativeName": "Mathikolóni",
      "code": "CY-02-10346952",
      "countryId": 146669,
      "countryCode": "CY",
      "stateCode": "CY-02",
      "latitude": 34.78235,
      "longitude": 33.06052
    },
    {
      "id": 10346966,
      "name": "Monagroúlli",
      "nativeName": "Monagroúlli",
      "code": "CY-02-10346966",
      "countryId": 146669,
      "countryCode": "CY",
      "stateCode": "CY-02",
      "latitude": 34.74723,
      "longitude": 33.2157
    },
    {
      "id": 12207084,
      "name": "Moni",
      "nativeName": "Moni",
      "code": "CY-02-12207084",
      "countryId": 146669,
      "countryCode": "CY",
      "stateCode": "CY-02",
      "latitude": 34.72747,
      "longitude": 33.20335
    },
    {
      "id": 10347010,
      "name": "Moniátis",
      "nativeName": "Moniátis",
      "code": "CY-02-10347010",
      "countryId": 146669,
      "countryCode": "CY",
      "stateCode": "CY-02",
      "latitude": 34.88301,
      "longitude": 32.90639
    },
    {
      "id": 10347006,
      "name": "Monágri",
      "nativeName": "Monágri",
      "code": "CY-02-10347006",
      "countryId": 146669,
      "countryCode": "CY",
      "stateCode": "CY-02",
      "latitude": 34.79336,
      "longitude": 32.91321
    },
    {
      "id": 10346959,
      "name": "Mouttagiáka",
      "nativeName": "Mouttagiáka",
      "code": "CY-02-10346959",
      "countryId": 146669,
      "countryCode": "CY",
      "stateCode": "CY-02",
      "latitude": 34.72207,
      "longitude": 33.10508
    },
    {
      "id": 10346942,
      "name": "Mésa Geitoniá",
      "nativeName": "Mésa Geitoniá",
      "code": "CY-02-10346942",
      "countryId": 146669,
      "countryCode": "CY",
      "stateCode": "CY-02",
      "latitude": 34.70057,
      "longitude": 33.04374
    },
    {
      "id": 10347024,
      "name": "Palaiómylos",
      "nativeName": "Palaiómylos",
      "code": "CY-02-10347024",
      "countryId": 146669,
      "countryCode": "CY",
      "stateCode": "CY-02",
      "latitude": 34.92914,
      "longitude": 32.82566
    },
    {
      "id": 10346948,
      "name": "Palódeia",
      "nativeName": "Palódeia",
      "code": "CY-02-10346948",
      "countryId": 146669,
      "countryCode": "CY",
      "stateCode": "CY-02",
      "latitude": 34.74408,
      "longitude": 32.98922
    },
    {
      "id": 10346989,
      "name": "Paramáli",
      "nativeName": "Paramáli",
      "code": "CY-02-10346989",
      "countryId": 146669,
      "countryCode": "CY",
      "stateCode": "CY-02",
      "latitude": 34.68694,
      "longitude": 32.79787
    },
    {
      "id": 10346949,
      "name": "Paramýtha",
      "nativeName": "Paramýtha",
      "code": "CY-02-10346949",
      "countryId": 146669,
      "countryCode": "CY",
      "stateCode": "CY-02",
      "latitude": 34.75614,
      "longitude": 32.97245
    },
    {
      "id": 10346964,
      "name": "Parekklisiá",
      "nativeName": "Parekklisiá",
      "code": "CY-02-10346964",
      "countryId": 146669,
      "countryCode": "CY",
      "stateCode": "CY-02",
      "latitude": 34.75771,
      "longitude": 33.15436
    },
    {
      "id": 10347036,
      "name": "Peléndri",
      "nativeName": "Peléndri",
      "code": "CY-02-10347036",
      "countryId": 146669,
      "countryCode": "CY",
      "stateCode": "CY-02",
      "latitude": 34.89402,
      "longitude": 32.952
    },
    {
      "id": 10346965,
      "name": "Pentákomo",
      "nativeName": "Pentákomo",
      "code": "CY-02-10346965",
      "countryId": 146669,
      "countryCode": "CY",
      "stateCode": "CY-02",
      "latitude": 34.7315,
      "longitude": 33.2503
    },
    {
      "id": 10346995,
      "name": "Pissoúri",
      "nativeName": "Pissoúri",
      "code": "CY-02-10346995",
      "countryId": 146669,
      "countryCode": "CY",
      "stateCode": "CY-02",
      "latitude": 34.67016,
      "longitude": 32.70141
    },
    {
      "id": 10346991,
      "name": "Platanísteia",
      "nativeName": "Platanísteia",
      "code": "CY-02-10346991",
      "countryId": 146669,
      "countryCode": "CY",
      "stateCode": "CY-02",
      "latitude": 34.71001,
      "longitude": 32.71085
    },
    {
      "id": 10347020,
      "name": "Potamioú",
      "nativeName": "Potamioú",
      "code": "CY-02-10347020",
      "countryId": 146669,
      "countryCode": "CY",
      "stateCode": "CY-02",
      "latitude": 34.82429,
      "longitude": 32.80574
    },
    {
      "id": 10347034,
      "name": "Potamítissa",
      "nativeName": "Potamítissa",
      "code": "CY-02-10347034",
      "countryId": 146669,
      "countryCode": "CY",
      "stateCode": "CY-02",
      "latitude": 34.90398,
      "longitude": 32.98765
    },
    {
      "id": 12207081,
      "name": "Prastio (Avdimou)",
      "nativeName": "Prastio (Avdimou)",
      "code": "CY-02-12207081",
      "countryId": 146669,
      "countryCode": "CY",
      "stateCode": "CY-02",
      "latitude": 34.72378,
      "longitude": 32.776
    },
    {
      "id": 12207068,
      "name": "Prastio (Kellakiou)",
      "nativeName": "Prastio (Kellakiou)",
      "code": "CY-02-12207068",
      "countryId": 146669,
      "countryCode": "CY",
      "stateCode": "CY-02",
      "latitude": 34.80072,
      "longitude": 33.1348
    },
    {
      "id": 10347025,
      "name": "Pródromos",
      "nativeName": "Pródromos",
      "code": "CY-02-10347025",
      "countryId": 146669,
      "countryCode": "CY",
      "stateCode": "CY-02",
      "latitude": 34.9412,
      "longitude": 32.83929
    },
    {
      "id": 12207069,
      "name": "Pyrgos",
      "nativeName": "Pyrgos",
      "code": "CY-02-12207069",
      "countryId": 146669,
      "countryCode": "CY",
      "stateCode": "CY-02",
      "latitude": 34.73793,
      "longitude": 33.18277
    },
    {
      "id": 10347002,
      "name": "Páchna",
      "nativeName": "Páchna",
      "code": "CY-02-10347002",
      "countryId": 146669,
      "countryCode": "CY",
      "stateCode": "CY-02",
      "latitude": 34.76925,
      "longitude": 32.78529
    },
    {
      "id": 10346999,
      "name": "Páno Kivídes",
      "nativeName": "Páno Kivídes",
      "code": "CY-02-10346999",
      "countryId": 146669,
      "countryCode": "CY",
      "stateCode": "CY-02",
      "latitude": 34.7509,
      "longitude": 32.84191
    },
    {
      "id": 10347030,
      "name": "Páno Plátres",
      "nativeName": "Páno Plátres",
      "code": "CY-02-10347030",
      "countryId": 146669,
      "countryCode": "CY",
      "stateCode": "CY-02",
      "latitude": 34.91132,
      "longitude": 32.87913
    },
    {
      "id": 10346945,
      "name": "Páno Polemídia",
      "nativeName": "Páno Polemídia",
      "code": "CY-02-10346945",
      "countryId": 146669,
      "countryCode": "CY",
      "stateCode": "CY-02",
      "latitude": 34.71106,
      "longitude": 32.99184
    },
    {
      "id": 10347018,
      "name": "Péra Pedí",
      "nativeName": "Péra Pedí",
      "code": "CY-02-10347018",
      "countryId": 146669,
      "countryCode": "CY",
      "stateCode": "CY-02",
      "latitude": 34.86466,
      "longitude": 32.87074
    },
    {
      "id": 10346969,
      "name": "Sanída",
      "nativeName": "Sanída",
      "code": "CY-02-10346969",
      "countryId": 146669,
      "countryCode": "CY",
      "stateCode": "CY-02",
      "latitude": 34.8028,
      "longitude": 33.19053
    },
    {
      "id": 10347005,
      "name": "Silíkou",
      "nativeName": "Silíkou",
      "code": "CY-02-10347005",
      "countryId": 146669,
      "countryCode": "CY",
      "stateCode": "CY-02",
      "latitude": 34.83373,
      "longitude": 32.88594
    },
    {
      "id": 10346988,
      "name": "Sotíra",
      "nativeName": "Sotíra",
      "code": "CY-02-10346988",
      "countryId": 146669,
      "countryCode": "CY",
      "stateCode": "CY-02",
      "latitude": 34.70319,
      "longitude": 32.84086
    },
    {
      "id": 10346996,
      "name": "Soúni-Zanakiá",
      "nativeName": "Soúni-Zanakiá",
      "code": "CY-02-10346996",
      "countryId": 146669,
      "countryCode": "CY",
      "stateCode": "CY-02",
      "latitude": 34.7357,
      "longitude": 32.88437
    },
    {
      "id": 10346950,
      "name": "Spitáli",
      "nativeName": "Spitáli",
      "code": "CY-02-10346950",
      "countryId": 146669,
      "countryCode": "CY",
      "stateCode": "CY-02",
      "latitude": 34.76505,
      "longitude": 33.00809
    },
    {
      "id": 10346979,
      "name": "Sykópetra",
      "nativeName": "Sykópetra",
      "code": "CY-02-10346979",
      "countryId": 146669,
      "countryCode": "CY",
      "stateCode": "CY-02",
      "latitude": 34.88196,
      "longitude": 33.1056
    },
    {
      "id": 12207061,
      "name": "Trachoni (Lemesou)",
      "nativeName": "Trachoni (Lemesou)",
      "code": "CY-02-12207061",
      "countryId": 146669,
      "countryCode": "CY",
      "stateCode": "CY-02",
      "latitude": 34.65649,
      "longitude": 32.95875
    },
    {
      "id": 10347027,
      "name": "Treis Eliés",
      "nativeName": "Treis Eliés",
      "code": "CY-02-10347027",
      "countryId": 146669,
      "countryCode": "CY",
      "stateCode": "CY-02",
      "latitude": 34.93334,
      "longitude": 32.79525
    },
    {
      "id": 10347007,
      "name": "Trimíklini",
      "nativeName": "Trimíklini",
      "code": "CY-02-10347007",
      "countryId": 146669,
      "countryCode": "CY",
      "stateCode": "CY-02",
      "latitude": 34.85103,
      "longitude": 32.91268
    },
    {
      "id": 12207087,
      "name": "Troodos",
      "nativeName": "Troodos",
      "code": "CY-02-12207087",
      "countryId": 146669,
      "countryCode": "CY",
      "stateCode": "CY-02",
      "latitude": 34.92461,
      "longitude": 32.87629
    },
    {
      "id": 10346983,
      "name": "Tserkézoi",
      "nativeName": "Tserkézoi",
      "code": "CY-02-10346983",
      "countryId": 146669,
      "countryCode": "CY",
      "stateCode": "CY-02",
      "latitude": 34.64867,
      "longitude": 32.99027
    },
    {
      "id": 10346968,
      "name": "Vasa (Kellakiou)",
      "nativeName": "Vasa (Kellakiou)",
      "code": "CY-02-10346968",
      "countryId": 146669,
      "countryCode": "CY",
      "stateCode": "CY-02",
      "latitude": 34.80332,
      "longitude": 33.22251
    },
    {
      "id": 10347016,
      "name": "Vasa (Koilaniou)",
      "nativeName": "Vasa (Koilaniou)",
      "code": "CY-02-10347016",
      "countryId": 146669,
      "countryCode": "CY",
      "stateCode": "CY-02",
      "latitude": 34.8374,
      "longitude": 32.78686
    },
    {
      "id": 10347017,
      "name": "Vouní",
      "nativeName": "Vouní",
      "code": "CY-02-10347017",
      "countryId": 146669,
      "countryCode": "CY",
      "stateCode": "CY-02",
      "latitude": 34.81591,
      "longitude": 32.82723
    },
    {
      "id": 10346971,
      "name": "Víkla",
      "nativeName": "Víkla",
      "code": "CY-02-10346971",
      "countryId": 146669,
      "countryCode": "CY",
      "stateCode": "CY-02",
      "latitude": 34.82796,
      "longitude": 33.20102
    },
    {
      "id": 10346981,
      "name": "Zoopigí",
      "nativeName": "Zoopigí",
      "code": "CY-02-10346981",
      "countryId": 146669,
      "countryCode": "CY",
      "stateCode": "CY-02",
      "latitude": 34.86623,
      "longitude": 33.00285
    },
    {
      "id": 10346943,
      "name": "Ágios Athanásios",
      "nativeName": "Ágios Athanásios",
      "code": "CY-02-10346943",
      "countryId": 146669,
      "countryCode": "CY",
      "stateCode": "CY-02",
      "latitude": 34.72207,
      "longitude": 33.05528
    },
    {
      "id": 10347023,
      "name": "Ágios Dimítrios",
      "nativeName": "Ágios Dimítrios",
      "code": "CY-02-10347023",
      "countryId": 146669,
      "countryCode": "CY",
      "stateCode": "CY-02",
      "latitude": 34.92023,
      "longitude": 32.8115
    },
    {
      "id": 10346978,
      "name": "Ágios Konstantínos",
      "nativeName": "Ágios Konstantínos",
      "code": "CY-02-10346978",
      "countryId": 146669,
      "countryCode": "CY",
      "stateCode": "CY-02",
      "latitude": 34.87357,
      "longitude": 33.07467
    },
    {
      "id": 10347008,
      "name": "Ágios Mámas",
      "nativeName": "Ágios Mámas",
      "code": "CY-02-10347008",
      "countryId": 146669,
      "countryCode": "CY",
      "stateCode": "CY-02",
      "latitude": 34.8526,
      "longitude": 32.94571
    },
    {
      "id": 10346977,
      "name": "Ágios Pávlos",
      "nativeName": "Ágios Pávlos",
      "code": "CY-02-10346977",
      "countryId": 146669,
      "countryCode": "CY",
      "stateCode": "CY-02",
      "latitude": 34.87148,
      "longitude": 33.04899
    },
    {
      "id": 10347000,
      "name": "Ágios Therápon",
      "nativeName": "Ágios Therápon",
      "code": "CY-02-10347000",
      "countryId": 146669,
      "countryCode": "CY",
      "stateCode": "CY-02",
      "latitude": 34.78235,
      "longitude": 32.87441
    },
    {
      "id": 10346992,
      "name": "Ágios Tomás",
      "nativeName": "Ágios Tomás",
      "code": "CY-02-10346992",
      "countryId": 146669,
      "countryCode": "CY",
      "stateCode": "CY-02",
      "latitude": 34.71158,
      "longitude": 32.73129
    },
    {
      "id": 10346963,
      "name": "Ágios Týchon",
      "nativeName": "Ágios Týchon",
      "code": "CY-02-10346963",
      "countryId": 146669,
      "countryCode": "CY",
      "stateCode": "CY-02",
      "latitude": 34.72154,
      "longitude": 33.13391
    },
    {
      "id": 10346997,
      "name": "Álassa",
      "nativeName": "Álassa",
      "code": "CY-02-10346997",
      "countryId": 146669,
      "countryCode": "CY",
      "stateCode": "CY-02",
      "latitude": 34.75876,
      "longitude": 32.92369
    },
    {
      "id": 10347013,
      "name": "Ársos",
      "nativeName": "Ársos",
      "code": "CY-02-10347013",
      "countryId": 146669,
      "countryCode": "CY",
      "stateCode": "CY-02",
      "latitude": 34.84055,
      "longitude": 32.7638
    },
    {
      "id": 10347021,
      "name": "Ómodos",
      "nativeName": "Ómodos",
      "code": "CY-02-10347021",
      "countryId": 146669,
      "countryCode": "CY",
      "stateCode": "CY-02",
      "latitude": 34.8526,
      "longitude": 32.80678
    },
    {
      "id": 10346946,
      "name": "Ýpsonas",
      "nativeName": "Ýpsonas",
      "code": "CY-02-10346946",
      "countryId": 146669,
      "countryCode": "CY",
      "stateCode": "CY-02",
      "latitude": 34.70424,
      "longitude": 32.9499
    }
  ]
}