{
  "stateId": 828315,
  "stateCode": "AZ-HAC",
  "countryCode": "AZ",
  "cities": [
    {
      "id": 585225,
      "name": "Qazımǝmmǝd",
      "nativeName": "Hacıqabul",
      "code": "AZ-HAC-585225",
      "countryId": 587116,
      "countryCode": "AZ",
      "stateCode": "AZ-HAC",
      "latitude": 40.03874,
      "longitude": 48.94286
    },
    {
      "id": 587427,
      "name": "Abdulyan",
      "nativeName": "Abdulyan",
      "code": "AZ-HAC-587427",
      "countryId": 587116,
      "countryCode": "AZ",
      "stateCode": "AZ-HAC",
      "latitude": 40.09535,
      "longitude": 48.65884
    },
    {
      "id": 148440,
      "name": "Atbulaq",
      "nativeName": "Atbulaq",
      "code": "AZ-HAC-148440",
      "countryId": 587116,
      "countryCode": "AZ",
      "stateCode": "AZ-HAC",
      "latitude": 39.97402,
      "longitude": 49.26072
    },
    {
      "id": 587337,
      "name": "Axtaçı Şirvan",
      "nativeName": "Axtaçı Şirvan",
      "code": "AZ-HAC-587337",
      "countryId": 587116,
      "countryCode": "AZ",
      "stateCode": "AZ-HAC",
      "latitude": 40.04098,
      "longitude": 48.75087
    },
    {
      "id": 148636,
      "name": "Ağacanlı",
      "nativeName": "Ağacanlı",
      "code": "AZ-HAC-148636",
      "countryId": 587116,
      "countryCode": "AZ",
      "stateCode": "AZ-HAC",
      "latitude": 39.98113,
      "longitude": 48.85328
    },
    {
      "id": 11919115,
      "name": "Balıqcı",
      "nativeName": "Balıqcı",
      "code": "AZ-HAC-11919115",
      "countryId": 587116,
      "countryCode": "AZ",
      "stateCode": "AZ-HAC",
      "latitude": 39.99264,
      "longitude": 48.945
    },
    {
      "id": 585522,
      "name": "Birinci Meyniman",
      "nativeName": "Birinci Meyniman",
      "code": "AZ-HAC-585522",
      "countryId": 587116,
      "countryCode": "AZ",
      "stateCode": "AZ-HAC",
      "latitude": 40.03137,
      "longitude": 48.75377
    },
    {
      "id": 585285,
      "name": "Birinci Paşalı",
      "nativeName": "Birinci Paşalı",
      "code": "AZ-HAC-585285",
      "countryId": 587116,
      "countryCode": "AZ",
      "stateCode": "AZ-HAC",
      "latitude": 40.22691,
      "longitude": 48.89743
    },
    {
      "id": 584786,
      "name": "Birinci Udullu",
      "nativeName": "Birinci Udullu",
      "code": "AZ-HAC-584786",
      "countryId": 587116,
      "countryCode": "AZ",
      "stateCode": "AZ-HAC",
      "latitude": 40.26182,
      "longitude": 48.86493
    },
    {
      "id": 148300,
      "name": "Burvit",
      "nativeName": "Burvit",
      "code": "AZ-HAC-148300",
      "countryId": 587116,
      "countryCode": "AZ",
      "stateCode": "AZ-HAC",
      "latitude": 40.00487,
      "longitude": 48.83297
    },
    {
      "id": 586802,
      "name": "Dağilə",
      "nativeName": "Dagkhilya",
      "code": "AZ-HAC-586802",
      "countryId": 587116,
      "countryCode": "AZ",
      "stateCode": "AZ-HAC",
      "latitude": 40.01667,
      "longitude": 48.91667
    },
    {
      "id": 586680,
      "name": "Dzhagirli",
      "nativeName": "Dzhagirli",
      "code": "AZ-HAC-586680",
      "countryId": 587116,
      "countryCode": "AZ",
      "stateCode": "AZ-HAC",
      "latitude": 40.20691,
      "longitude": 48.79027
    },
    {
      "id": 586263,
      "name": "Kalinovka",
      "nativeName": "Meyniman",
      "code": "AZ-HAC-586263",
      "countryId": 587116,
      "countryCode": "AZ",
      "stateCode": "AZ-HAC",
      "latitude": 40.02727,
      "longitude": 48.76944
    },
    {
      "id": 400062,
      "name": "Karagyuna",
      "nativeName": "Karagyuna",
      "code": "AZ-HAC-400062",
      "countryId": 587116,
      "countryCode": "AZ",
      "stateCode": "AZ-HAC",
      "latitude": 39.91389,
      "longitude": 49.05777
    },
    {
      "id": 586044,
      "name": "Kelenly",
      "nativeName": "Kelenly",
      "code": "AZ-HAC-586044",
      "countryId": 587116,
      "countryCode": "AZ",
      "stateCode": "AZ-HAC",
      "latitude": 40.26694,
      "longitude": 48.79972
    },
    {
      "id": 585946,
      "name": "Khila Mirzali",
      "nativeName": "Khila Mirzali",
      "code": "AZ-HAC-585946",
      "countryId": 587116,
      "countryCode": "AZ",
      "stateCode": "AZ-HAC",
      "latitude": 40.01174,
      "longitude": 48.81042
    },
    {
      "id": 585828,
      "name": "Kolanı",
      "nativeName": "Kolanı",
      "code": "AZ-HAC-585828",
      "countryId": 587116,
      "countryCode": "AZ",
      "stateCode": "AZ-HAC",
      "latitude": 40.07596,
      "longitude": 48.70106
    },
    {
      "id": 585692,
      "name": "Kyurd",
      "nativeName": "Kyurd",
      "code": "AZ-HAC-585692",
      "countryId": 587116,
      "countryCode": "AZ",
      "stateCode": "AZ-HAC",
      "latitude": 40.01028,
      "longitude": 48.83472
    },
    {
      "id": 147686,
      "name": "Kürdçü",
      "nativeName": "Mirizali",
      "code": "AZ-HAC-147686",
      "countryId": 587116,
      "countryCode": "AZ",
      "stateCode": "AZ-HAC",
      "latitude": 39.95916,
      "longitude": 49.2656
    },
    {
      "id": 800396,
      "name": "Makhundaly",
      "nativeName": "Makhundaly",
      "code": "AZ-HAC-800396",
      "countryId": 587116,
      "countryCode": "AZ",
      "stateCode": "AZ-HAC",
      "latitude": 40.03333,
      "longitude": 49.2325
    },
    {
      "id": 807231,
      "name": "Muğan",
      "nativeName": "Mughan",
      "code": "AZ-HAC-807231",
      "countryId": 587116,
      "countryCode": "AZ",
      "stateCode": "AZ-HAC",
      "latitude": 40.09902,
      "longitude": 48.81886
    },
    {
      "id": 586343,
      "name": "Navahı",
      "nativeName": "Navahı",
      "code": "AZ-HAC-586343",
      "countryId": 587116,
      "countryCode": "AZ",
      "stateCode": "AZ-HAC",
      "latitude": 40.01903,
      "longitude": 49.14047
    },
    {
      "id": 585376,
      "name": "Nǝvahı",
      "nativeName": "Navahı",
      "code": "AZ-HAC-585376",
      "countryId": 587116,
      "countryCode": "AZ",
      "stateCode": "AZ-HAC",
      "latitude": 40.04216,
      "longitude": 49.09449
    },
    {
      "id": 823978,
      "name": "Padarqışlaq",
      "nativeName": "Padar",
      "code": "AZ-HAC-823978",
      "countryId": 587116,
      "countryCode": "AZ",
      "stateCode": "AZ-HAC",
      "latitude": 40.26401,
      "longitude": 48.54592
    },
    {
      "id": 585284,
      "name": "Pashaly Tretiy",
      "nativeName": "Pashaly Tretiy",
      "code": "AZ-HAC-585284",
      "countryId": 587116,
      "countryCode": "AZ",
      "stateCode": "AZ-HAC",
      "latitude": 40.25967,
      "longitude": 48.87482
    },
    {
      "id": 825073,
      "name": "Pirsaat",
      "nativeName": "Pirsaat",
      "code": "AZ-HAC-825073",
      "countryId": 587116,
      "countryCode": "AZ",
      "stateCode": "AZ-HAC",
      "latitude": 40.04719,
      "longitude": 49.04684
    },
    {
      "id": 400072,
      "name": "Pirsaat",
      "nativeName": "Pirsaat",
      "code": "AZ-HAC-400072",
      "countryId": 587116,
      "countryCode": "AZ",
      "stateCode": "AZ-HAC",
      "latitude": 39.84697,
      "longitude": 49.32697
    },
    {
      "id": 825075,
      "name": "Pirsaatçay",
      "nativeName": "Pirsaatçay",
      "code": "AZ-HAC-825075",
      "countryId": 587116,
      "countryCode": "AZ",
      "stateCode": "AZ-HAC",
      "latitude": 40.15342,
      "longitude": 49.01845
    },
    {
      "id": 586186,
      "name": "Qaraqaşlı",
      "nativeName": "Qaraqaşlı",
      "code": "AZ-HAC-586186",
      "countryId": 587116,
      "countryCode": "AZ",
      "stateCode": "AZ-HAC",
      "latitude": 40.09468,
      "longitude": 48.63595
    },
    {
      "id": 585229,
      "name": "Qarasu",
      "nativeName": "Qarasu",
      "code": "AZ-HAC-585229",
      "countryId": 587116,
      "countryCode": "AZ",
      "stateCode": "AZ-HAC",
      "latitude": 40.16465,
      "longitude": 48.67807
    },
    {
      "id": 585788,
      "name": "Qubalı",
      "nativeName": "Qubalı",
      "code": "AZ-HAC-585788",
      "countryId": 587116,
      "countryCode": "AZ",
      "stateCode": "AZ-HAC",
      "latitude": 40.32901,
      "longitude": 48.83018
    },
    {
      "id": 585787,
      "name": "Qubalıbalaoğlan",
      "nativeName": "Qubalıbalaoğlan",
      "code": "AZ-HAC-585787",
      "countryId": 587116,
      "countryCode": "AZ",
      "stateCode": "AZ-HAC",
      "latitude": 40.12823,
      "longitude": 49.05527
    },
    {
      "id": 147631,
      "name": "Qızılburun",
      "nativeName": "Qızılburun",
      "code": "AZ-HAC-147631",
      "countryId": 587116,
      "countryCode": "AZ",
      "stateCode": "AZ-HAC",
      "latitude": 39.99706,
      "longitude": 49.22161
    },
    {
      "id": 585208,
      "name": "Rǝncbǝr",
      "nativeName": "Randzhbar",
      "code": "AZ-HAC-585208",
      "countryId": 587116,
      "countryCode": "AZ",
      "stateCode": "AZ-HAC",
      "latitude": 40.09163,
      "longitude": 49.07084
    },
    {
      "id": 584886,
      "name": "Talış",
      "nativeName": "Talış",
      "code": "AZ-HAC-584886",
      "countryId": 587116,
      "countryCode": "AZ",
      "stateCode": "AZ-HAC",
      "latitude": 40.06513,
      "longitude": 48.69072
    },
    {
      "id": 584897,
      "name": "Tağılı",
      "nativeName": "Tağılı",
      "code": "AZ-HAC-584897",
      "countryId": 587116,
      "countryCode": "AZ",
      "stateCode": "AZ-HAC",
      "latitude": 40.28184,
      "longitude": 48.83337
    },
    {
      "id": 147745,
      "name": "Xıdırlı",
      "nativeName": "Xıdırlı",
      "code": "AZ-HAC-147745",
      "countryId": 587116,
      "countryCode": "AZ",
      "stateCode": "AZ-HAC",
      "latitude": 39.84321,
      "longitude": 49.32091
    },
    {
      "id": 586871,
      "name": "Çaylı",
      "nativeName": "Çaylı",
      "code": "AZ-HAC-586871",
      "countryId": 587116,
      "countryCode": "AZ",
      "stateCode": "AZ-HAC",
      "latitude": 40.2,
      "longitude": 48.93333
    },
    {
      "id": 585521,
      "name": "İkinci Meyniman",
      "nativeName": "İkinci Meyniman",
      "code": "AZ-HAC-585521",
      "countryId": 587116,
      "countryCode": "AZ",
      "stateCode": "AZ-HAC",
      "latitude": 40.04452,
      "longitude": 48.73268
    },
    {
      "id": 585283,
      "name": "İkinci Paşalı",
      "nativeName": "İkinci Paşalı",
      "code": "AZ-HAC-585283",
      "countryId": 587116,
      "countryCode": "AZ",
      "stateCode": "AZ-HAC",
      "latitude": 40.24613,
      "longitude": 48.88739
    },
    {
      "id": 584785,
      "name": "İkinci Udullu",
      "nativeName": "İkinci Udullu",
      "code": "AZ-HAC-584785",
      "countryId": 587116,
      "countryCode": "AZ",
      "stateCode": "AZ-HAC",
      "latitude": 40.30733,
      "longitude": 48.8408
    },
    {
      "id": 585009,
      "name": "Şorbaçı",
      "nativeName": "Şorbaçı",
      "code": "AZ-HAC-585009",
      "countryId": 587116,
      "countryCode": "AZ",
      "stateCode": "AZ-HAC",
      "latitude": 40.22986,
      "longitude": 48.90985
    },
    {
      "id": 585010,
      "name": "Şorbaçı",
      "nativeName": "Shorbanchi",
      "code": "AZ-HAC-585010",
      "countryId": 587116,
      "countryCode": "AZ",
      "stateCode": "AZ-HAC",
      "latitude": 40.23019,
      "longitude": 48.90937
    }
  ]
}