{
  "stateId": 147983,
  "stateCode": "AZ-IMI",
  "countryCode": "AZ",
  "cities": [
    {
      "id": 147982,
      "name": "Imishli",
      "nativeName": "Imishli",
      "code": "AZ-IMI-147982",
      "countryId": 587116,
      "countryCode": "AZ",
      "stateCode": "AZ-IMI",
      "latitude": 39.87095,
      "longitude": 48.05995
    },
    {
      "id": 587416,
      "name": "Adzhily",
      "nativeName": "Adzhily",
      "code": "AZ-IMI-587416",
      "countryId": 587116,
      "countryCode": "AZ",
      "stateCode": "AZ-IMI",
      "latitude": 40.08333,
      "longitude": 47.88333
    },
    {
      "id": 587405,
      "name": "Agadzhaly",
      "nativeName": "Agadzhaly",
      "code": "AZ-IMI-587405",
      "countryId": 587116,
      "countryCode": "AZ",
      "stateCode": "AZ-IMI",
      "latitude": 40.06196,
      "longitude": 48.16743
    },
    {
      "id": 587399,
      "name": "Agamalylar",
      "nativeName": "Ağamalılar",
      "code": "AZ-IMI-587399",
      "countryId": 587116,
      "countryCode": "AZ",
      "stateCode": "AZ-IMI",
      "latitude": 40.09491,
      "longitude": 47.8152
    },
    {
      "id": 587327,
      "name": "Alakhmadatli",
      "nativeName": "Alakhmadatli",
      "code": "AZ-IMI-587327",
      "countryId": 587116,
      "countryCode": "AZ",
      "stateCode": "AZ-IMI",
      "latitude": 40.08494,
      "longitude": 48.11054
    },
    {
      "id": 147319,
      "name": "Aranlı",
      "nativeName": "Aranlı",
      "code": "AZ-IMI-147319",
      "countryId": 587116,
      "countryCode": "AZ",
      "stateCode": "AZ-IMI",
      "latitude": 39.6984,
      "longitude": 48.10211
    },
    {
      "id": 148612,
      "name": "Ağcüyür",
      "nativeName": "Ağcüyür",
      "code": "AZ-IMI-148612",
      "countryId": 587116,
      "countryCode": "AZ",
      "stateCode": "AZ-IMI",
      "latitude": 39.91454,
      "longitude": 48.19262
    },
    {
      "id": 587024,
      "name": "Bayramly",
      "nativeName": "Bayramly",
      "code": "AZ-IMI-587024",
      "countryId": 587116,
      "countryCode": "AZ",
      "stateCode": "AZ-IMI",
      "latitude": 40.08333,
      "longitude": 47.98333
    },
    {
      "id": 148405,
      "name": "Bodzherevan",
      "nativeName": "Bodzherevan",
      "code": "AZ-IMI-148405",
      "countryId": 587116,
      "countryCode": "AZ",
      "stateCode": "AZ-IMI",
      "latitude": 39.90743,
      "longitude": 48.17845
    },
    {
      "id": 148321,
      "name": "Boşçalılar",
      "nativeName": "Boşçalılar",
      "code": "AZ-IMI-148321",
      "countryId": 587116,
      "countryCode": "AZ",
      "stateCode": "AZ-IMI",
      "latitude": 39.81453,
      "longitude": 47.95988
    },
    {
      "id": 148330,
      "name": "Bəhramtəpə",
      "nativeName": "Pervoye Maya",
      "code": "AZ-IMI-148330",
      "countryId": 587116,
      "countryCode": "AZ",
      "stateCode": "AZ-IMI",
      "latitude": 39.74498,
      "longitude": 47.95491
    },
    {
      "id": 148142,
      "name": "Cavadxanlı",
      "nativeName": "Cavadxanlı",
      "code": "AZ-IMI-148142",
      "countryId": 587116,
      "countryCode": "AZ",
      "stateCode": "AZ-IMI",
      "latitude": 39.89923,
      "longitude": 48.14712
    },
    {
      "id": 394127,
      "name": "Dzhafarli",
      "nativeName": "Dzhafarli",
      "code": "AZ-IMI-394127",
      "countryId": 587116,
      "countryCode": "AZ",
      "stateCode": "AZ-IMI",
      "latitude": 39.96235,
      "longitude": 47.99058
    },
    {
      "id": 148160,
      "name": "Dzhafarly Pervoye",
      "nativeName": "Dzhafarly Pervoye",
      "code": "AZ-IMI-148160",
      "countryId": 587116,
      "countryCode": "AZ",
      "stateCode": "AZ-IMI",
      "latitude": 39.88146,
      "longitude": 48.01944
    },
    {
      "id": 586419,
      "name": "Guseinbeyly",
      "nativeName": "Guseinbeyly",
      "code": "AZ-IMI-586419",
      "countryId": 587116,
      "countryCode": "AZ",
      "stateCode": "AZ-IMI",
      "latitude": 40.08505,
      "longitude": 48.2058
    },
    {
      "id": 148065,
      "name": "Gyukharly",
      "nativeName": "Gyukharly",
      "code": "AZ-IMI-148065",
      "countryId": 587116,
      "countryCode": "AZ",
      "stateCode": "AZ-IMI",
      "latitude": 39.80135,
      "longitude": 48.06452
    },
    {
      "id": 148040,
      "name": "Göbəktala",
      "nativeName": "Gobektala",
      "code": "AZ-IMI-148040",
      "countryId": 587116,
      "countryCode": "AZ",
      "stateCode": "AZ-IMI",
      "latitude": 39.81011,
      "longitude": 48.00557
    },
    {
      "id": 388664,
      "name": "Hacıbabalı",
      "nativeName": "Hacıbabalı",
      "code": "AZ-IMI-388664",
      "countryId": 587116,
      "countryCode": "AZ",
      "stateCode": "AZ-IMI",
      "latitude": 39.74517,
      "longitude": 47.98061
    },
    {
      "id": 147101,
      "name": "Hacırüstəmli",
      "nativeName": "Suvorovka",
      "code": "AZ-IMI-147101",
      "countryId": 587116,
      "countryCode": "AZ",
      "stateCode": "AZ-IMI",
      "latitude": 39.67777,
      "longitude": 48.14218
    },
    {
      "id": 148100,
      "name": "Haçıalmuradlı",
      "nativeName": "Haçıalmuradlı",
      "code": "AZ-IMI-148100",
      "countryId": 587116,
      "countryCode": "AZ",
      "stateCode": "AZ-IMI",
      "latitude": 39.76841,
      "longitude": 48.21106
    },
    {
      "id": 8505610,
      "name": "Imamkulubeyli",
      "nativeName": "Imamkulubeyli",
      "code": "AZ-IMI-8505610",
      "countryId": 587116,
      "countryCode": "AZ",
      "stateCode": "AZ-IMI",
      "latitude": 40.0713,
      "longitude": 47.16303
    },
    {
      "id": 147887,
      "name": "Karavelli",
      "nativeName": "Karavelli",
      "code": "AZ-IMI-147887",
      "countryId": 587116,
      "countryCode": "AZ",
      "stateCode": "AZ-IMI",
      "latitude": 39.91026,
      "longitude": 48.21221
    },
    {
      "id": 147823,
      "name": "Khalfali",
      "nativeName": "Khalfali",
      "code": "AZ-IMI-147823",
      "countryId": 587116,
      "countryCode": "AZ",
      "stateCode": "AZ-IMI",
      "latitude": 39.78356,
      "longitude": 48.2184
    },
    {
      "id": 147801,
      "name": "Khanlykh-Dzhevat",
      "nativeName": "Khanlykh-Dzhevat",
      "code": "AZ-IMI-147801",
      "countryId": 587116,
      "countryCode": "AZ",
      "stateCode": "AZ-IMI",
      "latitude": 39.86667,
      "longitude": 48.11667
    },
    {
      "id": 389059,
      "name": "Kuybyshev",
      "nativeName": "Kuybyshev",
      "code": "AZ-IMI-389059",
      "countryId": 587116,
      "countryCode": "AZ",
      "stateCode": "AZ-IMI",
      "latitude": 39.77563,
      "longitude": 48.14864
    },
    {
      "id": 389060,
      "name": "Kyurabazly",
      "nativeName": "Kyurabazly",
      "code": "AZ-IMI-389060",
      "countryId": 587116,
      "countryCode": "AZ",
      "stateCode": "AZ-IMI",
      "latitude": 39.78306,
      "longitude": 48.20444
    },
    {
      "id": 147644,
      "name": "Kürdmahmudlu",
      "nativeName": "Kürdmahmudlu",
      "code": "AZ-IMI-147644",
      "countryId": 587116,
      "countryCode": "AZ",
      "stateCode": "AZ-IMI",
      "latitude": 39.80573,
      "longitude": 48.21076
    },
    {
      "id": 147565,
      "name": "Mamedli",
      "nativeName": "Mamedli",
      "code": "AZ-IMI-147565",
      "countryId": 587116,
      "countryCode": "AZ",
      "stateCode": "AZ-IMI",
      "latitude": 39.82627,
      "longitude": 48.01953
    },
    {
      "id": 800614,
      "name": "Mamedli",
      "nativeName": "Mamedli",
      "code": "AZ-IMI-800614",
      "countryId": 587116,
      "countryCode": "AZ",
      "stateCode": "AZ-IMI",
      "latitude": 40.08979,
      "longitude": 47.99476
    },
    {
      "id": 147537,
      "name": "Mazarli",
      "nativeName": "Mazarli",
      "code": "AZ-IMI-147537",
      "countryId": 587116,
      "countryCode": "AZ",
      "stateCode": "AZ-IMI",
      "latitude": 39.77396,
      "longitude": 48.03249
    },
    {
      "id": 147500,
      "name": "Mirili",
      "nativeName": "Mirili",
      "code": "AZ-IMI-147500",
      "countryId": 587116,
      "countryCode": "AZ",
      "stateCode": "AZ-IMI",
      "latitude": 39.91199,
      "longitude": 48.22785
    },
    {
      "id": 389061,
      "name": "Muradally",
      "nativeName": "Muradally",
      "code": "AZ-IMI-389061",
      "countryId": 587116,
      "countryCode": "AZ",
      "stateCode": "AZ-IMI",
      "latitude": 39.815,
      "longitude": 48.20722
    },
    {
      "id": 147459,
      "name": "Muradalılı",
      "nativeName": "Muradalılı",
      "code": "AZ-IMI-147459",
      "countryId": 587116,
      "countryCode": "AZ",
      "stateCode": "AZ-IMI",
      "latitude": 39.82416,
      "longitude": 48.10584
    },
    {
      "id": 585445,
      "name": "Muradxanlı",
      "nativeName": "Muradxanlı",
      "code": "AZ-IMI-585445",
      "countryId": 587116,
      "countryCode": "AZ",
      "stateCode": "AZ-IMI",
      "latitude": 39.93129,
      "longitude": 47.95537
    },
    {
      "id": 147456,
      "name": "Murğuzalılı",
      "nativeName": "Murğuzalılı",
      "code": "AZ-IMI-147456",
      "countryId": 587116,
      "countryCode": "AZ",
      "stateCode": "AZ-IMI",
      "latitude": 39.86338,
      "longitude": 48.14593
    },
    {
      "id": 147442,
      "name": "Myursalli",
      "nativeName": "Myursalli",
      "code": "AZ-IMI-147442",
      "countryId": 587116,
      "countryCode": "AZ",
      "stateCode": "AZ-IMI",
      "latitude": 39.86516,
      "longitude": 48.19432
    },
    {
      "id": 147389,
      "name": "Nurulu",
      "nativeName": "Nurulu",
      "code": "AZ-IMI-147389",
      "countryId": 587116,
      "countryCode": "AZ",
      "stateCode": "AZ-IMI",
      "latitude": 39.81228,
      "longitude": 48.11867
    },
    {
      "id": 393309,
      "name": "Oruclu",
      "nativeName": "Oruclu",
      "code": "AZ-IMI-393309",
      "countryId": 587116,
      "countryCode": "AZ",
      "stateCode": "AZ-IMI",
      "latitude": 39.93985,
      "longitude": 48.02188
    },
    {
      "id": 389063,
      "name": "Otuz-Iki",
      "nativeName": "Otuz-Iki",
      "code": "AZ-IMI-389063",
      "countryId": 587116,
      "countryCode": "AZ",
      "stateCode": "AZ-IMI",
      "latitude": 39.88056,
      "longitude": 48.09833
    },
    {
      "id": 147356,
      "name": "Otuziki",
      "nativeName": "Otuziki",
      "code": "AZ-IMI-147356",
      "countryId": 587116,
      "countryCode": "AZ",
      "stateCode": "AZ-IMI",
      "latitude": 39.84722,
      "longitude": 48.08887
    },
    {
      "id": 147924,
      "name": "Qaradonlu",
      "nativeName": "Qaradonlu",
      "code": "AZ-IMI-147924",
      "countryId": 587116,
      "countryCode": "AZ",
      "stateCode": "AZ-IMI",
      "latitude": 39.79083,
      "longitude": 48.04795
    },
    {
      "id": 147896,
      "name": "Qaralar",
      "nativeName": "Qaralar",
      "code": "AZ-IMI-147896",
      "countryId": 587116,
      "countryCode": "AZ",
      "stateCode": "AZ-IMI",
      "latitude": 39.89375,
      "longitude": 48.13673
    },
    {
      "id": 147909,
      "name": "Qaraqaşlı",
      "nativeName": "Qaraqaşlı",
      "code": "AZ-IMI-147909",
      "countryId": 587116,
      "countryCode": "AZ",
      "stateCode": "AZ-IMI",
      "latitude": 39.87671,
      "longitude": 48.22461
    },
    {
      "id": 147299,
      "name": "Rassuly",
      "nativeName": "Rassuly",
      "code": "AZ-IMI-147299",
      "countryId": 587116,
      "countryCode": "AZ",
      "stateCode": "AZ-IMI",
      "latitude": 39.83612,
      "longitude": 48.03232
    },
    {
      "id": 585143,
      "name": "Sarısu",
      "nativeName": "Sarısu",
      "code": "AZ-IMI-585143",
      "countryId": 587116,
      "countryCode": "AZ",
      "stateCode": "AZ-IMI",
      "latitude": 40.04457,
      "longitude": 48.24934
    },
    {
      "id": 147245,
      "name": "Sarıxanlı",
      "nativeName": "Sarıxanlı",
      "code": "AZ-IMI-147245",
      "countryId": 587116,
      "countryCode": "AZ",
      "stateCode": "AZ-IMI",
      "latitude": 39.82029,
      "longitude": 47.9237
    },
    {
      "id": 147229,
      "name": "Semyonovka",
      "nativeName": "Semyonovka",
      "code": "AZ-IMI-147229",
      "countryId": 587116,
      "countryCode": "AZ",
      "stateCode": "AZ-IMI",
      "latitude": 39.71824,
      "longitude": 48.07786
    },
    {
      "id": 147123,
      "name": "Soltanmuradlı",
      "nativeName": "Soltanmuradlı",
      "code": "AZ-IMI-147123",
      "countryId": 587116,
      "countryCode": "AZ",
      "stateCode": "AZ-IMI",
      "latitude": 39.80619,
      "longitude": 48.06914
    },
    {
      "id": 584842,
      "name": "Telişli",
      "nativeName": "Telişli",
      "code": "AZ-IMI-584842",
      "countryId": 587116,
      "countryCode": "AZ",
      "stateCode": "AZ-IMI",
      "latitude": 40.11827,
      "longitude": 48.07385
    },
    {
      "id": 147762,
      "name": "Xoşçobanli",
      "nativeName": "Xoşçobanli",
      "code": "AZ-IMI-147762",
      "countryId": 587116,
      "countryCode": "AZ",
      "stateCode": "AZ-IMI",
      "latitude": 39.85353,
      "longitude": 48.12112
    },
    {
      "id": 147756,
      "name": "Xubyarlı",
      "nativeName": "Xubyarlı",
      "code": "AZ-IMI-147756",
      "countryId": 587116,
      "countryCode": "AZ",
      "stateCode": "AZ-IMI",
      "latitude": 39.76862,
      "longitude": 48.00467
    },
    {
      "id": 146966,
      "name": "Yalavac",
      "nativeName": "Yalavac",
      "code": "AZ-IMI-146966",
      "countryId": 587116,
      "countryCode": "AZ",
      "stateCode": "AZ-IMI",
      "latitude": 39.85449,
      "longitude": 48.05867
    },
    {
      "id": 146931,
      "name": "Yukhary-Karakyuvendikly",
      "nativeName": "Yukhary-Karakyuvendikly",
      "code": "AZ-IMI-146931",
      "countryId": 587116,
      "countryCode": "AZ",
      "stateCode": "AZ-IMI",
      "latitude": 39.71848,
      "longitude": 47.90526
    },
    {
      "id": 147897,
      "name": "Yuxarı Qaralar",
      "nativeName": "Yuxarı Qaralar",
      "code": "AZ-IMI-147897",
      "countryId": 587116,
      "countryCode": "AZ",
      "stateCode": "AZ-IMI",
      "latitude": 39.82492,
      "longitude": 48.08487
    },
    {
      "id": 148289,
      "name": "Çahar",
      "nativeName": "Çahar",
      "code": "AZ-IMI-148289",
      "countryId": 587116,
      "countryCode": "AZ",
      "stateCode": "AZ-IMI",
      "latitude": 39.81074,
      "longitude": 48.06124
    },
    {
      "id": 148285,
      "name": "Çaxırlı",
      "nativeName": "Çaxırlı",
      "code": "AZ-IMI-148285",
      "countryId": 587116,
      "countryCode": "AZ",
      "stateCode": "AZ-IMI",
      "latitude": 39.74086,
      "longitude": 48.01608
    },
    {
      "id": 147681,
      "name": "Ölcələr",
      "nativeName": "Kuybyshev",
      "code": "AZ-IMI-147681",
      "countryId": 587116,
      "countryCode": "AZ",
      "stateCode": "AZ-IMI",
      "latitude": 39.80746,
      "longitude": 48.08442
    },
    {
      "id": 147203,
      "name": "Şahverdili",
      "nativeName": "Şahverdili",
      "code": "AZ-IMI-147203",
      "countryId": 587116,
      "countryCode": "AZ",
      "stateCode": "AZ-IMI",
      "latitude": 39.79571,
      "longitude": 47.98722
    },
    {
      "id": 148558,
      "name": "Əliqulular",
      "nativeName": "Alikulular",
      "code": "AZ-IMI-148558",
      "countryId": 587116,
      "countryCode": "AZ",
      "stateCode": "AZ-IMI",
      "latitude": 39.90871,
      "longitude": 47.93091
    },
    {
      "id": 587292,
      "name": "Əliyetməzli",
      "nativeName": "Aliyetmazli",
      "code": "AZ-IMI-587292",
      "countryId": 587116,
      "countryCode": "AZ",
      "stateCode": "AZ-IMI",
      "latitude": 40.12591,
      "longitude": 48.03307
    }
  ]
}