{
  "stateId": 585686,
  "stateCode": "AZ-KUR",
  "countryCode": "AZ",
  "cities": [
    {
      "id": 585763,
      "name": "Kürdǝmir",
      "nativeName": "Kyurdarmir",
      "code": "AZ-KUR-585763",
      "countryId": 587116,
      "countryCode": "AZ",
      "stateCode": "AZ-KUR",
      "latitude": 40.34257,
      "longitude": 48.15649
    },
    {
      "id": 587238,
      "name": "Arabbazarly",
      "nativeName": "Arabbazarly",
      "code": "AZ-KUR-587238",
      "countryId": 587116,
      "countryCode": "AZ",
      "stateCode": "AZ-KUR",
      "latitude": 40.1,
      "longitude": 48.38333
    },
    {
      "id": 825069,
      "name": "Arshaly",
      "nativeName": "Arshaly",
      "code": "AZ-KUR-825069",
      "countryId": 587116,
      "countryCode": "AZ",
      "stateCode": "AZ-KUR",
      "latitude": 40.27285,
      "longitude": 48.34454
    },
    {
      "id": 587139,
      "name": "Atakişili",
      "nativeName": "Atakişili",
      "code": "AZ-KUR-587139",
      "countryId": 587116,
      "countryCode": "AZ",
      "stateCode": "AZ-KUR",
      "latitude": 40.35545,
      "longitude": 48.16585
    },
    {
      "id": 587340,
      "name": "Axtaçı",
      "nativeName": "Axtaçı",
      "code": "AZ-KUR-587340",
      "countryId": 587116,
      "countryCode": "AZ",
      "stateCode": "AZ-KUR",
      "latitude": 40.05092,
      "longitude": 48.29785
    },
    {
      "id": 587072,
      "name": "Bala Kengerli",
      "nativeName": "Bala Kengerli",
      "code": "AZ-KUR-587072",
      "countryId": 587116,
      "countryCode": "AZ",
      "stateCode": "AZ-KUR",
      "latitude": 40.45273,
      "longitude": 48.27616
    },
    {
      "id": 587067,
      "name": "Bala-Muradkhan",
      "nativeName": "Bala-Muradkhan",
      "code": "AZ-KUR-587067",
      "countryId": 587116,
      "countryCode": "AZ",
      "stateCode": "AZ-KUR",
      "latitude": 40.23333,
      "longitude": 48.15
    },
    {
      "id": 587096,
      "name": "Bağman",
      "nativeName": "Bağman",
      "code": "AZ-KUR-587096",
      "countryId": 587116,
      "countryCode": "AZ",
      "stateCode": "AZ-KUR",
      "latitude": 40.3647,
      "longitude": 48.34159
    },
    {
      "id": 800680,
      "name": "Binasli",
      "nativeName": "Binasli",
      "code": "AZ-KUR-800680",
      "countryId": 587116,
      "countryCode": "AZ",
      "stateCode": "AZ-KUR",
      "latitude": 40.49917,
      "longitude": 47.78889
    },
    {
      "id": 586989,
      "name": "Böyük Kəngərli",
      "nativeName": "Beyuk-Kengerli",
      "code": "AZ-KUR-586989",
      "countryId": 587116,
      "countryCode": "AZ",
      "stateCode": "AZ-KUR",
      "latitude": 40.43971,
      "longitude": 48.33651
    },
    {
      "id": 587000,
      "name": "Bəyi",
      "nativeName": "Beyi",
      "code": "AZ-KUR-587000",
      "countryId": 587116,
      "countryCode": "AZ",
      "stateCode": "AZ-KUR",
      "latitude": 40.09573,
      "longitude": 48.22787
    },
    {
      "id": 586663,
      "name": "Carlı",
      "nativeName": "Carlı",
      "code": "AZ-KUR-586663",
      "countryId": 587116,
      "countryCode": "AZ",
      "stateCode": "AZ-KUR",
      "latitude": 40.0833,
      "longitude": 48.16213
    },
    {
      "id": 586858,
      "name": "Chelsorsor",
      "nativeName": "Chelsorsor",
      "code": "AZ-KUR-586858",
      "countryId": 587116,
      "countryCode": "AZ",
      "stateCode": "AZ-KUR",
      "latitude": 40.2,
      "longitude": 48.03333
    },
    {
      "id": 586653,
      "name": "Cǝyli",
      "nativeName": "Dzheyli",
      "code": "AZ-KUR-586653",
      "countryId": 587116,
      "countryCode": "AZ",
      "stateCode": "AZ-KUR",
      "latitude": 40.43435,
      "longitude": 48.26405
    },
    {
      "id": 586804,
      "name": "Dayrmanly",
      "nativeName": "Dayrmanly",
      "code": "AZ-KUR-586804",
      "countryId": 587116,
      "countryCode": "AZ",
      "stateCode": "AZ-KUR",
      "latitude": 40.38961,
      "longitude": 48.14468
    },
    {
      "id": 825071,
      "name": "Dayıkazımlı",
      "nativeName": "Dayıkazımlı",
      "code": "AZ-KUR-825071",
      "countryId": 587116,
      "countryCode": "AZ",
      "stateCode": "AZ-KUR",
      "latitude": 40.08767,
      "longitude": 48.30026
    },
    {
      "id": 586524,
      "name": "Gamzaly",
      "nativeName": "Gamzaly",
      "code": "AZ-KUR-586524",
      "countryId": 587116,
      "countryCode": "AZ",
      "stateCode": "AZ-KUR",
      "latitude": 40.16611,
      "longitude": 48.35944
    },
    {
      "id": 11919128,
      "name": "Garıs Əyribənd",
      "nativeName": "Garıs Əyribənd",
      "code": "AZ-KUR-11919128",
      "countryId": 587116,
      "countryCode": "AZ",
      "stateCode": "AZ-KUR",
      "latitude": 40.34458,
      "longitude": 48.37756
    },
    {
      "id": 12092647,
      "name": "Hacımustafalı",
      "nativeName": "Hacımustafalı",
      "code": "AZ-KUR-12092647",
      "countryId": 587116,
      "countryCode": "AZ",
      "stateCode": "AZ-KUR",
      "latitude": 40.06872,
      "longitude": 48.17609
    },
    {
      "id": 12092648,
      "name": "Hacımustafalı",
      "nativeName": "Hacımustafalı",
      "code": "AZ-KUR-12092648",
      "countryId": 587116,
      "countryCode": "AZ",
      "stateCode": "AZ-KUR",
      "latitude": 40.05995,
      "longitude": 48.23298
    },
    {
      "id": 586024,
      "name": "Karrar",
      "nativeName": "Karrar",
      "code": "AZ-KUR-586024",
      "countryId": 587116,
      "countryCode": "AZ",
      "stateCode": "AZ-KUR",
      "latitude": 40.28256,
      "longitude": 48.36696
    },
    {
      "id": 585990,
      "name": "Khalilli",
      "nativeName": "Khalilli",
      "code": "AZ-KUR-585990",
      "countryId": 587116,
      "countryCode": "AZ",
      "stateCode": "AZ-KUR",
      "latitude": 40.16194,
      "longitude": 47.99556
    },
    {
      "id": 585983,
      "name": "Khaysalyar",
      "nativeName": "Khaysalyar",
      "code": "AZ-KUR-585983",
      "countryId": 587116,
      "countryCode": "AZ",
      "stateCode": "AZ-KUR",
      "latitude": 40.07976,
      "longitude": 48.22302
    },
    {
      "id": 585830,
      "name": "Kokhunly",
      "nativeName": "Kokhunly",
      "code": "AZ-KUR-585830",
      "countryId": 587116,
      "countryCode": "AZ",
      "stateCode": "AZ-KUR",
      "latitude": 40.12929,
      "longitude": 47.98249
    },
    {
      "id": 824087,
      "name": "Köhünlü",
      "nativeName": "Köhünlü",
      "code": "AZ-KUR-824087",
      "countryId": 587116,
      "countryCode": "AZ",
      "stateCode": "AZ-KUR",
      "latitude": 40.13444,
      "longitude": 47.9825
    },
    {
      "id": 585607,
      "name": "Magerramli",
      "nativeName": "Magerramli",
      "code": "AZ-KUR-585607",
      "countryId": 587116,
      "countryCode": "AZ",
      "stateCode": "AZ-KUR",
      "latitude": 40.16803,
      "longitude": 48.35141
    },
    {
      "id": 585548,
      "name": "Mehdili",
      "nativeName": "Mehdili",
      "code": "AZ-KUR-585548",
      "countryId": 587116,
      "countryCode": "AZ",
      "stateCode": "AZ-KUR",
      "latitude": 40.0791,
      "longitude": 48.31711
    },
    {
      "id": 585533,
      "name": "Melikumud",
      "nativeName": "Melikumud",
      "code": "AZ-KUR-585533",
      "countryId": 587116,
      "countryCode": "AZ",
      "stateCode": "AZ-KUR",
      "latitude": 40.44279,
      "longitude": 48.09603
    },
    {
      "id": 585481,
      "name": "Mollakǝnd",
      "nativeName": "Mulla",
      "code": "AZ-KUR-585481",
      "countryId": 587116,
      "countryCode": "AZ",
      "stateCode": "AZ-KUR",
      "latitude": 40.11637,
      "longitude": 48.10024
    },
    {
      "id": 585446,
      "name": "Muradxan",
      "nativeName": "Muradxan",
      "code": "AZ-KUR-585446",
      "countryId": 587116,
      "countryCode": "AZ",
      "stateCode": "AZ-KUR",
      "latitude": 40.19348,
      "longitude": 48.13955
    },
    {
      "id": 8560267,
      "name": "Murtulu",
      "nativeName": "Murtulu",
      "code": "AZ-KUR-8560267",
      "countryId": 587116,
      "countryCode": "AZ",
      "stateCode": "AZ-KUR",
      "latitude": 40.37993,
      "longitude": 48.17568
    },
    {
      "id": 585460,
      "name": "Muğanlı",
      "nativeName": "Muğanlı",
      "code": "AZ-KUR-585460",
      "countryId": 587116,
      "countryCode": "AZ",
      "stateCode": "AZ-KUR",
      "latitude": 40.32007,
      "longitude": 48.32377
    },
    {
      "id": 823977,
      "name": "Pirili",
      "nativeName": "Pirili",
      "code": "AZ-KUR-823977",
      "countryId": 587116,
      "countryCode": "AZ",
      "stateCode": "AZ-KUR",
      "latitude": 40.17684,
      "longitude": 48.249
    },
    {
      "id": 585270,
      "name": "Pirəköcə",
      "nativeName": "Pirekyudzha",
      "code": "AZ-KUR-585270",
      "countryId": 587116,
      "countryCode": "AZ",
      "stateCode": "AZ-KUR",
      "latitude": 40.06269,
      "longitude": 48.27893
    },
    {
      "id": 586235,
      "name": "Qarabucaq",
      "nativeName": "Qarabucaq",
      "code": "AZ-KUR-586235",
      "countryId": 587116,
      "countryCode": "AZ",
      "stateCode": "AZ-KUR",
      "latitude": 40.42698,
      "longitude": 48.05945
    },
    {
      "id": 12089472,
      "name": "Qarabucaq",
      "nativeName": "Qarabucaq",
      "code": "AZ-KUR-12089472",
      "countryId": 587116,
      "countryCode": "AZ",
      "stateCode": "AZ-KUR",
      "latitude": 40.04304,
      "longitude": 48.3239
    },
    {
      "id": 586167,
      "name": "Qaramahmudlu",
      "nativeName": "Qaramahmudlu",
      "code": "AZ-KUR-586167",
      "countryId": 587116,
      "countryCode": "AZ",
      "stateCode": "AZ-KUR",
      "latitude": 40.14702,
      "longitude": 48.036
    },
    {
      "id": 586188,
      "name": "Qaraqocalı",
      "nativeName": "Qaraqocalı",
      "code": "AZ-KUR-586188",
      "countryId": 587116,
      "countryCode": "AZ",
      "stateCode": "AZ-KUR",
      "latitude": 40.37832,
      "longitude": 48.19308
    },
    {
      "id": 586152,
      "name": "Qarasaqqal",
      "nativeName": "Qarasaqqal",
      "code": "AZ-KUR-586152",
      "countryId": 587116,
      "countryCode": "AZ",
      "stateCode": "AZ-KUR",
      "latitude": 40.37953,
      "longitude": 48.29346
    },
    {
      "id": 11919116,
      "name": "Qarasu",
      "nativeName": "Qarasu",
      "code": "AZ-KUR-11919116",
      "countryId": 587116,
      "countryCode": "AZ",
      "stateCode": "AZ-KUR",
      "latitude": 40.3112,
      "longitude": 47.98508
    },
    {
      "id": 586301,
      "name": "Qağacılı",
      "nativeName": "Qağacılı",
      "code": "AZ-KUR-586301",
      "countryId": 587116,
      "countryCode": "AZ",
      "stateCode": "AZ-KUR",
      "latitude": 40.36844,
      "longitude": 48.15
    },
    {
      "id": 586434,
      "name": "Qocalı",
      "nativeName": "Qocalı",
      "code": "AZ-KUR-586434",
      "countryId": 587116,
      "countryCode": "AZ",
      "stateCode": "AZ-KUR",
      "latitude": 40.06699,
      "longitude": 48.26028
    },
    {
      "id": 585833,
      "name": "Qoçulu",
      "nativeName": "Qoçulu",
      "code": "AZ-KUR-585833",
      "countryId": 587116,
      "countryCode": "AZ",
      "stateCode": "AZ-KUR",
      "latitude": 40.08731,
      "longitude": 48.32618
    },
    {
      "id": 585684,
      "name": "Qurdbayram",
      "nativeName": "Qurdbayram",
      "code": "AZ-KUR-585684",
      "countryId": 587116,
      "countryCode": "AZ",
      "stateCode": "AZ-KUR",
      "latitude": 40.51154,
      "longitude": 48.09123
    },
    {
      "id": 8560265,
      "name": "Quşlar",
      "nativeName": "Quşlar",
      "code": "AZ-KUR-8560265",
      "countryId": 587116,
      "countryCode": "AZ",
      "stateCode": "AZ-KUR",
      "latitude": 40.08676,
      "longitude": 48.14104
    },
    {
      "id": 585082,
      "name": "Shakhbeyli",
      "nativeName": "Shakhbeyli",
      "code": "AZ-KUR-585082",
      "countryId": 587116,
      "countryCode": "AZ",
      "stateCode": "AZ-KUR",
      "latitude": 40.43628,
      "longitude": 48.28464
    },
    {
      "id": 584945,
      "name": "Sorsor",
      "nativeName": "Sor Sor",
      "code": "AZ-KUR-584945",
      "countryId": 587116,
      "countryCode": "AZ",
      "stateCode": "AZ-KUR",
      "latitude": 40.23827,
      "longitude": 48.12588
    },
    {
      "id": 584944,
      "name": "Sovla",
      "nativeName": "Sovla",
      "code": "AZ-KUR-584944",
      "countryId": 587116,
      "countryCode": "AZ",
      "stateCode": "AZ-KUR",
      "latitude": 40.0991,
      "longitude": 47.95683
    },
    {
      "id": 585097,
      "name": "Soyutlar",
      "nativeName": "Soyutlar",
      "code": "AZ-KUR-585097",
      "countryId": 587116,
      "countryCode": "AZ",
      "stateCode": "AZ-KUR",
      "latitude": 40.10085,
      "longitude": 47.93399
    },
    {
      "id": 584962,
      "name": "Sığırlı",
      "nativeName": "Sygyrly",
      "code": "AZ-KUR-584962",
      "countryId": 587116,
      "countryCode": "AZ",
      "stateCode": "AZ-KUR",
      "latitude": 40.26761,
      "longitude": 48.40919
    },
    {
      "id": 584867,
      "name": "Tatarkend",
      "nativeName": "Tatarkend",
      "code": "AZ-KUR-584867",
      "countryId": 587116,
      "countryCode": "AZ",
      "stateCode": "AZ-KUR",
      "latitude": 40.24694,
      "longitude": 48.26028
    },
    {
      "id": 584846,
      "name": "Teklya",
      "nativeName": "Teklya",
      "code": "AZ-KUR-584846",
      "countryId": 587116,
      "countryCode": "AZ",
      "stateCode": "AZ-KUR",
      "latitude": 40.4549,
      "longitude": 48.16955
    },
    {
      "id": 584828,
      "name": "Topalgasanly",
      "nativeName": "Topalgasanly",
      "code": "AZ-KUR-584828",
      "countryId": 587116,
      "countryCode": "AZ",
      "stateCode": "AZ-KUR",
      "latitude": 40.38656,
      "longitude": 48.19483
    },
    {
      "id": 584795,
      "name": "Tyurkedy",
      "nativeName": "Tyurkedy",
      "code": "AZ-KUR-584795",
      "countryId": 587116,
      "countryCode": "AZ",
      "stateCode": "AZ-KUR",
      "latitude": 40.09477,
      "longitude": 48.11461
    },
    {
      "id": 584784,
      "name": "Ucarlı",
      "nativeName": "Ucarlı",
      "code": "AZ-KUR-584784",
      "countryId": 587116,
      "countryCode": "AZ",
      "stateCode": "AZ-KUR",
      "latitude": 40.45302,
      "longitude": 48.25055
    },
    {
      "id": 585916,
      "name": "Xınıslı",
      "nativeName": "Xınıslı",
      "code": "AZ-KUR-585916",
      "countryId": 587116,
      "countryCode": "AZ",
      "stateCode": "AZ-KUR",
      "latitude": 40.32497,
      "longitude": 48.28466
    },
    {
      "id": 585913,
      "name": "Xırdapay",
      "nativeName": "Xırdapay",
      "code": "AZ-KUR-585913",
      "countryId": 587116,
      "countryCode": "AZ",
      "stateCode": "AZ-KUR",
      "latitude": 40.35743,
      "longitude": 48.14247
    },
    {
      "id": 11919118,
      "name": "Yeni Şıxımlı",
      "nativeName": "Yeni Şıxımlı",
      "code": "AZ-KUR-11919118",
      "countryId": 587116,
      "countryCode": "AZ",
      "stateCode": "AZ-KUR",
      "latitude": 40.30724,
      "longitude": 48.19104
    },
    {
      "id": 584669,
      "name": "Yenikǝnd",
      "nativeName": "Yenikend",
      "code": "AZ-KUR-584669",
      "countryId": 587116,
      "countryCode": "AZ",
      "stateCode": "AZ-KUR",
      "latitude": 40.38178,
      "longitude": 48.13968
    },
    {
      "id": 586827,
      "name": "Çöhranlı",
      "nativeName": "Çöhranlı",
      "code": "AZ-KUR-586827",
      "countryId": 587116,
      "countryCode": "AZ",
      "stateCode": "AZ-KUR",
      "latitude": 40.28275,
      "longitude": 48.19163
    },
    {
      "id": 8560266,
      "name": "Çöl Qubalı",
      "nativeName": "Çöl Qubalı",
      "code": "AZ-KUR-8560266",
      "countryId": 587116,
      "countryCode": "AZ",
      "stateCode": "AZ-KUR",
      "latitude": 40.16351,
      "longitude": 48.38368
    },
    {
      "id": 586860,
      "name": "Çölǝrǝb",
      "nativeName": "Cholarb",
      "code": "AZ-KUR-586860",
      "countryId": 587116,
      "countryCode": "AZ",
      "stateCode": "AZ-KUR",
      "latitude": 40.18028,
      "longitude": 48.0928
    },
    {
      "id": 586882,
      "name": "Çərtəyəz",
      "nativeName": "Chartayaz",
      "code": "AZ-KUR-586882",
      "countryId": 587116,
      "countryCode": "AZ",
      "stateCode": "AZ-KUR",
      "latitude": 40.14453,
      "longitude": 48.06078
    },
    {
      "id": 585299,
      "name": "Öyləqulu",
      "nativeName": "Oylyakulu",
      "code": "AZ-KUR-585299",
      "countryId": 587116,
      "countryCode": "AZ",
      "stateCode": "AZ-KUR",
      "latitude": 40.10789,
      "longitude": 48.32952
    },
    {
      "id": 586319,
      "name": "İsmayıllı",
      "nativeName": "İsmayıllı",
      "code": "AZ-KUR-586319",
      "countryId": 587116,
      "countryCode": "AZ",
      "stateCode": "AZ-KUR",
      "latitude": 40.42715,
      "longitude": 48.3396
    },
    {
      "id": 585069,
      "name": "Şahsevǝn",
      "nativeName": "Shakhsevan",
      "code": "AZ-KUR-585069",
      "countryId": 587116,
      "countryCode": "AZ",
      "stateCode": "AZ-KUR",
      "latitude": 40.36659,
      "longitude": 48.20081
    },
    {
      "id": 585027,
      "name": "Şilyan",
      "nativeName": "Şilyan",
      "code": "AZ-KUR-585027",
      "countryId": 587116,
      "countryCode": "AZ",
      "stateCode": "AZ-KUR",
      "latitude": 40.32597,
      "longitude": 48.02009
    },
    {
      "id": 584985,
      "name": "Şüşün",
      "nativeName": "Shushun",
      "code": "AZ-KUR-584985",
      "countryId": 587116,
      "countryCode": "AZ",
      "stateCode": "AZ-KUR",
      "latitude": 40.13596,
      "longitude": 48.00475
    },
    {
      "id": 584965,
      "name": "Şıxımlı",
      "nativeName": "Şıxımlı",
      "code": "AZ-KUR-584965",
      "countryId": 587116,
      "countryCode": "AZ",
      "stateCode": "AZ-KUR",
      "latitude": 40.36232,
      "longitude": 48.1822
    },
    {
      "id": 11919119,
      "name": "Ərşəli",
      "nativeName": "Ərşəli",
      "code": "AZ-KUR-11919119",
      "countryId": 587116,
      "countryCode": "AZ",
      "stateCode": "AZ-KUR",
      "latitude": 40.27278,
      "longitude": 48.34435
    },
    {
      "id": 587233,
      "name": "Ərǝb Qubalı",
      "nativeName": "Kubalikend",
      "code": "AZ-KUR-587233",
      "countryId": 587116,
      "countryCode": "AZ",
      "stateCode": "AZ-KUR",
      "latitude": 40.15923,
      "longitude": 48.41899
    },
    {
      "id": 587234,
      "name": "Ərǝbxana",
      "nativeName": "Arabkhana",
      "code": "AZ-KUR-587234",
      "countryId": 587116,
      "countryCode": "AZ",
      "stateCode": "AZ-KUR",
      "latitude": 40.15849,
      "longitude": 48.05893
    }
  ]
}