{
  "stateId": 147626,
  "stateCode": "AZ-LAC",
  "countryCode": "AZ",
  "cities": [
    {
      "id": 147625,
      "name": "Lachin",
      "nativeName": "Laçın",
      "code": "AZ-LAC-147625",
      "countryId": 587116,
      "countryCode": "AZ",
      "stateCode": "AZ-LAC",
      "latitude": 39.59881,
      "longitude": 46.55045
    },
    {
      "id": 148614,
      "name": "Agdzhakend",
      "nativeName": "Agdzhakend",
      "code": "AZ-LAC-148614",
      "countryId": 587116,
      "countryCode": "AZ",
      "stateCode": "AZ-LAC",
      "latitude": 39.77676,
      "longitude": 46.35054
    },
    {
      "id": 148595,
      "name": "Akhmedli",
      "nativeName": "Akhmedli",
      "code": "AZ-LAC-148595",
      "countryId": 587116,
      "countryCode": "AZ",
      "stateCode": "AZ-LAC",
      "latitude": 39.68647,
      "longitude": 46.28506
    },
    {
      "id": 148592,
      "name": "Akhnazar",
      "nativeName": "Akhnazar",
      "code": "AZ-LAC-148592",
      "countryId": 587116,
      "countryCode": "AZ",
      "stateCode": "AZ-LAC",
      "latitude": 39.77628,
      "longitude": 46.51097
    },
    {
      "id": 148582,
      "name": "Alakchi",
      "nativeName": "Alakchi",
      "code": "AZ-LAC-148582",
      "countryId": 587116,
      "countryCode": "AZ",
      "stateCode": "AZ-LAC",
      "latitude": 39.89427,
      "longitude": 46.41258
    },
    {
      "id": 148552,
      "name": "Alxaslı",
      "nativeName": "Alxaslı",
      "code": "AZ-LAC-148552",
      "countryId": 587116,
      "countryCode": "AZ",
      "stateCode": "AZ-LAC",
      "latitude": 39.74415,
      "longitude": 46.35022
    },
    {
      "id": 395617,
      "name": "Alıcan",
      "nativeName": "Alıcan",
      "code": "AZ-LAC-395617",
      "countryId": 587116,
      "countryCode": "AZ",
      "stateCode": "AZ-LAC",
      "latitude": 39.61069,
      "longitude": 46.78621
    },
    {
      "id": 148559,
      "name": "Alıqulu",
      "nativeName": "Alıqulu",
      "code": "AZ-LAC-148559",
      "countryId": 587116,
      "countryCode": "AZ",
      "stateCode": "AZ-LAC",
      "latitude": 39.74565,
      "longitude": 46.41185
    },
    {
      "id": 8456962,
      "name": "Arab",
      "nativeName": "Arab",
      "code": "AZ-LAC-8456962",
      "countryId": 587116,
      "countryCode": "AZ",
      "stateCode": "AZ-LAC",
      "latitude": 39.59376,
      "longitude": 46.60207
    },
    {
      "id": 8648520,
      "name": "Arakhish",
      "nativeName": "Arakhish",
      "code": "AZ-LAC-8648520",
      "countryId": 587116,
      "countryCode": "AZ",
      "stateCode": "AZ-LAC",
      "latitude": 39.86312,
      "longitude": 46.39093
    },
    {
      "id": 389352,
      "name": "Ardamova",
      "nativeName": "Ardamova",
      "code": "AZ-LAC-389352",
      "countryId": 587116,
      "countryCode": "AZ",
      "stateCode": "AZ-LAC",
      "latitude": 39.76644,
      "longitude": 46.48257
    },
    {
      "id": 148508,
      "name": "Ardıclı",
      "nativeName": "Arduşlu",
      "code": "AZ-LAC-148508",
      "countryId": 587116,
      "countryCode": "AZ",
      "stateCode": "AZ-LAC",
      "latitude": 39.80592,
      "longitude": 46.47916
    },
    {
      "id": 389328,
      "name": "Ardıclı",
      "nativeName": "Ardıclı",
      "code": "AZ-LAC-389328",
      "countryId": 587116,
      "countryCode": "AZ",
      "stateCode": "AZ-LAC",
      "latitude": 39.73889,
      "longitude": 46.34861
    },
    {
      "id": 148430,
      "name": "Ayıbasar",
      "nativeName": "Ayıbasar",
      "code": "AZ-LAC-148430",
      "countryId": 587116,
      "countryCode": "AZ",
      "stateCode": "AZ-LAC",
      "latitude": 39.734,
      "longitude": 46.53433
    },
    {
      "id": 11919133,
      "name": "Ağalaruşağı",
      "nativeName": "Ağalaruşağı",
      "code": "AZ-LAC-11919133",
      "countryId": 587116,
      "countryCode": "AZ",
      "stateCode": "AZ-LAC",
      "latitude": 39.89941,
      "longitude": 46.30376
    },
    {
      "id": 148628,
      "name": "Ağanus",
      "nativeName": "Ağanus",
      "code": "AZ-LAC-148628",
      "countryId": 587116,
      "countryCode": "AZ",
      "stateCode": "AZ-LAC",
      "latitude": 39.62588,
      "longitude": 46.58696
    },
    {
      "id": 148621,
      "name": "Ağbulaq",
      "nativeName": "Ağbulaq",
      "code": "AZ-LAC-148621",
      "countryId": 587116,
      "countryCode": "AZ",
      "stateCode": "AZ-LAC",
      "latitude": 39.77834,
      "longitude": 46.25789
    },
    {
      "id": 148613,
      "name": "Ağcayazı",
      "nativeName": "Ağcayazı",
      "code": "AZ-LAC-148613",
      "countryId": 587116,
      "countryCode": "AZ",
      "stateCode": "AZ-LAC",
      "latitude": 39.78634,
      "longitude": 46.45761
    },
    {
      "id": 11803235,
      "name": "Ağoğlan",
      "nativeName": "Ağoğlan",
      "code": "AZ-LAC-11803235",
      "countryId": 587116,
      "countryCode": "AZ",
      "stateCode": "AZ-LAC",
      "latitude": 39.64342,
      "longitude": 46.41206
    },
    {
      "id": 11864143,
      "name": "Aşağı Cicimli",
      "nativeName": "Aşağı Cicimli",
      "code": "AZ-LAC-11864143",
      "countryId": 587116,
      "countryCode": "AZ",
      "stateCode": "AZ-LAC",
      "latitude": 39.53027,
      "longitude": 46.54233
    },
    {
      "id": 148475,
      "name": "Aşağı Fərəcan",
      "nativeName": "Dzhafarabad",
      "code": "AZ-LAC-148475",
      "countryId": 587116,
      "countryCode": "AZ",
      "stateCode": "AZ-LAC",
      "latitude": 39.52963,
      "longitude": 46.66178
    },
    {
      "id": 148385,
      "name": "Baldırğanlı",
      "nativeName": "Baldırğanlı",
      "code": "AZ-LAC-148385",
      "countryId": 587116,
      "countryCode": "AZ",
      "stateCode": "AZ-LAC",
      "latitude": 39.56065,
      "longitude": 46.62811
    },
    {
      "id": 148364,
      "name": "Bayramushagy",
      "nativeName": "Bayramushagy",
      "code": "AZ-LAC-148364",
      "countryId": 587116,
      "countryCode": "AZ",
      "stateCode": "AZ-LAC",
      "latitude": 39.499,
      "longitude": 46.60659
    },
    {
      "id": 8457300,
      "name": "Bozdağan",
      "nativeName": "Bozdağan",
      "code": "AZ-LAC-8457300",
      "countryId": 587116,
      "countryCode": "AZ",
      "stateCode": "AZ-LAC",
      "latitude": 39.87881,
      "longitude": 46.42954
    },
    {
      "id": 148314,
      "name": "Bozlu",
      "nativeName": "Bozlu",
      "code": "AZ-LAC-148314",
      "countryId": 587116,
      "countryCode": "AZ",
      "stateCode": "AZ-LAC",
      "latitude": 39.69587,
      "longitude": 46.32987
    },
    {
      "id": 148313,
      "name": "Budaqdərə",
      "nativeName": "Budagdere",
      "code": "AZ-LAC-148313",
      "countryId": 587116,
      "countryCode": "AZ",
      "stateCode": "AZ-LAC",
      "latitude": 39.84187,
      "longitude": 46.26303
    },
    {
      "id": 148294,
      "name": "Bülövlük",
      "nativeName": "Bülövlük",
      "code": "AZ-LAC-148294",
      "countryId": 587116,
      "countryCode": "AZ",
      "stateCode": "AZ-LAC",
      "latitude": 39.77456,
      "longitude": 46.39942
    },
    {
      "id": 148293,
      "name": "Bülüldüz",
      "nativeName": "Bülüldüz",
      "code": "AZ-LAC-148293",
      "countryId": 587116,
      "countryCode": "AZ",
      "stateCode": "AZ-LAC",
      "latitude": 39.72068,
      "longitude": 46.49907
    },
    {
      "id": 12081638,
      "name": "Bəylik",
      "nativeName": "Bəylik",
      "code": "AZ-LAC-12081638",
      "countryId": 587116,
      "countryCode": "AZ",
      "stateCode": "AZ-LAC",
      "latitude": 39.64117,
      "longitude": 46.52761
    },
    {
      "id": 148159,
      "name": "Cağazur",
      "nativeName": "Cağazur",
      "code": "AZ-LAC-148159",
      "countryId": 587116,
      "countryCode": "AZ",
      "stateCode": "AZ-LAC",
      "latitude": 39.59832,
      "longitude": 46.47247
    },
    {
      "id": 389354,
      "name": "Chalagan-Gyuney",
      "nativeName": "Chalagan-Gyuney",
      "code": "AZ-LAC-389354",
      "countryId": 587116,
      "countryCode": "AZ",
      "stateCode": "AZ-LAC",
      "latitude": 39.82722,
      "longitude": 46.49139
    },
    {
      "id": 388669,
      "name": "Chemberekhach",
      "nativeName": "Chemberekhach",
      "code": "AZ-LAC-388669",
      "countryId": 587116,
      "countryCode": "AZ",
      "stateCode": "AZ-LAC",
      "latitude": 39.62157,
      "longitude": 46.66146
    },
    {
      "id": 148137,
      "name": "Cicimli",
      "nativeName": "Cicimli",
      "code": "AZ-LAC-148137",
      "countryId": 587116,
      "countryCode": "AZ",
      "stateCode": "AZ-LAC",
      "latitude": 39.51661,
      "longitude": 46.51538
    },
    {
      "id": 8457003,
      "name": "Dagirmanyany",
      "nativeName": "Dagirmanyany",
      "code": "AZ-LAC-8457003",
      "countryId": 587116,
      "countryCode": "AZ",
      "stateCode": "AZ-LAC",
      "latitude": 39.58223,
      "longitude": 46.60544
    },
    {
      "id": 389368,
      "name": "Dambulaq",
      "nativeName": "Dambulaq",
      "code": "AZ-LAC-389368",
      "countryId": 587116,
      "countryCode": "AZ",
      "stateCode": "AZ-LAC",
      "latitude": 39.8619,
      "longitude": 46.32111
    },
    {
      "id": 148229,
      "name": "Daşlı",
      "nativeName": "Daşlı",
      "code": "AZ-LAC-148229",
      "countryId": 587116,
      "countryCode": "AZ",
      "stateCode": "AZ-LAC",
      "latitude": 39.82338,
      "longitude": 46.32866
    },
    {
      "id": 148221,
      "name": "Dəyhan",
      "nativeName": "Daygyan",
      "code": "AZ-LAC-148221",
      "countryId": 587116,
      "countryCode": "AZ",
      "stateCode": "AZ-LAC",
      "latitude": 39.59038,
      "longitude": 46.64328
    },
    {
      "id": 8457007,
      "name": "Eyrik",
      "nativeName": "Eyrik",
      "code": "AZ-LAC-8457007",
      "countryId": 587116,
      "countryCode": "AZ",
      "stateCode": "AZ-LAC",
      "latitude": 39.61966,
      "longitude": 46.72047
    },
    {
      "id": 148115,
      "name": "Faradzhan",
      "nativeName": "Faradzhan",
      "code": "AZ-LAC-148115",
      "countryId": 587116,
      "countryCode": "AZ",
      "stateCode": "AZ-LAC",
      "latitude": 39.54158,
      "longitude": 46.6824
    },
    {
      "id": 148114,
      "name": "Fərraş",
      "nativeName": "Farrash",
      "code": "AZ-LAC-148114",
      "countryId": 587116,
      "countryCode": "AZ",
      "stateCode": "AZ-LAC",
      "latitude": 39.84074,
      "longitude": 46.51351
    },
    {
      "id": 148112,
      "name": "Fətəlipəyə",
      "nativeName": "Fatalipeya",
      "code": "AZ-LAC-148112",
      "countryId": 587116,
      "countryCode": "AZ",
      "stateCode": "AZ-LAC",
      "latitude": 39.6043,
      "longitude": 46.57314
    },
    {
      "id": 393871,
      "name": "Gyuleberd",
      "nativeName": "Gyuleberd",
      "code": "AZ-LAC-393871",
      "countryId": 587116,
      "countryCode": "AZ",
      "stateCode": "AZ-LAC",
      "latitude": 39.48458,
      "longitude": 46.60912
    },
    {
      "id": 148005,
      "name": "Gyusyulyu",
      "nativeName": "Gyusyulyu",
      "code": "AZ-LAC-148005",
      "countryId": 587116,
      "countryCode": "AZ",
      "stateCode": "AZ-LAC",
      "latitude": 39.64029,
      "longitude": 46.42276
    },
    {
      "id": 8457400,
      "name": "Hacısamlı",
      "nativeName": "Hacısamlı",
      "code": "AZ-LAC-8457400",
      "countryId": 587116,
      "countryCode": "AZ",
      "stateCode": "AZ-LAC",
      "latitude": 39.79954,
      "longitude": 46.40856
    },
    {
      "id": 146871,
      "name": "Hacıxanlı",
      "nativeName": "Hacıxanlı",
      "code": "AZ-LAC-146871",
      "countryId": 587116,
      "countryCode": "AZ",
      "stateCode": "AZ-LAC",
      "latitude": 39.85734,
      "longitude": 46.26893
    },
    {
      "id": 394118,
      "name": "Hacıxanlı",
      "nativeName": "Hacıxanlı",
      "code": "AZ-LAC-394118",
      "countryId": 587116,
      "countryCode": "AZ",
      "stateCode": "AZ-LAC",
      "latitude": 39.85722,
      "longitude": 46.27167
    },
    {
      "id": 148038,
      "name": "Hoçaz",
      "nativeName": "Hoçaz",
      "code": "AZ-LAC-148038",
      "countryId": 587116,
      "countryCode": "AZ",
      "stateCode": "AZ-LAC",
      "latitude": 39.67834,
      "longitude": 46.45604
    },
    {
      "id": 8457266,
      "name": "Ipak Pervoye",
      "nativeName": "Ipak Pervoye",
      "code": "AZ-LAC-8457266",
      "countryId": 587116,
      "countryCode": "AZ",
      "stateCode": "AZ-LAC",
      "latitude": 39.74206,
      "longitude": 46.5412
    },
    {
      "id": 147951,
      "name": "Kalafalıq",
      "nativeName": "Kalafalıq",
      "code": "AZ-LAC-147951",
      "countryId": 587116,
      "countryCode": "AZ",
      "stateCode": "AZ-LAC",
      "latitude": 39.79675,
      "longitude": 46.53276
    },
    {
      "id": 147934,
      "name": "Karabeyli",
      "nativeName": "Karabeyli",
      "code": "AZ-LAC-147934",
      "countryId": 587116,
      "countryCode": "AZ",
      "stateCode": "AZ-LAC",
      "latitude": 39.88097,
      "longitude": 46.3849
    },
    {
      "id": 8457372,
      "name": "Kegna-Chorman",
      "nativeName": "Kegna-Chorman",
      "code": "AZ-LAC-8457372",
      "countryId": 587116,
      "countryCode": "AZ",
      "stateCode": "AZ-LAC",
      "latitude": 39.84741,
      "longitude": 46.46277
    },
    {
      "id": 389303,
      "name": "Kesalar",
      "nativeName": "Kesalar",
      "code": "AZ-LAC-389303",
      "countryId": 587116,
      "countryCode": "AZ",
      "stateCode": "AZ-LAC",
      "latitude": 39.62632,
      "longitude": 46.3991
    },
    {
      "id": 388667,
      "name": "Khanlanty",
      "nativeName": "Khanlanty",
      "code": "AZ-LAC-388667",
      "countryId": 587116,
      "countryCode": "AZ",
      "stateCode": "AZ-LAC",
      "latitude": 39.60144,
      "longitude": 46.52861
    },
    {
      "id": 147791,
      "name": "Khatamlar",
      "nativeName": "Khatamlar",
      "code": "AZ-LAC-147791",
      "countryId": 587116,
      "countryCode": "AZ",
      "stateCode": "AZ-LAC",
      "latitude": 39.8302,
      "longitude": 46.34785
    },
    {
      "id": 389369,
      "name": "Korcabulaq",
      "nativeName": "Korcabulaq",
      "code": "AZ-LAC-389369",
      "countryId": 587116,
      "countryCode": "AZ",
      "stateCode": "AZ-LAC",
      "latitude": 39.86622,
      "longitude": 46.36608
    },
    {
      "id": 388636,
      "name": "Koynashen",
      "nativeName": "Koynashen",
      "code": "AZ-LAC-388636",
      "countryId": 587116,
      "countryCode": "AZ",
      "stateCode": "AZ-LAC",
      "latitude": 39.65583,
      "longitude": 46.53722
    },
    {
      "id": 147886,
      "name": "Kyaravuz",
      "nativeName": "Kyaravuz",
      "code": "AZ-LAC-147886",
      "countryId": 587116,
      "countryCode": "AZ",
      "stateCode": "AZ-LAC",
      "latitude": 39.61945,
      "longitude": 46.57144
    },
    {
      "id": 147851,
      "name": "Köhnəkənd",
      "nativeName": "Köhnəkənd",
      "code": "AZ-LAC-147851",
      "countryId": 587116,
      "countryCode": "AZ",
      "stateCode": "AZ-LAC",
      "latitude": 39.6342,
      "longitude": 46.70338
    },
    {
      "id": 147651,
      "name": "Kürdhacı",
      "nativeName": "Kürdhacı",
      "code": "AZ-LAC-147651",
      "countryId": 587116,
      "countryCode": "AZ",
      "stateCode": "AZ-LAC",
      "latitude": 39.82535,
      "longitude": 46.41377
    },
    {
      "id": 11211229,
      "name": "Lachikend",
      "nativeName": "Lachikend",
      "code": "AZ-LAC-11211229",
      "countryId": 587116,
      "countryCode": "AZ",
      "stateCode": "AZ-LAC",
      "latitude": 39.6576,
      "longitude": 46.55767
    },
    {
      "id": 147598,
      "name": "Lələbağırlı",
      "nativeName": "Lolabağırlı",
      "code": "AZ-LAC-147598",
      "countryId": 587116,
      "countryCode": "AZ",
      "stateCode": "AZ-LAC",
      "latitude": 39.90253,
      "longitude": 46.35737
    },
    {
      "id": 147575,
      "name": "Malxələf",
      "nativeName": "Malkhalaf",
      "code": "AZ-LAC-147575",
      "countryId": 587116,
      "countryCode": "AZ",
      "stateCode": "AZ-LAC",
      "latitude": 39.5547,
      "longitude": 46.59261
    },
    {
      "id": 147574,
      "name": "Malybey",
      "nativeName": "Malybey",
      "code": "AZ-LAC-147574",
      "countryId": 587116,
      "countryCode": "AZ",
      "stateCode": "AZ-LAC",
      "latitude": 39.6249,
      "longitude": 46.43761
    },
    {
      "id": 147588,
      "name": "Mayis",
      "nativeName": "Mayis",
      "code": "AZ-LAC-147588",
      "countryId": 587116,
      "countryCode": "AZ",
      "stateCode": "AZ-LAC",
      "latitude": 39.69686,
      "longitude": 46.40733
    },
    {
      "id": 394971,
      "name": "Mazutlu",
      "nativeName": "Mazutlu",
      "code": "AZ-LAC-394971",
      "countryId": 587116,
      "countryCode": "AZ",
      "stateCode": "AZ-LAC",
      "latitude": 39.54976,
      "longitude": 46.62153
    },
    {
      "id": 147503,
      "name": "Minkənd",
      "nativeName": "Minkend",
      "code": "AZ-LAC-147503",
      "countryId": 587116,
      "countryCode": "AZ",
      "stateCode": "AZ-LAC",
      "latitude": 39.71299,
      "longitude": 46.25479
    },
    {
      "id": 147501,
      "name": "Mirik",
      "nativeName": "Mirik",
      "code": "AZ-LAC-147501",
      "countryId": 587116,
      "countryCode": "AZ",
      "stateCode": "AZ-LAC",
      "latitude": 39.68884,
      "longitude": 46.33081
    },
    {
      "id": 147489,
      "name": "Mişni",
      "nativeName": "Mişni",
      "code": "AZ-LAC-147489",
      "countryId": 587116,
      "countryCode": "AZ",
      "stateCode": "AZ-LAC",
      "latitude": 39.70994,
      "longitude": 46.39585
    },
    {
      "id": 147460,
      "name": "Muncuqlu",
      "nativeName": "Muncuqlu",
      "code": "AZ-LAC-147460",
      "countryId": 587116,
      "countryCode": "AZ",
      "stateCode": "AZ-LAC",
      "latitude": 39.82147,
      "longitude": 46.38432
    },
    {
      "id": 389304,
      "name": "Muratly",
      "nativeName": "Muratly",
      "code": "AZ-LAC-389304",
      "countryId": 587116,
      "countryCode": "AZ",
      "stateCode": "AZ-LAC",
      "latitude": 39.6225,
      "longitude": 46.47222
    },
    {
      "id": 147447,
      "name": "Mığıdərə",
      "nativeName": "Mygydere",
      "code": "AZ-LAC-147447",
      "countryId": 587116,
      "countryCode": "AZ",
      "stateCode": "AZ-LAC",
      "latitude": 39.5759,
      "longitude": 46.61316
    },
    {
      "id": 8656510,
      "name": "Nardvan",
      "nativeName": "Nardvan",
      "code": "AZ-LAC-8656510",
      "countryId": 587116,
      "countryCode": "AZ",
      "stateCode": "AZ-LAC",
      "latitude": 39.90249,
      "longitude": 46.22454
    },
    {
      "id": 395476,
      "name": "Narişlar",
      "nativeName": "Narışlar",
      "code": "AZ-LAC-395476",
      "countryId": 587116,
      "countryCode": "AZ",
      "stateCode": "AZ-LAC",
      "latitude": 39.80806,
      "longitude": 46.30052
    },
    {
      "id": 147437,
      "name": "Nağdalı",
      "nativeName": "Nağdalı",
      "code": "AZ-LAC-147437",
      "countryId": 587116,
      "countryCode": "AZ",
      "stateCode": "AZ-LAC",
      "latitude": 39.9133,
      "longitude": 46.42218
    },
    {
      "id": 8648521,
      "name": "Nerk’in Sus",
      "nativeName": "Nerk’in Sus",
      "code": "AZ-LAC-8648521",
      "countryId": 587116,
      "countryCode": "AZ",
      "stateCode": "AZ-LAC",
      "latitude": 39.63675,
      "longitude": 46.53166
    },
    {
      "id": 389351,
      "name": "Nizhneye Akh-Kerpi",
      "nativeName": "Nizhneye Akh-Kerpi",
      "code": "AZ-LAC-389351",
      "countryId": 587116,
      "countryCode": "AZ",
      "stateCode": "AZ-LAC",
      "latitude": 39.77722,
      "longitude": 46.28944
    },
    {
      "id": 147395,
      "name": "Novruzlu",
      "nativeName": "Novruzlu",
      "code": "AZ-LAC-147395",
      "countryId": 587116,
      "countryCode": "AZ",
      "stateCode": "AZ-LAC",
      "latitude": 39.60194,
      "longitude": 46.48111
    },
    {
      "id": 147391,
      "name": "Nürəddin",
      "nativeName": "Noradin",
      "code": "AZ-LAC-147391",
      "countryId": 587116,
      "countryCode": "AZ",
      "stateCode": "AZ-LAC",
      "latitude": 39.81955,
      "longitude": 46.5114
    },
    {
      "id": 147376,
      "name": "Oğuldərə",
      "nativeName": "Oguldere",
      "code": "AZ-LAC-147376",
      "countryId": 587116,
      "countryCode": "AZ",
      "stateCode": "AZ-LAC",
      "latitude": 39.89257,
      "longitude": 46.31367
    },
    {
      "id": 147330,
      "name": "Pircahan",
      "nativeName": "Pircahan",
      "code": "AZ-LAC-147330",
      "countryId": 587116,
      "countryCode": "AZ",
      "stateCode": "AZ-LAC",
      "latitude": 39.72974,
      "longitude": 46.4348
    },
    {
      "id": 147335,
      "name": "Piçənis",
      "nativeName": "Pichenis",
      "code": "AZ-LAC-147335",
      "countryId": 587116,
      "countryCode": "AZ",
      "stateCode": "AZ-LAC",
      "latitude": 39.80356,
      "longitude": 46.44539
    },
    {
      "id": 147954,
      "name": "Qalaça",
      "nativeName": "Qalaça",
      "code": "AZ-LAC-147954",
      "countryId": 587116,
      "countryCode": "AZ",
      "stateCode": "AZ-LAC",
      "latitude": 39.69863,
      "longitude": 46.29657
    },
    {
      "id": 147616,
      "name": "Qarakeçdi",
      "nativeName": "Qarakeçdi",
      "code": "AZ-LAC-147616",
      "countryId": 587116,
      "countryCode": "AZ",
      "stateCode": "AZ-LAC",
      "latitude": 39.75549,
      "longitude": 46.27121
    },
    {
      "id": 12081626,
      "name": "Qarasaqqal",
      "nativeName": "Qarasaqqal",
      "code": "AZ-LAC-12081626",
      "countryId": 587116,
      "countryCode": "AZ",
      "stateCode": "AZ-LAC",
      "latitude": 39.8499,
      "longitude": 46.38552
    },
    {
      "id": 147919,
      "name": "Qaraçanlı",
      "nativeName": "Qaraçanlı",
      "code": "AZ-LAC-147919",
      "countryId": 587116,
      "countryCode": "AZ",
      "stateCode": "AZ-LAC",
      "latitude": 39.73953,
      "longitude": 46.39107
    },
    {
      "id": 147872,
      "name": "Qarıkaha",
      "nativeName": "Qarıkaha",
      "code": "AZ-LAC-147872",
      "countryId": 587116,
      "countryCode": "AZ",
      "stateCode": "AZ-LAC",
      "latitude": 39.65589,
      "longitude": 46.53568
    },
    {
      "id": 147899,
      "name": "Qarıqışlaq",
      "nativeName": "Qarıqışlaq",
      "code": "AZ-LAC-147899",
      "countryId": 587116,
      "countryCode": "AZ",
      "stateCode": "AZ-LAC",
      "latitude": 39.67116,
      "longitude": 46.38718
    },
    {
      "id": 12081643,
      "name": "Qayğı",
      "nativeName": "Qayğı",
      "code": "AZ-LAC-12081643",
      "countryId": 587116,
      "countryCode": "AZ",
      "stateCode": "AZ-LAC",
      "latitude": 39.56379,
      "longitude": 46.58578
    },
    {
      "id": 147714,
      "name": "Qorçu",
      "nativeName": "Qorçu",
      "code": "AZ-LAC-147714",
      "countryId": 587116,
      "countryCode": "AZ",
      "stateCode": "AZ-LAC",
      "latitude": 39.88697,
      "longitude": 46.35125
    },
    {
      "id": 147698,
      "name": "Qovuşuq",
      "nativeName": "Qovuşuq",
      "code": "AZ-LAC-147698",
      "countryId": 587116,
      "countryCode": "AZ",
      "stateCode": "AZ-LAC",
      "latitude": 39.87572,
      "longitude": 46.2357
    },
    {
      "id": 147701,
      "name": "Qoşasu",
      "nativeName": "Qoşasu",
      "code": "AZ-LAC-147701",
      "countryId": 587116,
      "countryCode": "AZ",
      "stateCode": "AZ-LAC",
      "latitude": 39.77317,
      "longitude": 46.357
    },
    {
      "id": 147683,
      "name": "Quşcu",
      "nativeName": "Quşcu",
      "code": "AZ-LAC-147683",
      "countryId": 587116,
      "countryCode": "AZ",
      "stateCode": "AZ-LAC",
      "latitude": 39.51306,
      "longitude": 46.6318
    },
    {
      "id": 147668,
      "name": "Qılıçlı",
      "nativeName": "Qılıçlı",
      "code": "AZ-LAC-147668",
      "countryId": 587116,
      "countryCode": "AZ",
      "stateCode": "AZ-LAC",
      "latitude": 39.69493,
      "longitude": 46.37416
    },
    {
      "id": 147629,
      "name": "Qızılca",
      "nativeName": "Qızılca",
      "code": "AZ-LAC-147629",
      "countryId": 587116,
      "countryCode": "AZ",
      "stateCode": "AZ-LAC",
      "latitude": 39.64158,
      "longitude": 46.50529
    },
    {
      "id": 147661,
      "name": "Qışlaq",
      "nativeName": "Qışlaq",
      "code": "AZ-LAC-147661",
      "countryId": 587116,
      "countryCode": "AZ",
      "stateCode": "AZ-LAC",
      "latitude": 39.6198,
      "longitude": 46.45262
    },
    {
      "id": 8623459,
      "name": "Saratak",
      "nativeName": "Saratak",
      "code": "AZ-LAC-8623459",
      "countryId": 587116,
      "countryCode": "AZ",
      "stateCode": "AZ-LAC",
      "latitude": 39.64947,
      "longitude": 46.48173
    },
    {
      "id": 147236,
      "name": "Seidlyar",
      "nativeName": "Seidlyar",
      "code": "AZ-LAC-147236",
      "countryId": 587116,
      "countryCode": "AZ",
      "stateCode": "AZ-LAC",
      "latitude": 39.72472,
      "longitude": 46.37778
    },
    {
      "id": 147222,
      "name": "Seyidlar",
      "nativeName": "Seyidlar",
      "code": "AZ-LAC-147222",
      "countryId": 587116,
      "countryCode": "AZ",
      "stateCode": "AZ-LAC",
      "latitude": 39.70864,
      "longitude": 46.46323
    },
    {
      "id": 147202,
      "name": "Shalva",
      "nativeName": "Shalva",
      "code": "AZ-LAC-147202",
      "countryId": 587116,
      "countryCode": "AZ",
      "stateCode": "AZ-LAC",
      "latitude": 39.83757,
      "longitude": 46.2963
    },
    {
      "id": 147200,
      "name": "Shamkend",
      "nativeName": "Shamkend",
      "code": "AZ-LAC-147200",
      "countryId": 587116,
      "countryCode": "AZ",
      "stateCode": "AZ-LAC",
      "latitude": 39.88286,
      "longitude": 46.41406
    },
    {
      "id": 147184,
      "name": "Sheylanli",
      "nativeName": "Şeylanlı",
      "code": "AZ-LAC-147184",
      "countryId": 587116,
      "countryCode": "AZ",
      "stateCode": "AZ-LAC",
      "latitude": 39.77296,
      "longitude": 46.28649
    },
    {
      "id": 147122,
      "name": "Sonasar",
      "nativeName": "Sonasar",
      "code": "AZ-LAC-147122",
      "countryId": 587116,
      "countryCode": "AZ",
      "stateCode": "AZ-LAC",
      "latitude": 39.70037,
      "longitude": 46.41656
    },
    {
      "id": 147115,
      "name": "Soyuqbulaq",
      "nativeName": "Soyuqbulaq",
      "code": "AZ-LAC-147115",
      "countryId": 587116,
      "countryCode": "AZ",
      "stateCode": "AZ-LAC",
      "latitude": 39.69711,
      "longitude": 46.39454
    },
    {
      "id": 395613,
      "name": "Suarası",
      "nativeName": "Suarası",
      "code": "AZ-LAC-395613",
      "countryId": 587116,
      "countryCode": "AZ",
      "stateCode": "AZ-LAC",
      "latitude": 39.56537,
      "longitude": 46.67155
    },
    {
      "id": 147110,
      "name": "Sultan",
      "nativeName": "Sultan",
      "code": "AZ-LAC-147110",
      "countryId": 587116,
      "countryCode": "AZ",
      "stateCode": "AZ-LAC",
      "latitude": 39.6365,
      "longitude": 46.45029
    },
    {
      "id": 147106,
      "name": "Sus",
      "nativeName": "Sus",
      "code": "AZ-LAC-147106",
      "countryId": 587116,
      "countryCode": "AZ",
      "stateCode": "AZ-LAC",
      "latitude": 39.62661,
      "longitude": 46.51419
    },
    {
      "id": 147102,
      "name": "Suvat",
      "nativeName": "Suvat",
      "code": "AZ-LAC-147102",
      "countryId": 587116,
      "countryCode": "AZ",
      "stateCode": "AZ-LAC",
      "latitude": 39.81778,
      "longitude": 46.47444
    },
    {
      "id": 147279,
      "name": "Səfiyan",
      "nativeName": "Sofian",
      "code": "AZ-LAC-147279",
      "countryId": 587116,
      "countryCode": "AZ",
      "stateCode": "AZ-LAC",
      "latitude": 39.52827,
      "longitude": 46.63068
    },
    {
      "id": 147082,
      "name": "Tarkhanly",
      "nativeName": "Tarkhanly",
      "code": "AZ-LAC-147082",
      "countryId": 587116,
      "countryCode": "AZ",
      "stateCode": "AZ-LAC",
      "latitude": 39.57139,
      "longitude": 46.62611
    },
    {
      "id": 147064,
      "name": "Tazakend",
      "nativeName": "Tazakend",
      "code": "AZ-LAC-147064",
      "countryId": 587116,
      "countryCode": "AZ",
      "stateCode": "AZ-LAC",
      "latitude": 39.76175,
      "longitude": 46.49802
    },
    {
      "id": 389305,
      "name": "Tsitsernavank",
      "nativeName": "Tsitsernavank",
      "code": "AZ-LAC-389305",
      "countryId": 587116,
      "countryCode": "AZ",
      "stateCode": "AZ-LAC",
      "latitude": 39.64667,
      "longitude": 46.41611
    },
    {
      "id": 147033,
      "name": "Turaby",
      "nativeName": "Turaby",
      "code": "AZ-LAC-147033",
      "countryId": 587116,
      "countryCode": "AZ",
      "stateCode": "AZ-LAC",
      "latitude": 39.60001,
      "longitude": 46.59108
    },
    {
      "id": 8457008,
      "name": "Tyurklyar",
      "nativeName": "Tyurklyar",
      "code": "AZ-LAC-8457008",
      "countryId": 587116,
      "countryCode": "AZ",
      "stateCode": "AZ-LAC",
      "latitude": 39.51686,
      "longitude": 46.61457
    },
    {
      "id": 147016,
      "name": "Uludyuz",
      "nativeName": "Uludüz",
      "code": "AZ-LAC-147016",
      "countryId": 587116,
      "countryCode": "AZ",
      "stateCode": "AZ-LAC",
      "latitude": 39.64805,
      "longitude": 46.46639
    },
    {
      "id": 147014,
      "name": "Unannovu",
      "nativeName": "Unannovu",
      "code": "AZ-LAC-147014",
      "countryId": 587116,
      "countryCode": "AZ",
      "stateCode": "AZ-LAC",
      "latitude": 39.5979,
      "longitude": 46.60422
    },
    {
      "id": 147007,
      "name": "Vağazin",
      "nativeName": "Vağazin",
      "code": "AZ-LAC-147007",
      "countryId": 587116,
      "countryCode": "AZ",
      "stateCode": "AZ-LAC",
      "latitude": 39.78002,
      "longitude": 46.47893
    },
    {
      "id": 146993,
      "name": "Vəlibəyli",
      "nativeName": "Velibeyli",
      "code": "AZ-LAC-146993",
      "countryId": 587116,
      "countryCode": "AZ",
      "stateCode": "AZ-LAC",
      "latitude": 39.82059,
      "longitude": 46.29699
    },
    {
      "id": 147808,
      "name": "Xanalılar",
      "nativeName": "Xanalılar",
      "code": "AZ-LAC-147808",
      "countryId": 587116,
      "countryCode": "AZ",
      "stateCode": "AZ-LAC",
      "latitude": 39.55564,
      "longitude": 46.63997
    },
    {
      "id": 389353,
      "name": "Xaçınyalı",
      "nativeName": "Xaçınyalı",
      "code": "AZ-LAC-389353",
      "countryId": 587116,
      "countryCode": "AZ",
      "stateCode": "AZ-LAC",
      "latitude": 39.80562,
      "longitude": 46.42615
    },
    {
      "id": 147752,
      "name": "Xumarta",
      "nativeName": "Xumarta",
      "code": "AZ-LAC-147752",
      "countryId": 587116,
      "countryCode": "AZ",
      "stateCode": "AZ-LAC",
      "latitude": 39.61355,
      "longitude": 46.6894
    },
    {
      "id": 146908,
      "name": "Zabukh",
      "nativeName": "Zabux",
      "code": "AZ-LAC-146908",
      "countryId": 587116,
      "countryCode": "AZ",
      "stateCode": "AZ-LAC",
      "latitude": 39.59115,
      "longitude": 46.54302
    },
    {
      "id": 146906,
      "name": "Zağaltı",
      "nativeName": "Zağaltı",
      "code": "AZ-LAC-146906",
      "countryId": 587116,
      "countryCode": "AZ",
      "stateCode": "AZ-LAC",
      "latitude": 39.88588,
      "longitude": 46.3385
    },
    {
      "id": 146886,
      "name": "Zerti",
      "nativeName": "Zerti",
      "code": "AZ-LAC-146886",
      "countryId": 587116,
      "countryCode": "AZ",
      "stateCode": "AZ-LAC",
      "latitude": 39.67663,
      "longitude": 46.53738
    },
    {
      "id": 146881,
      "name": "Zeyva",
      "nativeName": "Zeyva",
      "code": "AZ-LAC-146881",
      "countryId": 587116,
      "countryCode": "AZ",
      "stateCode": "AZ-LAC",
      "latitude": 39.66487,
      "longitude": 46.41919
    },
    {
      "id": 148260,
      "name": "Çorman",
      "nativeName": "Çorman",
      "code": "AZ-LAC-148260",
      "countryId": 587116,
      "countryCode": "AZ",
      "stateCode": "AZ-LAC",
      "latitude": 39.86221,
      "longitude": 46.44914
    },
    {
      "id": 147992,
      "name": "İmanlar",
      "nativeName": "İmanlar",
      "code": "AZ-LAC-147992",
      "countryId": 587116,
      "countryCode": "AZ",
      "stateCode": "AZ-LAC",
      "latitude": 39.85315,
      "longitude": 46.29092
    },
    {
      "id": 148506,
      "name": "Ərikli",
      "nativeName": "Erikli",
      "code": "AZ-LAC-148506",
      "countryId": 587116,
      "countryCode": "AZ",
      "stateCode": "AZ-LAC",
      "latitude": 39.85256,
      "longitude": 46.40651
    }
  ]
}