{
  "stateId": 147422,
  "stateCode": "AZ-NEF",
  "countryCode": "AZ",
  "cities": [
    {
      "id": 147425,
      "name": "Neftçala",
      "nativeName": "Neftçala",
      "code": "AZ-NEF-147425",
      "countryId": 587116,
      "countryCode": "AZ",
      "stateCode": "AZ-NEF",
      "latitude": 39.3768,
      "longitude": 49.247
    },
    {
      "id": 148648,
      "name": "Abasallı",
      "nativeName": "Abasalılı",
      "code": "AZ-NEF-148648",
      "countryId": 587116,
      "countryCode": "AZ",
      "stateCode": "AZ-NEF",
      "latitude": 39.43533,
      "longitude": 49.08097
    },
    {
      "id": 148523,
      "name": "Arabkardashbeyli",
      "nativeName": "Arabkardashbeyli",
      "code": "AZ-NEF-148523",
      "countryId": 587116,
      "countryCode": "AZ",
      "stateCode": "AZ-NEF",
      "latitude": 39.53111,
      "longitude": 49.01555
    },
    {
      "id": 148446,
      "name": "Astanlı",
      "nativeName": "Astanlı",
      "code": "AZ-NEF-148446",
      "countryId": 587116,
      "countryCode": "AZ",
      "stateCode": "AZ-NEF",
      "latitude": 39.4333,
      "longitude": 49.06439
    },
    {
      "id": 148473,
      "name": "Aşağı Qaramanlı",
      "nativeName": "Aşağı Qaramanlı",
      "code": "AZ-NEF-148473",
      "countryId": 587116,
      "countryCode": "AZ",
      "stateCode": "AZ-NEF",
      "latitude": 39.42985,
      "longitude": 49.04091
    },
    {
      "id": 148461,
      "name": "Aşağı Surra",
      "nativeName": "Aşağı Surra",
      "code": "AZ-NEF-148461",
      "countryId": 587116,
      "countryCode": "AZ",
      "stateCode": "AZ-NEF",
      "latitude": 39.48082,
      "longitude": 49.00817
    },
    {
      "id": 148388,
      "name": "Bala Surra",
      "nativeName": "Bala Surra",
      "code": "AZ-NEF-148388",
      "countryId": 587116,
      "countryCode": "AZ",
      "stateCode": "AZ-NEF",
      "latitude": 39.51667,
      "longitude": 49.01667
    },
    {
      "id": 148381,
      "name": "Ballıcalı",
      "nativeName": "Ballıcalı",
      "code": "AZ-NEF-148381",
      "countryId": 587116,
      "countryCode": "AZ",
      "stateCode": "AZ-NEF",
      "latitude": 39.41504,
      "longitude": 49.07663
    },
    {
      "id": 148375,
      "name": "Bankə",
      "nativeName": "Severo-Vostotchnyi Bank",
      "code": "AZ-NEF-148375",
      "countryId": 587116,
      "countryCode": "AZ",
      "stateCode": "AZ-NEF",
      "latitude": 39.41117,
      "longitude": 49.24792
    },
    {
      "id": 148356,
      "name": "Beştalı",
      "nativeName": "Beştalı",
      "code": "AZ-NEF-148356",
      "countryId": 587116,
      "countryCode": "AZ",
      "stateCode": "AZ-NEF",
      "latitude": 39.56833,
      "longitude": 49.00518
    },
    {
      "id": 389487,
      "name": "Birinci Nömräli Mayak",
      "nativeName": "Birinci Nömräli Mayak",
      "code": "AZ-NEF-389487",
      "countryId": 587116,
      "countryCode": "AZ",
      "stateCode": "AZ-NEF",
      "latitude": 39.36934,
      "longitude": 49.34229
    },
    {
      "id": 147894,
      "name": "Birinci Qaralı",
      "nativeName": "Birinci Qaralı",
      "code": "AZ-NEF-147894",
      "countryId": 587116,
      "countryCode": "AZ",
      "stateCode": "AZ-NEF",
      "latitude": 39.44946,
      "longitude": 49.02134
    },
    {
      "id": 148320,
      "name": "Boyat",
      "nativeName": "Boyat",
      "code": "AZ-NEF-148320",
      "countryId": 587116,
      "countryCode": "AZ",
      "stateCode": "AZ-NEF",
      "latitude": 39.39957,
      "longitude": 49.08471
    },
    {
      "id": 389153,
      "name": "Chapayevka",
      "nativeName": "Chapayevka",
      "code": "AZ-NEF-389153",
      "countryId": 587116,
      "countryCode": "AZ",
      "stateCode": "AZ-NEF",
      "latitude": 39.39806,
      "longitude": 49.27556
    },
    {
      "id": 147311,
      "name": "Dalğalı",
      "nativeName": "Dalğalı",
      "code": "AZ-NEF-147311",
      "countryId": 587116,
      "countryCode": "AZ",
      "stateCode": "AZ-NEF",
      "latitude": 39.16797,
      "longitude": 49.22691
    },
    {
      "id": 148183,
      "name": "Dortlyar",
      "nativeName": "Dortlyar",
      "code": "AZ-NEF-148183",
      "countryId": 587116,
      "countryCode": "AZ",
      "stateCode": "AZ-NEF",
      "latitude": 39.43019,
      "longitude": 49.08346
    },
    {
      "id": 148184,
      "name": "Dortlyar",
      "nativeName": "Dortlyar",
      "code": "AZ-NEF-148184",
      "countryId": 587116,
      "countryCode": "AZ",
      "stateCode": "AZ-NEF",
      "latitude": 39.3196,
      "longitude": 48.80778
    },
    {
      "id": 148146,
      "name": "Dzhangyan",
      "nativeName": "Dzhangyan",
      "code": "AZ-NEF-148146",
      "countryId": 587116,
      "countryCode": "AZ",
      "stateCode": "AZ-NEF",
      "latitude": 39.56337,
      "longitude": 49.02285
    },
    {
      "id": 148588,
      "name": "Haqverdilər",
      "nativeName": "Akhverdili",
      "code": "AZ-NEF-148588",
      "countryId": 587116,
      "countryCode": "AZ",
      "stateCode": "AZ-NEF",
      "latitude": 39.27489,
      "longitude": 49.14494
    },
    {
      "id": 147963,
      "name": "Kadymkend",
      "nativeName": "Kadymkend",
      "code": "AZ-NEF-147963",
      "countryId": 587116,
      "countryCode": "AZ",
      "stateCode": "AZ-NEF",
      "latitude": 39.43993,
      "longitude": 49.0246
    },
    {
      "id": 147940,
      "name": "Karaakhmedli",
      "nativeName": "Karaakhmedli",
      "code": "AZ-NEF-147940",
      "countryId": 587116,
      "countryCode": "AZ",
      "stateCode": "AZ-NEF",
      "latitude": 39.41222,
      "longitude": 48.97278
    },
    {
      "id": 147888,
      "name": "Karavelly",
      "nativeName": "Karavelly",
      "code": "AZ-NEF-147888",
      "countryId": 587116,
      "countryCode": "AZ",
      "stateCode": "AZ-NEF",
      "latitude": 39.41947,
      "longitude": 49.23888
    },
    {
      "id": 147867,
      "name": "Kazakhbarasi",
      "nativeName": "Kazakhbarasi",
      "code": "AZ-NEF-147867",
      "countryId": 587116,
      "countryCode": "AZ",
      "stateCode": "AZ-NEF",
      "latitude": 39.36667,
      "longitude": 48.7811
    },
    {
      "id": 147798,
      "name": "Khanmedty",
      "nativeName": "Khanmedty",
      "code": "AZ-NEF-147798",
      "countryId": 587116,
      "countryCode": "AZ",
      "stateCode": "AZ-NEF",
      "latitude": 39.39574,
      "longitude": 48.79071
    },
    {
      "id": 389161,
      "name": "Khazar",
      "nativeName": "Khazar",
      "code": "AZ-NEF-389161",
      "countryId": 587116,
      "countryCode": "AZ",
      "stateCode": "AZ-NEF",
      "latitude": 39.25469,
      "longitude": 48.91812
    },
    {
      "id": 147769,
      "name": "Kholtazakend",
      "nativeName": "Kholtazakend",
      "code": "AZ-NEF-147769",
      "countryId": 587116,
      "countryCode": "AZ",
      "stateCode": "AZ-NEF",
      "latitude": 39.28461,
      "longitude": 48.86339
    },
    {
      "id": 8512088,
      "name": "Krasnyy Stan",
      "nativeName": "Krasnyy Stan",
      "code": "AZ-NEF-8512088",
      "countryId": 587116,
      "countryCode": "AZ",
      "stateCode": "AZ-NEF",
      "latitude": 39.38048,
      "longitude": 49.31168
    },
    {
      "id": 147664,
      "name": "Kyrmyzykend",
      "nativeName": "Kyrmyzykend",
      "code": "AZ-NEF-147664",
      "countryId": 587116,
      "countryCode": "AZ",
      "stateCode": "AZ-NEF",
      "latitude": 39.3424,
      "longitude": 48.76315
    },
    {
      "id": 147687,
      "name": "Kürdili",
      "nativeName": "Kürdili",
      "code": "AZ-NEF-147687",
      "countryId": 587116,
      "countryCode": "AZ",
      "stateCode": "AZ-NEF",
      "latitude": 38.98962,
      "longitude": 49.14359
    },
    {
      "id": 147641,
      "name": "Kürqarabucaq",
      "nativeName": "Kürqarabucaq",
      "code": "AZ-NEF-147641",
      "countryId": 587116,
      "countryCode": "AZ",
      "stateCode": "AZ-NEF",
      "latitude": 39.46485,
      "longitude": 49.01953
    },
    {
      "id": 147520,
      "name": "Meshdally",
      "nativeName": "Meshdally",
      "code": "AZ-NEF-147520",
      "countryId": 587116,
      "countryCode": "AZ",
      "stateCode": "AZ-NEF",
      "latitude": 39.21637,
      "longitude": 49.21086
    },
    {
      "id": 147514,
      "name": "Mikayıllı",
      "nativeName": "Mikayıllı",
      "code": "AZ-NEF-147514",
      "countryId": 587116,
      "countryCode": "AZ",
      "stateCode": "AZ-NEF",
      "latitude": 39.2175,
      "longitude": 49.18889
    },
    {
      "id": 8512090,
      "name": "Mirzakurbanly",
      "nativeName": "Mirzakurbanly",
      "code": "AZ-NEF-8512090",
      "countryId": 587116,
      "countryCode": "AZ",
      "stateCode": "AZ-NEF",
      "latitude": 39.41745,
      "longitude": 49.17597
    },
    {
      "id": 147443,
      "name": "Myursagulu",
      "nativeName": "Myursagulu",
      "code": "AZ-NEF-147443",
      "countryId": 587116,
      "countryCode": "AZ",
      "stateCode": "AZ-NEF",
      "latitude": 39.3289,
      "longitude": 48.80268
    },
    {
      "id": 147406,
      "name": "Nord-Ost-Kultuk",
      "nativeName": "Nord-Ost Qultuq",
      "code": "AZ-NEF-147406",
      "countryId": 587116,
      "countryCode": "AZ",
      "stateCode": "AZ-NEF",
      "latitude": 39.4924,
      "longitude": 49.2668
    },
    {
      "id": 8512089,
      "name": "Novovasilyevka",
      "nativeName": "Novovasilyevka",
      "code": "AZ-NEF-8512089",
      "countryId": 587116,
      "countryCode": "AZ",
      "stateCode": "AZ-NEF",
      "latitude": 39.40209,
      "longitude": 49.25918
    },
    {
      "id": 147334,
      "name": "Pirappa",
      "nativeName": "Pirappa",
      "code": "AZ-NEF-147334",
      "countryId": 587116,
      "countryCode": "AZ",
      "stateCode": "AZ-NEF",
      "latitude": 39.4997,
      "longitude": 49.00828
    },
    {
      "id": 147910,
      "name": "Qaraqaşlı",
      "nativeName": "Qaraqaşlı",
      "code": "AZ-NEF-147910",
      "countryId": 587116,
      "countryCode": "AZ",
      "stateCode": "AZ-NEF",
      "latitude": 39.58663,
      "longitude": 48.99216
    },
    {
      "id": 147964,
      "name": "Qaçaqkənd",
      "nativeName": "Kachakkend",
      "code": "AZ-NEF-147964",
      "countryId": 587116,
      "countryCode": "AZ",
      "stateCode": "AZ-NEF",
      "latitude": 39.3904,
      "longitude": 48.78332
    },
    {
      "id": 147636,
      "name": "Qızqayıtdı",
      "nativeName": "Qızqayıtdı",
      "code": "AZ-NEF-147636",
      "countryId": 587116,
      "countryCode": "AZ",
      "stateCode": "AZ-NEF",
      "latitude": 39.24472,
      "longitude": 49.1701
    },
    {
      "id": 147300,
      "name": "Ramazanlı",
      "nativeName": "Ramazanlı",
      "code": "AZ-NEF-147300",
      "countryId": 587116,
      "countryCode": "AZ",
      "stateCode": "AZ-NEF",
      "latitude": 39.3832,
      "longitude": 48.78439
    },
    {
      "id": 147262,
      "name": "Sahiloba",
      "nativeName": "Sahiloba",
      "code": "AZ-NEF-147262",
      "countryId": 587116,
      "countryCode": "AZ",
      "stateCode": "AZ-NEF",
      "latitude": 39.13302,
      "longitude": 49.20964
    },
    {
      "id": 147247,
      "name": "Sarıqamış",
      "nativeName": "Sarıqamış",
      "code": "AZ-NEF-147247",
      "countryId": 587116,
      "countryCode": "AZ",
      "stateCode": "AZ-NEF",
      "latitude": 39.21275,
      "longitude": 49.22672
    },
    {
      "id": 393443,
      "name": "Sovetabad",
      "nativeName": "Sovetabad",
      "code": "AZ-NEF-393443",
      "countryId": 587116,
      "countryCode": "AZ",
      "stateCode": "AZ-NEF",
      "latitude": 39.33667,
      "longitude": 49.21414
    },
    {
      "id": 147009,
      "name": "Sübh",
      "nativeName": "Sübh",
      "code": "AZ-NEF-147009",
      "countryId": 587116,
      "countryCode": "AZ",
      "stateCode": "AZ-NEF",
      "latitude": 39.30219,
      "longitude": 49.4017
    },
    {
      "id": 8519968,
      "name": "Sülh",
      "nativeName": "Sülh",
      "code": "AZ-NEF-8519968",
      "countryId": 587116,
      "countryCode": "AZ",
      "stateCode": "AZ-NEF",
      "latitude": 39.388,
      "longitude": 49.2953
    },
    {
      "id": 147076,
      "name": "Tatarməhlə",
      "nativeName": "Tatarmagla",
      "code": "AZ-NEF-147076",
      "countryId": 587116,
      "countryCode": "AZ",
      "stateCode": "AZ-NEF",
      "latitude": 39.43096,
      "longitude": 49.115
    },
    {
      "id": 147008,
      "name": "Uzunbabalı",
      "nativeName": "Uzunbabalı",
      "code": "AZ-NEF-147008",
      "countryId": 587116,
      "countryCode": "AZ",
      "stateCode": "AZ-NEF",
      "latitude": 39.41724,
      "longitude": 49.21111
    },
    {
      "id": 147772,
      "name": "Xol Qarabucaq",
      "nativeName": "Xol Qarabucaq",
      "code": "AZ-NEF-147772",
      "countryId": 587116,
      "countryCode": "AZ",
      "stateCode": "AZ-NEF",
      "latitude": 39.30868,
      "longitude": 48.81822
    },
    {
      "id": 147771,
      "name": "Xol Qaraqaşlı",
      "nativeName": "Xol Qaraqaşlı",
      "code": "AZ-NEF-147771",
      "countryId": 587116,
      "countryCode": "AZ",
      "stateCode": "AZ-NEF",
      "latitude": 39.30676,
      "longitude": 48.83399
    },
    {
      "id": 147784,
      "name": "Xıllı",
      "nativeName": "Xıllı",
      "code": "AZ-NEF-147784",
      "countryId": 587116,
      "countryCode": "AZ",
      "stateCode": "AZ-NEF",
      "latitude": 39.43012,
      "longitude": 49.10166
    },
    {
      "id": 146948,
      "name": "Yenikend",
      "nativeName": "Yenikend",
      "code": "AZ-NEF-146948",
      "countryId": 587116,
      "countryCode": "AZ",
      "stateCode": "AZ-NEF",
      "latitude": 39.39806,
      "longitude": 49.27556
    },
    {
      "id": 146946,
      "name": "Yeniqışlaq",
      "nativeName": "Yeniqışlaq",
      "code": "AZ-NEF-146946",
      "countryId": 587116,
      "countryCode": "AZ",
      "stateCode": "AZ-NEF",
      "latitude": 39.26926,
      "longitude": 49.21301
    },
    {
      "id": 146930,
      "name": "Yuxarı Qaramanlı",
      "nativeName": "Yuxarı Qaramanlı",
      "code": "AZ-NEF-146930",
      "countryId": 587116,
      "countryCode": "AZ",
      "stateCode": "AZ-NEF",
      "latitude": 39.4767,
      "longitude": 49.02506
    },
    {
      "id": 146880,
      "name": "Zharskiy",
      "nativeName": "Kürdili",
      "code": "AZ-NEF-146880",
      "countryId": 587116,
      "countryCode": "AZ",
      "stateCode": "AZ-NEF",
      "latitude": 39.00391,
      "longitude": 49.17801
    },
    {
      "id": 400174,
      "name": "İkinci Mayak",
      "nativeName": "İkinci Nömräli Mayak",
      "code": "AZ-NEF-400174",
      "countryId": 587116,
      "countryCode": "AZ",
      "stateCode": "AZ-NEF",
      "latitude": 39.36229,
      "longitude": 49.33869
    },
    {
      "id": 400170,
      "name": "İkinci Qaralı",
      "nativeName": "İkinci Qaralı",
      "code": "AZ-NEF-400170",
      "countryId": 587116,
      "countryCode": "AZ",
      "stateCode": "AZ-NEF",
      "latitude": 39.45444,
      "longitude": 49.0325
    },
    {
      "id": 147893,
      "name": "İkinci Qaralı",
      "nativeName": "İkinci Qaralı",
      "code": "AZ-NEF-147893",
      "countryId": 587116,
      "countryCode": "AZ",
      "stateCode": "AZ-NEF",
      "latitude": 39.45703,
      "longitude": 49.02952
    },
    {
      "id": 147989,
      "name": "İyirmi Altı Bakı Komissarı",
      "nativeName": "İyirmi Altı Bakı Komissarı",
      "code": "AZ-NEF-147989",
      "countryId": 587116,
      "countryCode": "AZ",
      "stateCode": "AZ-NEF",
      "latitude": 39.31376,
      "longitude": 49.20716
    },
    {
      "id": 11814460,
      "name": "Şirvanlı",
      "nativeName": "Şirvanlı",
      "code": "AZ-NEF-11814460",
      "countryId": 587116,
      "countryCode": "AZ",
      "stateCode": "AZ-NEF",
      "latitude": 39.49002,
      "longitude": 49.27337
    },
    {
      "id": 147174,
      "name": "Şorkənd",
      "nativeName": "Shorkend",
      "code": "AZ-NEF-147174",
      "countryId": 587116,
      "countryCode": "AZ",
      "stateCode": "AZ-NEF",
      "latitude": 39.60681,
      "longitude": 49.00084
    }
  ]
}