{
  "stateId": 585749,
  "stateCode": "AZ-QUS",
  "countryCode": "AZ",
  "cities": [
    {
      "id": 585220,
      "name": "Qusar",
      "nativeName": "Qusar",
      "code": "AZ-QUS-585220",
      "countryId": 587116,
      "countryCode": "AZ",
      "stateCode": "AZ-QUS",
      "latitude": 41.4275,
      "longitude": 48.4302
    },
    {
      "id": 587422,
      "name": "Adzhakhur",
      "nativeName": "Adzhakhur",
      "code": "AZ-QUS-587422",
      "countryId": 587116,
      "countryCode": "AZ",
      "stateCode": "AZ-QUS",
      "latitude": 41.45634,
      "longitude": 48.18754
    },
    {
      "id": 587421,
      "name": "Adzhakhuroba",
      "nativeName": "Adzhakhuroba",
      "code": "AZ-QUS-587421",
      "countryId": 587116,
      "countryCode": "AZ",
      "stateCode": "AZ-QUS",
      "latitude": 41.72758,
      "longitude": 48.52315
    },
    {
      "id": 587251,
      "name": "Anykh-Kishlag",
      "nativeName": "Anykh-Kishlag",
      "code": "AZ-QUS-587251",
      "countryId": 587116,
      "countryCode": "AZ",
      "stateCode": "AZ-QUS",
      "latitude": 41.6587,
      "longitude": 48.57916
    },
    {
      "id": 587250,
      "name": "Anykhoba Pervaya",
      "nativeName": "Anykhoba Pervaya",
      "code": "AZ-QUS-587250",
      "countryId": 587116,
      "countryCode": "AZ",
      "stateCode": "AZ-QUS",
      "latitude": 41.64578,
      "longitude": 48.50652
    },
    {
      "id": 587184,
      "name": "Ashagy Gelenkhur",
      "nativeName": "Ashagy Gelenkhur",
      "code": "AZ-QUS-587184",
      "countryId": 587116,
      "countryCode": "AZ",
      "stateCode": "AZ-QUS",
      "latitude": 41.49887,
      "longitude": 48.15202
    },
    {
      "id": 8622010,
      "name": "Ashagy-Imamkulikend",
      "nativeName": "Ashagy-Imamkulikend",
      "code": "AZ-QUS-8622010",
      "countryId": 587116,
      "countryCode": "AZ",
      "stateCode": "AZ-QUS",
      "latitude": 41.66678,
      "longitude": 48.50166
    },
    {
      "id": 8622027,
      "name": "Atlıxan",
      "nativeName": "Atlıxan",
      "code": "AZ-QUS-8622027",
      "countryId": 587116,
      "countryCode": "AZ",
      "stateCode": "AZ-QUS",
      "latitude": 41.50519,
      "longitude": 48.5694
    },
    {
      "id": 587133,
      "name": "Avaran",
      "nativeName": "Avaran",
      "code": "AZ-QUS-587133",
      "countryId": 587116,
      "countryCode": "AZ",
      "stateCode": "AZ-QUS",
      "latitude": 41.42885,
      "longitude": 48.38306
    },
    {
      "id": 587131,
      "name": "Avaranqışlaq",
      "nativeName": "Avaranqışlaq",
      "code": "AZ-QUS-587131",
      "countryId": 587116,
      "countryCode": "AZ",
      "stateCode": "AZ-QUS",
      "latitude": 41.48785,
      "longitude": 48.56892
    },
    {
      "id": 587170,
      "name": "Aşağı Ləgər",
      "nativeName": "Ash-Leger",
      "code": "AZ-QUS-587170",
      "countryId": 587116,
      "countryCode": "AZ",
      "stateCode": "AZ-QUS",
      "latitude": 41.49717,
      "longitude": 48.45303
    },
    {
      "id": 587069,
      "name": "Bala Qusar",
      "nativeName": "Bala Qusar",
      "code": "AZ-QUS-587069",
      "countryId": 587116,
      "countryCode": "AZ",
      "stateCode": "AZ-QUS",
      "latitude": 41.4476,
      "longitude": 48.49275
    },
    {
      "id": 586985,
      "name": "Böyük Muruq",
      "nativeName": "Böyük Muruq",
      "code": "AZ-QUS-586985",
      "countryId": 587116,
      "countryCode": "AZ",
      "stateCode": "AZ-QUS",
      "latitude": 41.43168,
      "longitude": 48.17733
    },
    {
      "id": 587017,
      "name": "Bədirqala",
      "nativeName": "Bedirkala",
      "code": "AZ-QUS-587017",
      "countryId": 587116,
      "countryCode": "AZ",
      "stateCode": "AZ-QUS",
      "latitude": 41.47685,
      "longitude": 48.49409
    },
    {
      "id": 587016,
      "name": "Bədişqala",
      "nativeName": "Bedishkala",
      "code": "AZ-QUS-587016",
      "countryId": 587116,
      "countryCode": "AZ",
      "stateCode": "AZ-QUS",
      "latitude": 41.51527,
      "longitude": 48.42346
    },
    {
      "id": 586682,
      "name": "Caqar",
      "nativeName": "Caqar",
      "code": "AZ-QUS-586682",
      "countryId": 587116,
      "countryCode": "AZ",
      "stateCode": "AZ-QUS",
      "latitude": 41.34141,
      "longitude": 48.19143
    },
    {
      "id": 8622028,
      "name": "Caqarqışlaq",
      "nativeName": "Caqarqışlaq",
      "code": "AZ-QUS-8622028",
      "countryId": 587116,
      "countryCode": "AZ",
      "stateCode": "AZ-QUS",
      "latitude": 41.54589,
      "longitude": 48.55494
    },
    {
      "id": 586852,
      "name": "Chetgyun",
      "nativeName": "Chetgyun",
      "code": "AZ-QUS-586852",
      "countryId": 587116,
      "countryCode": "AZ",
      "stateCode": "AZ-QUS",
      "latitude": 41.34371,
      "longitude": 48.16407
    },
    {
      "id": 586848,
      "name": "Chilegir",
      "nativeName": "Chilegir",
      "code": "AZ-QUS-586848",
      "countryId": 587116,
      "countryCode": "AZ",
      "stateCode": "AZ-QUS",
      "latitude": 41.39795,
      "longitude": 48.368
    },
    {
      "id": 586648,
      "name": "Cibir",
      "nativeName": "Cibir",
      "code": "AZ-QUS-586648",
      "countryId": 587116,
      "countryCode": "AZ",
      "stateCode": "AZ-QUS",
      "latitude": 41.51545,
      "longitude": 48.31833
    },
    {
      "id": 586646,
      "name": "Dzhibir-Kazmalary",
      "nativeName": "Dzhibir-Kazmalary",
      "code": "AZ-QUS-586646",
      "countryId": 587116,
      "countryCode": "AZ",
      "stateCode": "AZ-QUS",
      "latitude": 41.65,
      "longitude": 48.55
    },
    {
      "id": 586695,
      "name": "Düztahir",
      "nativeName": "Düztahir",
      "code": "AZ-QUS-586695",
      "countryId": 587116,
      "countryCode": "AZ",
      "stateCode": "AZ-QUS",
      "latitude": 41.40946,
      "longitude": 48.15288
    },
    {
      "id": 586508,
      "name": "Gasankala",
      "nativeName": "Gasankala",
      "code": "AZ-QUS-586508",
      "countryId": 587116,
      "countryCode": "AZ",
      "stateCode": "AZ-QUS",
      "latitude": 41.45136,
      "longitude": 48.509
    },
    {
      "id": 586450,
      "name": "Gican",
      "nativeName": "Gican",
      "code": "AZ-QUS-586450",
      "countryId": 587116,
      "countryCode": "AZ",
      "stateCode": "AZ-QUS",
      "latitude": 41.3884,
      "longitude": 48.11321
    },
    {
      "id": 8622904,
      "name": "Gicanoba",
      "nativeName": "Gicanoba",
      "code": "AZ-QUS-8622904",
      "countryId": 587116,
      "countryCode": "AZ",
      "stateCode": "AZ-QUS",
      "latitude": 41.61751,
      "longitude": 48.52662
    },
    {
      "id": 586448,
      "name": "Gilah",
      "nativeName": "Gilah",
      "code": "AZ-QUS-586448",
      "countryId": 587116,
      "countryCode": "AZ",
      "stateCode": "AZ-QUS",
      "latitude": 41.47674,
      "longitude": 48.17402
    },
    {
      "id": 586051,
      "name": "Gilahoba",
      "nativeName": "Gilahoba",
      "code": "AZ-QUS-586051",
      "countryId": 587116,
      "countryCode": "AZ",
      "stateCode": "AZ-QUS",
      "latitude": 41.72361,
      "longitude": 48.57402
    },
    {
      "id": 586437,
      "name": "Girik",
      "nativeName": "Girik",
      "code": "AZ-QUS-586437",
      "countryId": 587116,
      "countryCode": "AZ",
      "stateCode": "AZ-QUS",
      "latitude": 41.53674,
      "longitude": 48.2794
    },
    {
      "id": 586382,
      "name": "Gündüzqala",
      "nativeName": "Gündüzqala",
      "code": "AZ-QUS-586382",
      "countryId": 587116,
      "countryCode": "AZ",
      "stateCode": "AZ-QUS",
      "latitude": 41.5294,
      "longitude": 48.43207
    },
    {
      "id": 586491,
      "name": "Gǝdǝzeyxur",
      "nativeName": "Gedazeykhur",
      "code": "AZ-QUS-586491",
      "countryId": 587116,
      "countryCode": "AZ",
      "stateCode": "AZ-QUS",
      "latitude": 41.48841,
      "longitude": 48.42418
    },
    {
      "id": 8622009,
      "name": "Haçatala",
      "nativeName": "Haçatala",
      "code": "AZ-QUS-8622009",
      "countryId": 587116,
      "countryCode": "AZ",
      "stateCode": "AZ-QUS",
      "latitude": 41.7072,
      "longitude": 48.57077
    },
    {
      "id": 586449,
      "name": "Hil",
      "nativeName": "Hil",
      "code": "AZ-QUS-586449",
      "countryId": 587116,
      "countryCode": "AZ",
      "stateCode": "AZ-QUS",
      "latitude": 41.46768,
      "longitude": 48.34437
    },
    {
      "id": 586444,
      "name": "Hiloba",
      "nativeName": "Hiloba",
      "code": "AZ-QUS-586444",
      "countryId": 587116,
      "countryCode": "AZ",
      "stateCode": "AZ-QUS",
      "latitude": 41.63348,
      "longitude": 48.54217
    },
    {
      "id": 585950,
      "name": "Hǝzrǝ",
      "nativeName": "Khazry",
      "code": "AZ-QUS-585950",
      "countryId": 587116,
      "countryCode": "AZ",
      "stateCode": "AZ-QUS",
      "latitude": 41.50458,
      "longitude": 48.25018
    },
    {
      "id": 586346,
      "name": "Imamqulukǝnd",
      "nativeName": "Imamkulukend",
      "code": "AZ-QUS-586346",
      "countryId": 587116,
      "countryCode": "AZ",
      "stateCode": "AZ-QUS",
      "latitude": 41.55436,
      "longitude": 48.43595
    },
    {
      "id": 586099,
      "name": "Kayakend",
      "nativeName": "Kayakend",
      "code": "AZ-QUS-586099",
      "countryId": 587116,
      "countryCode": "AZ",
      "stateCode": "AZ-QUS",
      "latitude": 41.40798,
      "longitude": 48.41072
    },
    {
      "id": 586080,
      "name": "Kazioba",
      "nativeName": "Kazioba",
      "code": "AZ-QUS-586080",
      "countryId": 587116,
      "countryCode": "AZ",
      "stateCode": "AZ-QUS",
      "latitude": 41.48333,
      "longitude": 48.58333
    },
    {
      "id": 8622006,
      "name": "Kenarchay",
      "nativeName": "Kenarchay",
      "code": "AZ-QUS-8622006",
      "countryId": 587116,
      "countryCode": "AZ",
      "stateCode": "AZ-QUS",
      "latitude": 41.36521,
      "longitude": 48.07112
    },
    {
      "id": 585949,
      "name": "Khazvy",
      "nativeName": "Khazvy",
      "code": "AZ-QUS-585949",
      "countryId": 587116,
      "countryCode": "AZ",
      "stateCode": "AZ-QUS",
      "latitude": 41.69316,
      "longitude": 48.55697
    },
    {
      "id": 585782,
      "name": "Kufoba",
      "nativeName": "Kufoba",
      "code": "AZ-QUS-585782",
      "countryId": 587116,
      "countryCode": "AZ",
      "stateCode": "AZ-QUS",
      "latitude": 41.67571,
      "longitude": 48.46364
    },
    {
      "id": 585735,
      "name": "Kuzun",
      "nativeName": "Kuzun",
      "code": "AZ-QUS-585735",
      "countryId": 587116,
      "countryCode": "AZ",
      "stateCode": "AZ-QUS",
      "latitude": 41.33499,
      "longitude": 48.14141
    },
    {
      "id": 585734,
      "name": "Kuzunqışlaq",
      "nativeName": "Kuzunqışlaq",
      "code": "AZ-QUS-585734",
      "countryId": 587116,
      "countryCode": "AZ",
      "stateCode": "AZ-QUS",
      "latitude": 41.50125,
      "longitude": 48.6216
    },
    {
      "id": 586058,
      "name": "Köhnǝ Xudat",
      "nativeName": "Kekhna-Khudat",
      "code": "AZ-QUS-586058",
      "countryId": 587116,
      "countryCode": "AZ",
      "stateCode": "AZ-QUS",
      "latitude": 41.45899,
      "longitude": 48.41969
    },
    {
      "id": 586057,
      "name": "Köhnə Xudat Qazmalar",
      "nativeName": "Kazmalar",
      "code": "AZ-QUS-586057",
      "countryId": 587116,
      "countryCode": "AZ",
      "stateCode": "AZ-QUS",
      "latitude": 41.4631,
      "longitude": 48.47174
    },
    {
      "id": 585653,
      "name": "Laza",
      "nativeName": "Laza",
      "code": "AZ-QUS-585653",
      "countryId": 587116,
      "countryCode": "AZ",
      "stateCode": "AZ-QUS",
      "latitude": 41.29913,
      "longitude": 48.11161
    },
    {
      "id": 585649,
      "name": "Ledzhet",
      "nativeName": "Ledzhet",
      "code": "AZ-QUS-585649",
      "countryId": 587116,
      "countryCode": "AZ",
      "stateCode": "AZ-QUS",
      "latitude": 41.54176,
      "longitude": 48.31499
    },
    {
      "id": 587197,
      "name": "Ləgərqışlaq",
      "nativeName": "Ashaga-Leger",
      "code": "AZ-QUS-587197",
      "countryId": 587116,
      "countryCode": "AZ",
      "stateCode": "AZ-QUS",
      "latitude": 41.59778,
      "longitude": 48.58839
    },
    {
      "id": 824920,
      "name": "Ləngi",
      "nativeName": "Langi",
      "code": "AZ-QUS-824920",
      "countryId": 587116,
      "countryCode": "AZ",
      "stateCode": "AZ-QUS",
      "latitude": 41.55833,
      "longitude": 48.53734
    },
    {
      "id": 8623143,
      "name": "Minaxür",
      "nativeName": "Minaxür",
      "code": "AZ-QUS-8623143",
      "countryId": 587116,
      "countryCode": "AZ",
      "stateCode": "AZ-QUS",
      "latitude": 41.52161,
      "longitude": 48.54939
    },
    {
      "id": 585504,
      "name": "Mirzəqasım",
      "nativeName": "Mirzakasym",
      "code": "AZ-QUS-585504",
      "countryId": 587116,
      "countryCode": "AZ",
      "stateCode": "AZ-QUS",
      "latitude": 41.41671,
      "longitude": 48.65869
    },
    {
      "id": 585463,
      "name": "Mucuq",
      "nativeName": "Mucuq",
      "code": "AZ-QUS-585463",
      "countryId": 587116,
      "countryCode": "AZ",
      "stateCode": "AZ-QUS",
      "latitude": 41.45423,
      "longitude": 48.22667
    },
    {
      "id": 824923,
      "name": "Mucuqoba",
      "nativeName": "Mucuğoba",
      "code": "AZ-QUS-824923",
      "countryId": 587116,
      "countryCode": "AZ",
      "stateCode": "AZ-QUS",
      "latitude": 41.67741,
      "longitude": 48.50017
    },
    {
      "id": 585403,
      "name": "Nadzhafkend",
      "nativeName": "Nadzhafkend",
      "code": "AZ-QUS-585403",
      "countryId": 587116,
      "countryCode": "AZ",
      "stateCode": "AZ-QUS",
      "latitude": 41.492,
      "longitude": 48.1914
    },
    {
      "id": 8621839,
      "name": "Nadzhafkendoba",
      "nativeName": "Nadzhafkendoba",
      "code": "AZ-QUS-8621839",
      "countryId": 587116,
      "countryCode": "AZ",
      "stateCode": "AZ-QUS",
      "latitude": 41.72269,
      "longitude": 48.54563
    },
    {
      "id": 585269,
      "name": "Piral",
      "nativeName": "Piral",
      "code": "AZ-QUS-585269",
      "countryId": 587116,
      "countryCode": "AZ",
      "stateCode": "AZ-QUS",
      "latitude": 41.49502,
      "longitude": 48.28567
    },
    {
      "id": 586283,
      "name": "Qalacıq",
      "nativeName": "Qalacıq",
      "code": "AZ-QUS-586283",
      "countryId": 587116,
      "countryCode": "AZ",
      "stateCode": "AZ-QUS",
      "latitude": 41.51142,
      "longitude": 48.51427
    },
    {
      "id": 586144,
      "name": "Qaratoba",
      "nativeName": "Qaratoba",
      "code": "AZ-QUS-586144",
      "countryId": 587116,
      "countryCode": "AZ",
      "stateCode": "AZ-QUS",
      "latitude": 41.71279,
      "longitude": 48.55974
    },
    {
      "id": 585777,
      "name": "Qullar",
      "nativeName": "Qullar",
      "code": "AZ-QUS-585777",
      "countryId": 587116,
      "countryCode": "AZ",
      "stateCode": "AZ-QUS",
      "latitude": 41.6399,
      "longitude": 48.47192
    },
    {
      "id": 8622007,
      "name": "Quturğan",
      "nativeName": "Quturğan",
      "code": "AZ-QUS-8622007",
      "countryId": 587116,
      "countryCode": "AZ",
      "stateCode": "AZ-QUS",
      "latitude": 41.36558,
      "longitude": 48.04259
    },
    {
      "id": 585781,
      "name": "Quxur",
      "nativeName": "Quxur",
      "code": "AZ-QUS-585781",
      "countryId": 587116,
      "countryCode": "AZ",
      "stateCode": "AZ-QUS",
      "latitude": 41.38922,
      "longitude": 48.03564
    },
    {
      "id": 585780,
      "name": "Quxuroba",
      "nativeName": "Quxuroba",
      "code": "AZ-QUS-585780",
      "countryId": 587116,
      "countryCode": "AZ",
      "stateCode": "AZ-QUS",
      "latitude": 41.58434,
      "longitude": 48.53402
    },
    {
      "id": 585165,
      "name": "Salahoba",
      "nativeName": "Salahoba",
      "code": "AZ-QUS-585165",
      "countryId": 587116,
      "countryCode": "AZ",
      "stateCode": "AZ-QUS",
      "latitude": 41.701,
      "longitude": 48.5097
    },
    {
      "id": 585150,
      "name": "Samur",
      "nativeName": "Samur",
      "code": "AZ-QUS-585150",
      "countryId": 587116,
      "countryCode": "AZ",
      "stateCode": "AZ-QUS",
      "latitude": 41.63671,
      "longitude": 48.43028
    },
    {
      "id": 11048841,
      "name": "Shahdag",
      "nativeName": "Shahdag",
      "code": "AZ-QUS-11048841",
      "countryId": 587116,
      "countryCode": "AZ",
      "stateCode": "AZ-QUS",
      "latitude": 41.32065,
      "longitude": 48.13608
    },
    {
      "id": 584936,
      "name": "Sudur",
      "nativeName": "Sudur",
      "code": "AZ-QUS-584936",
      "countryId": 587116,
      "countryCode": "AZ",
      "stateCode": "AZ-QUS",
      "latitude": 41.37512,
      "longitude": 48.03131
    },
    {
      "id": 8622905,
      "name": "Suduroba",
      "nativeName": "Suduroba",
      "code": "AZ-QUS-8622905",
      "countryId": 587116,
      "countryCode": "AZ",
      "stateCode": "AZ-QUS",
      "latitude": 41.58375,
      "longitude": 48.43368
    },
    {
      "id": 584912,
      "name": "Suvacal",
      "nativeName": "Suvacal",
      "code": "AZ-QUS-584912",
      "countryId": 587116,
      "countryCode": "AZ",
      "stateCode": "AZ-QUS",
      "latitude": 41.34195,
      "longitude": 48.24044
    },
    {
      "id": 584823,
      "name": "Torpaqkörpü",
      "nativeName": "Torpaqkörpü",
      "code": "AZ-QUS-584823",
      "countryId": 587116,
      "countryCode": "AZ",
      "stateCode": "AZ-QUS",
      "latitude": 41.70802,
      "longitude": 48.53888
    },
    {
      "id": 584780,
      "name": "Ukur",
      "nativeName": "Ukur",
      "code": "AZ-QUS-584780",
      "countryId": 587116,
      "countryCode": "AZ",
      "stateCode": "AZ-QUS",
      "latitude": 41.47491,
      "longitude": 48.22095
    },
    {
      "id": 584767,
      "name": "Urva",
      "nativeName": "Urva",
      "code": "AZ-QUS-584767",
      "countryId": 587116,
      "countryCode": "AZ",
      "stateCode": "AZ-QUS",
      "latitude": 41.39758,
      "longitude": 48.33139
    },
    {
      "id": 8623144,
      "name": "Urva",
      "nativeName": "Urva",
      "code": "AZ-QUS-8623144",
      "countryId": 587116,
      "countryCode": "AZ",
      "stateCode": "AZ-QUS",
      "latitude": 41.54227,
      "longitude": 48.59362
    },
    {
      "id": 585930,
      "name": "Xuluq",
      "nativeName": "Xuluq",
      "code": "AZ-QUS-585930",
      "countryId": 587116,
      "countryCode": "AZ",
      "stateCode": "AZ-QUS",
      "latitude": 41.46765,
      "longitude": 48.15211
    },
    {
      "id": 585929,
      "name": "Xuluqoba",
      "nativeName": "Xuluqoba",
      "code": "AZ-QUS-585929",
      "countryId": 587116,
      "countryCode": "AZ",
      "stateCode": "AZ-QUS",
      "latitude": 41.67267,
      "longitude": 48.56194
    },
    {
      "id": 585928,
      "name": "Xuray",
      "nativeName": "Xuray",
      "code": "AZ-QUS-585928",
      "countryId": 587116,
      "countryCode": "AZ",
      "stateCode": "AZ-QUS",
      "latitude": 41.36525,
      "longitude": 48.3004
    },
    {
      "id": 585925,
      "name": "Xurəl",
      "nativeName": "Xurəl",
      "code": "AZ-QUS-585925",
      "countryId": 587116,
      "countryCode": "AZ",
      "stateCode": "AZ-QUS",
      "latitude": 41.43396,
      "longitude": 48.35105
    },
    {
      "id": 584699,
      "name": "Yasab",
      "nativeName": "Yasab",
      "code": "AZ-QUS-584699",
      "countryId": 587116,
      "countryCode": "AZ",
      "stateCode": "AZ-QUS",
      "latitude": 41.49256,
      "longitude": 48.3203
    },
    {
      "id": 584698,
      "name": "Yasaboba",
      "nativeName": "Yasaboba",
      "code": "AZ-QUS-584698",
      "countryId": 587116,
      "countryCode": "AZ",
      "stateCode": "AZ-QUS",
      "latitude": 41.63814,
      "longitude": 48.57778
    },
    {
      "id": 8622008,
      "name": "Yeni Tahircal",
      "nativeName": "Yeni Tahircal",
      "code": "AZ-QUS-8622008",
      "countryId": 587116,
      "countryCode": "AZ",
      "stateCode": "AZ-QUS",
      "latitude": 41.66201,
      "longitude": 48.44124
    },
    {
      "id": 584631,
      "name": "Yukhary Leger",
      "nativeName": "Yukhary Leger",
      "code": "AZ-QUS-584631",
      "countryId": 587116,
      "countryCode": "AZ",
      "stateCode": "AZ-QUS",
      "latitude": 41.36006,
      "longitude": 48.28002
    },
    {
      "id": 584637,
      "name": "Yukhary-Gelenkhur",
      "nativeName": "Yukhary-Gelenkhur",
      "code": "AZ-QUS-584637",
      "countryId": 587116,
      "countryCode": "AZ",
      "stateCode": "AZ-QUS",
      "latitude": 41.49252,
      "longitude": 48.12865
    },
    {
      "id": 584623,
      "name": "Yuxarı Tahircal",
      "nativeName": "Yuxarı Tahircal",
      "code": "AZ-QUS-584623",
      "countryId": 587116,
      "countryCode": "AZ",
      "stateCode": "AZ-QUS",
      "latitude": 41.44386,
      "longitude": 48.07306
    },
    {
      "id": 584620,
      "name": "Yuxarı Zeyxur",
      "nativeName": "Yuxarı Zeyxur",
      "code": "AZ-QUS-584620",
      "countryId": 587116,
      "countryCode": "AZ",
      "stateCode": "AZ-QUS",
      "latitude": 41.5692,
      "longitude": 48.38173
    },
    {
      "id": 584566,
      "name": "Zindanmuruq",
      "nativeName": "Zindanmuruq",
      "code": "AZ-QUS-584566",
      "countryId": 587116,
      "countryCode": "AZ",
      "stateCode": "AZ-QUS",
      "latitude": 41.33144,
      "longitude": 48.19182
    },
    {
      "id": 584565,
      "name": "Zindanmuruqqışlaq",
      "nativeName": "Zindanmuruqqışlaq",
      "code": "AZ-QUS-584565",
      "countryId": 587116,
      "countryCode": "AZ",
      "stateCode": "AZ-QUS",
      "latitude": 41.48958,
      "longitude": 48.59793
    },
    {
      "id": 584554,
      "name": "Zuxul",
      "nativeName": "Zuxul",
      "code": "AZ-QUS-584554",
      "countryId": 587116,
      "countryCode": "AZ",
      "stateCode": "AZ-QUS",
      "latitude": 41.48904,
      "longitude": 48.07834
    },
    {
      "id": 824924,
      "name": "Zuxul",
      "nativeName": "Zuxul",
      "code": "AZ-QUS-824924",
      "countryId": 587116,
      "countryCode": "AZ",
      "stateCode": "AZ-QUS",
      "latitude": 41.71368,
      "longitude": 48.48425
    },
    {
      "id": 8623142,
      "name": "Çubuqlu",
      "nativeName": "Çubuqlu",
      "code": "AZ-QUS-8623142",
      "countryId": 587116,
      "countryCode": "AZ",
      "stateCode": "AZ-QUS",
      "latitude": 41.57277,
      "longitude": 48.56026
    },
    {
      "id": 586849,
      "name": "Çılğır",
      "nativeName": "Çılğır",
      "code": "AZ-QUS-586849",
      "countryId": 587116,
      "countryCode": "AZ",
      "stateCode": "AZ-QUS",
      "latitude": 41.36321,
      "longitude": 48.81434
    },
    {
      "id": 584762,
      "name": "Üzdənoba",
      "nativeName": "Uzdenoba",
      "code": "AZ-QUS-584762",
      "countryId": 587116,
      "countryCode": "AZ",
      "stateCode": "AZ-QUS",
      "latitude": 41.68765,
      "longitude": 48.51424
    },
    {
      "id": 585019,
      "name": "Şırvanovka",
      "nativeName": "Şırvanovka",
      "code": "AZ-QUS-585019",
      "countryId": 587116,
      "countryCode": "AZ",
      "stateCode": "AZ-QUS",
      "latitude": 41.69596,
      "longitude": 48.48882
    },
    {
      "id": 587252,
      "name": "Əniq",
      "nativeName": "Anykh",
      "code": "AZ-QUS-587252",
      "countryId": 587116,
      "countryCode": "AZ",
      "stateCode": "AZ-QUS",
      "latitude": 41.33294,
      "longitude": 48.21969
    },
    {
      "id": 586601,
      "name": "Əvəcük",
      "nativeName": "Evedzhyuk",
      "code": "AZ-QUS-586601",
      "countryId": 587116,
      "countryCode": "AZ",
      "stateCode": "AZ-QUS",
      "latitude": 41.4687,
      "longitude": 48.39156
    }
  ]
}