{
  "stateId": 586290,
  "stateCode": "AZ-QAX",
  "countryCode": "AZ",
  "cities": [
    {
      "id": 585227,
      "name": "Qax",
      "nativeName": "Qax",
      "code": "AZ-QAX-585227",
      "countryId": 587116,
      "countryCode": "AZ",
      "stateCode": "AZ-QAX",
      "latitude": 41.41826,
      "longitude": 46.92043
    },
    {
      "id": 587284,
      "name": "Almalı",
      "nativeName": "Almalı",
      "code": "AZ-QAX-587284",
      "countryId": 587116,
      "countryCode": "AZ",
      "stateCode": "AZ-QAX",
      "latitude": 41.33966,
      "longitude": 46.76399
    },
    {
      "id": 587263,
      "name": "Amanlı",
      "nativeName": "Amanlı",
      "code": "AZ-QAX-587263",
      "countryId": 587116,
      "countryCode": "AZ",
      "stateCode": "AZ-QAX",
      "latitude": 41.28944,
      "longitude": 46.84712
    },
    {
      "id": 587258,
      "name": "Amirdzhan",
      "nativeName": "Amirdzhan",
      "code": "AZ-QAX-587258",
      "countryId": 587116,
      "countryCode": "AZ",
      "stateCode": "AZ-QAX",
      "latitude": 41.42701,
      "longitude": 46.86676
    },
    {
      "id": 587212,
      "name": "Armudlu",
      "nativeName": "Armudlu",
      "code": "AZ-QAX-587212",
      "countryId": 587116,
      "countryCode": "AZ",
      "stateCode": "AZ-QAX",
      "latitude": 41.39688,
      "longitude": 47.04721
    },
    {
      "id": 824000,
      "name": "Ağyazı",
      "nativeName": "Ağyazı",
      "code": "AZ-QAX-824000",
      "countryId": 587116,
      "countryCode": "AZ",
      "stateCode": "AZ-QAX",
      "latitude": 41.24,
      "longitude": 46.74363
    },
    {
      "id": 587382,
      "name": "Ağçay",
      "nativeName": "Ağçay",
      "code": "AZ-QAX-587382",
      "countryId": 587116,
      "countryCode": "AZ",
      "stateCode": "AZ-QAX",
      "latitude": 41.45541,
      "longitude": 46.99407
    },
    {
      "id": 587196,
      "name": "Aşağı Malax",
      "nativeName": "Aşağı Malax",
      "code": "AZ-QAX-587196",
      "countryId": 587116,
      "countryCode": "AZ",
      "stateCode": "AZ-QAX",
      "latitude": 41.36999,
      "longitude": 46.98763
    },
    {
      "id": 799300,
      "name": "Babalo",
      "nativeName": "Babalo",
      "code": "AZ-QAX-799300",
      "countryId": 587116,
      "countryCode": "AZ",
      "stateCode": "AZ-QAX",
      "latitude": 41.39028,
      "longitude": 46.71028
    },
    {
      "id": 587027,
      "name": "Baydarlı",
      "nativeName": "Baydarlı",
      "code": "AZ-QAX-587027",
      "countryId": 587116,
      "countryCode": "AZ",
      "stateCode": "AZ-QAX",
      "latitude": 41.27807,
      "longitude": 46.86805
    },
    {
      "id": 8677464,
      "name": "Bağtala",
      "nativeName": "Bağtala",
      "code": "AZ-QAX-8677464",
      "countryId": 587116,
      "countryCode": "AZ",
      "stateCode": "AZ-QAX",
      "latitude": 41.35997,
      "longitude": 46.82411
    },
    {
      "id": 799243,
      "name": "Beyuk-Mumbarak",
      "nativeName": "Beyuk-Mumbarak",
      "code": "AZ-QAX-799243",
      "countryId": 587116,
      "countryCode": "AZ",
      "stateCode": "AZ-QAX",
      "latitude": 41.16917,
      "longitude": 46.705
    },
    {
      "id": 586997,
      "name": "Böyük Alatəmir",
      "nativeName": "Beyuk-Alateymur",
      "code": "AZ-QAX-586997",
      "countryId": 587116,
      "countryCode": "AZ",
      "stateCode": "AZ-QAX",
      "latitude": 41.41429,
      "longitude": 46.82458
    },
    {
      "id": 586759,
      "name": "Deymadagly",
      "nativeName": "Deymadagly",
      "code": "AZ-QAX-586759",
      "countryId": 587116,
      "countryCode": "AZ",
      "stateCode": "AZ-QAX",
      "latitude": 41.33127,
      "longitude": 46.77499
    },
    {
      "id": 586678,
      "name": "Dzhalair",
      "nativeName": "Dzhalair",
      "code": "AZ-QAX-586678",
      "countryId": 587116,
      "countryCode": "AZ",
      "stateCode": "AZ-QAX",
      "latitude": 41.31767,
      "longitude": 46.79789
    },
    {
      "id": 586575,
      "name": "Fıstıqlı",
      "nativeName": "Fıstıqlı",
      "code": "AZ-QAX-586575",
      "countryId": 587116,
      "countryCode": "AZ",
      "stateCode": "AZ-QAX",
      "latitude": 41.44213,
      "longitude": 46.80334
    },
    {
      "id": 586393,
      "name": "Güllük",
      "nativeName": "Güllük",
      "code": "AZ-QAX-586393",
      "countryId": 587116,
      "countryCode": "AZ",
      "stateCode": "AZ-QAX",
      "latitude": 41.50391,
      "longitude": 46.7589
    },
    {
      "id": 586015,
      "name": "Keşqutan",
      "nativeName": "Keşqutan",
      "code": "AZ-QAX-586015",
      "countryId": 587116,
      "countryCode": "AZ",
      "stateCode": "AZ-QAX",
      "latitude": 41.37438,
      "longitude": 46.91125
    },
    {
      "id": 585998,
      "name": "Khalatala",
      "nativeName": "Khalatala",
      "code": "AZ-QAX-585998",
      "countryId": 587116,
      "countryCode": "AZ",
      "stateCode": "AZ-QAX",
      "latitude": 41.34185,
      "longitude": 46.88299
    },
    {
      "id": 585907,
      "name": "Kiçik Alatəmir",
      "nativeName": "Kichik Alatemir",
      "code": "AZ-QAX-585907",
      "countryId": 587116,
      "countryCode": "AZ",
      "stateCode": "AZ-QAX",
      "latitude": 41.40472,
      "longitude": 46.82668
    },
    {
      "id": 585646,
      "name": "Lǝkit",
      "nativeName": "Lyakit",
      "code": "AZ-QAX-585646",
      "countryId": 587116,
      "countryCode": "AZ",
      "stateCode": "AZ-QAX",
      "latitude": 41.48392,
      "longitude": 46.84896
    },
    {
      "id": 585645,
      "name": "Ləkit Kötüklü",
      "nativeName": "Ləkit Kötüklü",
      "code": "AZ-QAX-585645",
      "countryId": 587116,
      "countryCode": "AZ",
      "stateCode": "AZ-QAX",
      "latitude": 41.51371,
      "longitude": 46.88235
    },
    {
      "id": 585644,
      "name": "Ləkit Malax",
      "nativeName": "Lekit Malakh",
      "code": "AZ-QAX-585644",
      "countryId": 587116,
      "countryCode": "AZ",
      "stateCode": "AZ-QAX",
      "latitude": 41.47318,
      "longitude": 46.86491
    },
    {
      "id": 585622,
      "name": "Lələli",
      "nativeName": "Lyalyalo",
      "code": "AZ-QAX-585622",
      "countryId": 587116,
      "countryCode": "AZ",
      "stateCode": "AZ-QAX",
      "latitude": 41.34984,
      "longitude": 46.67528
    },
    {
      "id": 585621,
      "name": "Lələpaşa",
      "nativeName": "Lyalyapasha",
      "code": "AZ-QAX-585621",
      "countryId": 587116,
      "countryCode": "AZ",
      "stateCode": "AZ-QAX",
      "latitude": 41.43516,
      "longitude": 46.72097
    },
    {
      "id": 585566,
      "name": "Marsan",
      "nativeName": "Marsan",
      "code": "AZ-QAX-585566",
      "countryId": 587116,
      "countryCode": "AZ",
      "stateCode": "AZ-QAX",
      "latitude": 41.4275,
      "longitude": 46.75827
    },
    {
      "id": 585531,
      "name": "Meşəbaş",
      "nativeName": "Meshabash",
      "code": "AZ-QAX-585531",
      "countryId": 587116,
      "countryCode": "AZ",
      "stateCode": "AZ-QAX",
      "latitude": 41.41101,
      "longitude": 46.87592
    },
    {
      "id": 585326,
      "name": "Oncallı",
      "nativeName": "Oncallı",
      "code": "AZ-QAX-585326",
      "countryId": 587116,
      "countryCode": "AZ",
      "stateCode": "AZ-QAX",
      "latitude": 41.27955,
      "longitude": 46.86002
    },
    {
      "id": 8669032,
      "name": "Qapıçay",
      "nativeName": "Qapıçay",
      "code": "AZ-QAX-8669032",
      "countryId": 587116,
      "countryCode": "AZ",
      "stateCode": "AZ-QAX",
      "latitude": 41.49131,
      "longitude": 46.80188
    },
    {
      "id": 586237,
      "name": "Qarabaldır",
      "nativeName": "Qarabaldır",
      "code": "AZ-QAX-586237",
      "countryId": 587116,
      "countryCode": "AZ",
      "stateCode": "AZ-QAX",
      "latitude": 41.40651,
      "longitude": 46.71582
    },
    {
      "id": 8630736,
      "name": "Qarabulaq",
      "nativeName": "Qarabulaq",
      "code": "AZ-QAX-8630736",
      "countryId": 587116,
      "countryCode": "AZ",
      "stateCode": "AZ-QAX",
      "latitude": 41.26259,
      "longitude": 46.72214
    },
    {
      "id": 8630737,
      "name": "Qaradolaq",
      "nativeName": "Qaradolaq",
      "code": "AZ-QAX-8630737",
      "countryId": 587116,
      "countryCode": "AZ",
      "stateCode": "AZ-QAX",
      "latitude": 41.24633,
      "longitude": 46.79019
    },
    {
      "id": 586160,
      "name": "Qarameşə",
      "nativeName": "Karamesha",
      "code": "AZ-QAX-586160",
      "countryId": 587116,
      "countryCode": "AZ",
      "stateCode": "AZ-QAX",
      "latitude": 41.42522,
      "longitude": 46.83014
    },
    {
      "id": 799307,
      "name": "Qaratala",
      "nativeName": "Qaratala",
      "code": "AZ-QAX-799307",
      "countryId": 587116,
      "countryCode": "AZ",
      "stateCode": "AZ-QAX",
      "latitude": 41.32576,
      "longitude": 46.87191
    },
    {
      "id": 586294,
      "name": "Qax İngiloy",
      "nativeName": "Qax İngiloy",
      "code": "AZ-QAX-586294",
      "countryId": 587116,
      "countryCode": "AZ",
      "stateCode": "AZ-QAX",
      "latitude": 41.42412,
      "longitude": 46.93859
    },
    {
      "id": 586295,
      "name": "Qaxbaş",
      "nativeName": "Qaxbaş",
      "code": "AZ-QAX-586295",
      "countryId": 587116,
      "countryCode": "AZ",
      "stateCode": "AZ-QAX",
      "latitude": 41.43254,
      "longitude": 46.9646
    },
    {
      "id": 586293,
      "name": "Qaxmuğal",
      "nativeName": "Qaxmuğal",
      "code": "AZ-QAX-586293",
      "countryId": 587116,
      "countryCode": "AZ",
      "stateCode": "AZ-QAX",
      "latitude": 41.41463,
      "longitude": 46.90948
    },
    {
      "id": 586095,
      "name": "Qaysarlı",
      "nativeName": "Qaysarlı",
      "code": "AZ-QAX-586095",
      "countryId": 587116,
      "countryCode": "AZ",
      "stateCode": "AZ-QAX",
      "latitude": 41.29767,
      "longitude": 46.84101
    },
    {
      "id": 586075,
      "name": "Qazmalar",
      "nativeName": "Qazmalar",
      "code": "AZ-QAX-586075",
      "countryId": 587116,
      "countryCode": "AZ",
      "stateCode": "AZ-QAX",
      "latitude": 41.30074,
      "longitude": 46.88237
    },
    {
      "id": 586077,
      "name": "Qazmalar",
      "nativeName": "Qazmalar",
      "code": "AZ-QAX-586077",
      "countryId": 587116,
      "countryCode": "AZ",
      "stateCode": "AZ-QAX",
      "latitude": 40.98333,
      "longitude": 47.65
    },
    {
      "id": 586117,
      "name": "Qaşqaçay",
      "nativeName": "Qaşqaçay",
      "code": "AZ-QAX-586117",
      "countryId": 587116,
      "countryCode": "AZ",
      "stateCode": "AZ-QAX",
      "latitude": 41.38701,
      "longitude": 47.03942
    },
    {
      "id": 586431,
      "name": "Qorağan",
      "nativeName": "Qorağan",
      "code": "AZ-QAX-586431",
      "countryId": 587116,
      "countryCode": "AZ",
      "stateCode": "AZ-QAX",
      "latitude": 41.38148,
      "longitude": 46.73123
    },
    {
      "id": 585773,
      "name": "Qum",
      "nativeName": "Qum",
      "code": "AZ-QAX-585773",
      "countryId": 587116,
      "countryCode": "AZ",
      "stateCode": "AZ-QAX",
      "latitude": 41.45856,
      "longitude": 46.91273
    },
    {
      "id": 585717,
      "name": "Qımırlı",
      "nativeName": "Qımırlı",
      "code": "AZ-QAX-585717",
      "countryId": 587116,
      "countryCode": "AZ",
      "stateCode": "AZ-QAX",
      "latitude": 41.33903,
      "longitude": 46.89814
    },
    {
      "id": 585716,
      "name": "Qındırqa",
      "nativeName": "Qındırqa",
      "code": "AZ-QAX-585716",
      "countryId": 587116,
      "countryCode": "AZ",
      "stateCode": "AZ-QAX",
      "latitude": 41.37736,
      "longitude": 46.65074
    },
    {
      "id": 585715,
      "name": "Qıpçaq",
      "nativeName": "Qıpçaq",
      "code": "AZ-QAX-585715",
      "countryId": 587116,
      "countryCode": "AZ",
      "stateCode": "AZ-QAX",
      "latitude": 41.3025,
      "longitude": 46.82806
    },
    {
      "id": 585134,
      "name": "Sarıbaş",
      "nativeName": "Sarıbaş",
      "code": "AZ-QAX-585134",
      "countryId": 587116,
      "countryCode": "AZ",
      "stateCode": "AZ-QAX",
      "latitude": 41.52292,
      "longitude": 47.07434
    },
    {
      "id": 584914,
      "name": "Suskənd",
      "nativeName": "Syusgen",
      "code": "AZ-QAX-584914",
      "countryId": 587116,
      "countryCode": "AZ",
      "stateCode": "AZ-QAX",
      "latitude": 41.44377,
      "longitude": 46.87505
    },
    {
      "id": 584878,
      "name": "Tanqıt",
      "nativeName": "Tanqıt",
      "code": "AZ-QAX-584878",
      "countryId": 587116,
      "countryCode": "AZ",
      "stateCode": "AZ-QAX",
      "latitude": 41.28258,
      "longitude": 46.89345
    },
    {
      "id": 584868,
      "name": "Tasmalı",
      "nativeName": "Tasmalı",
      "code": "AZ-QAX-584868",
      "countryId": 587116,
      "countryCode": "AZ",
      "stateCode": "AZ-QAX",
      "latitude": 41.43149,
      "longitude": 46.70265
    },
    {
      "id": 823986,
      "name": "Turaclı",
      "nativeName": "Turaclı",
      "code": "AZ-QAX-823986",
      "countryId": 587116,
      "countryCode": "AZ",
      "stateCode": "AZ-QAX",
      "latitude": 41.41525,
      "longitude": 46.77421
    },
    {
      "id": 584755,
      "name": "Uzuntala",
      "nativeName": "Uzuntala",
      "code": "AZ-QAX-584755",
      "countryId": 587116,
      "countryCode": "AZ",
      "stateCode": "AZ-QAX",
      "latitude": 41.33029,
      "longitude": 46.84904
    },
    {
      "id": 799245,
      "name": "Uzyumlyukend",
      "nativeName": "Uzyumlyukend",
      "code": "AZ-QAX-799245",
      "countryId": 587116,
      "countryCode": "AZ",
      "stateCode": "AZ-QAX",
      "latitude": 41.19276,
      "longitude": 46.69672
    },
    {
      "id": 584579,
      "name": "Zarna",
      "nativeName": "Zarna",
      "code": "AZ-QAX-584579",
      "countryId": 587116,
      "countryCode": "AZ",
      "stateCode": "AZ-QAX",
      "latitude": 41.51292,
      "longitude": 46.81864
    },
    {
      "id": 584607,
      "name": "Zeyam",
      "nativeName": "Zeyam",
      "code": "AZ-QAX-584607",
      "countryId": 587116,
      "countryCode": "AZ",
      "stateCode": "AZ-QAX",
      "latitude": 41.41212,
      "longitude": 46.68261
    },
    {
      "id": 586845,
      "name": "Çinarlı",
      "nativeName": "Çinarlı",
      "code": "AZ-QAX-586845",
      "countryId": 587116,
      "countryCode": "AZ",
      "stateCode": "AZ-QAX",
      "latitude": 41.46965,
      "longitude": 46.91582
    },
    {
      "id": 586826,
      "name": "Çudulu",
      "nativeName": "Çudulu",
      "code": "AZ-QAX-586826",
      "countryId": 587116,
      "countryCode": "AZ",
      "stateCode": "AZ-QAX",
      "latitude": 41.4477,
      "longitude": 46.78008
    },
    {
      "id": 586325,
      "name": "İbaxlı",
      "nativeName": "İbaxlı",
      "code": "AZ-QAX-586325",
      "countryId": 587116,
      "countryCode": "AZ",
      "stateCode": "AZ-QAX",
      "latitude": 41.36067,
      "longitude": 46.85808
    },
    {
      "id": 586355,
      "name": "İlisu",
      "nativeName": "İlisu",
      "code": "AZ-QAX-586355",
      "countryId": 587116,
      "countryCode": "AZ",
      "stateCode": "AZ-QAX",
      "latitude": 41.46785,
      "longitude": 47.06513
    },
    {
      "id": 586330,
      "name": "İngiloy Kötüklü",
      "nativeName": "İngiloy Kötüklü",
      "code": "AZ-QAX-586330",
      "countryId": 587116,
      "countryCode": "AZ",
      "stateCode": "AZ-QAX",
      "latitude": 41.33599,
      "longitude": 46.8619
    },
    {
      "id": 585000,
      "name": "Şotavar",
      "nativeName": "Şotavar",
      "code": "AZ-QAX-585000",
      "countryId": 587116,
      "countryCode": "AZ",
      "stateCode": "AZ-QAX",
      "latitude": 41.39061,
      "longitude": 46.71697
    },
    {
      "id": 584970,
      "name": "Şıxlar",
      "nativeName": "Şıxlar",
      "code": "AZ-QAX-584970",
      "countryId": 587116,
      "countryCode": "AZ",
      "stateCode": "AZ-QAX",
      "latitude": 41.35576,
      "longitude": 46.77981
    },
    {
      "id": 587311,
      "name": "Əlibǝyli",
      "nativeName": "Alibeyli",
      "code": "AZ-QAX-587311",
      "countryId": 587116,
      "countryCode": "AZ",
      "stateCode": "AZ-QAX",
      "latitude": 41.38141,
      "longitude": 46.82558
    },
    {
      "id": 586616,
      "name": "Əmbərçay",
      "nativeName": "Emberchay",
      "code": "AZ-QAX-586616",
      "countryId": 587116,
      "countryCode": "AZ",
      "stateCode": "AZ-QAX",
      "latitude": 41.37967,
      "longitude": 46.93684
    }
  ]
}