{
  "stateId": 586725,
  "stateCode": "AZ-SBN",
  "countryCode": "AZ",
  "cities": [
    {
      "id": 586763,
      "name": "Dǝvǝçi",
      "nativeName": "Divichibazar",
      "code": "AZ-SBN-586763",
      "countryId": 587116,
      "countryCode": "AZ",
      "stateCode": "AZ-SBN",
      "latitude": 41.20117,
      "longitude": 48.98712
    },
    {
      "id": 800381,
      "name": "Adakar",
      "nativeName": "Adakar",
      "code": "AZ-SBN-800381",
      "countryId": 587116,
      "countryCode": "AZ",
      "stateCode": "AZ-SBN",
      "latitude": 41.33306,
      "longitude": 49.07278
    },
    {
      "id": 800386,
      "name": "Aga-Mirza-Obasi",
      "nativeName": "Aga-Mirza-Obasi",
      "code": "AZ-SBN-800386",
      "countryId": 587116,
      "countryCode": "AZ",
      "stateCode": "AZ-SBN",
      "latitude": 41.34833,
      "longitude": 48.98472
    },
    {
      "id": 587326,
      "name": "Alayer",
      "nativeName": "Alayer",
      "code": "AZ-SBN-587326",
      "countryId": 587116,
      "countryCode": "AZ",
      "stateCode": "AZ-SBN",
      "latitude": 41.26247,
      "longitude": 49.0462
    },
    {
      "id": 587231,
      "name": "Arablyar",
      "nativeName": "Arablyar",
      "code": "AZ-SBN-587231",
      "countryId": 587116,
      "countryCode": "AZ",
      "stateCode": "AZ-SBN",
      "latitude": 41.27444,
      "longitude": 48.85197
    },
    {
      "id": 587199,
      "name": "Ashaga Dzhalgan",
      "nativeName": "Ashaga Dzhalgan",
      "code": "AZ-SBN-587199",
      "countryId": 587116,
      "countryCode": "AZ",
      "stateCode": "AZ-SBN",
      "latitude": 41.1,
      "longitude": 48.95
    },
    {
      "id": 587186,
      "name": "Ashagy Emirkhanly",
      "nativeName": "Ashagy Emirkhanly",
      "code": "AZ-SBN-587186",
      "countryId": 587116,
      "countryCode": "AZ",
      "stateCode": "AZ-SBN",
      "latitude": 41.13257,
      "longitude": 48.94407
    },
    {
      "id": 587125,
      "name": "Aygünlü",
      "nativeName": "Aygünlü",
      "code": "AZ-SBN-587125",
      "countryId": 587116,
      "countryCode": "AZ",
      "stateCode": "AZ-SBN",
      "latitude": 41.29831,
      "longitude": 48.85622
    },
    {
      "id": 828077,
      "name": "Ağbaş",
      "nativeName": "Ağbaş",
      "code": "AZ-SBN-828077",
      "countryId": 587116,
      "countryCode": "AZ",
      "stateCode": "AZ-SBN",
      "latitude": 41.11234,
      "longitude": 49.10101
    },
    {
      "id": 587077,
      "name": "Baladzha Shakhnazarli",
      "nativeName": "Baladzha Shakhnazarli",
      "code": "AZ-SBN-587077",
      "countryId": 587116,
      "countryCode": "AZ",
      "stateCode": "AZ-SBN",
      "latitude": 41.28083,
      "longitude": 48.90361
    },
    {
      "id": 587046,
      "name": "Baş Əmirxanlı",
      "nativeName": "Bash Emirkhanly",
      "code": "AZ-SBN-587046",
      "countryId": 587116,
      "countryCode": "AZ",
      "stateCode": "AZ-SBN",
      "latitude": 41.12817,
      "longitude": 48.92584
    },
    {
      "id": 828149,
      "name": "Belisli",
      "nativeName": "Belisli",
      "code": "AZ-SBN-828149",
      "countryId": 587116,
      "countryCode": "AZ",
      "stateCode": "AZ-SBN",
      "latitude": 41.14236,
      "longitude": 48.93097
    },
    {
      "id": 586958,
      "name": "Borbor",
      "nativeName": "Borbor",
      "code": "AZ-SBN-586958",
      "countryId": 587116,
      "countryCode": "AZ",
      "stateCode": "AZ-SBN",
      "latitude": 41.31677,
      "longitude": 48.90111
    },
    {
      "id": 585318,
      "name": "Ceyranlı",
      "nativeName": "Ceyranlı",
      "code": "AZ-SBN-585318",
      "countryId": 587116,
      "countryCode": "AZ",
      "stateCode": "AZ-SBN",
      "latitude": 41.14974,
      "longitude": 48.9286
    },
    {
      "id": 586807,
      "name": "Dağ Bilici",
      "nativeName": "Dağ Bilici",
      "code": "AZ-SBN-586807",
      "countryId": 587116,
      "countryCode": "AZ",
      "stateCode": "AZ-SBN",
      "latitude": 41.2128,
      "longitude": 48.85447
    },
    {
      "id": 10630493,
      "name": "Daşlıyataq",
      "nativeName": "Daşlıyataq",
      "code": "AZ-SBN-10630493",
      "countryId": 587116,
      "countryCode": "AZ",
      "stateCode": "AZ-SBN",
      "latitude": 41.33477,
      "longitude": 48.83995
    },
    {
      "id": 586700,
      "name": "Düz Bilici",
      "nativeName": "Düz Bilici",
      "code": "AZ-SBN-586700",
      "countryId": 587116,
      "countryCode": "AZ",
      "stateCode": "AZ-SBN",
      "latitude": 41.15935,
      "longitude": 48.84568
    },
    {
      "id": 586385,
      "name": "Dǝhnǝ",
      "nativeName": "Gyumyurdekhnya",
      "code": "AZ-SBN-586385",
      "countryId": 587116,
      "countryCode": "AZ",
      "stateCode": "AZ-SBN",
      "latitude": 41.04742,
      "longitude": 48.7245
    },
    {
      "id": 800391,
      "name": "Gadzhi-Karachay",
      "nativeName": "Gadzhi-Karachay",
      "code": "AZ-SBN-800391",
      "countryId": 587116,
      "countryCode": "AZ",
      "stateCode": "AZ-SBN",
      "latitude": 41.36528,
      "longitude": 49.04889
    },
    {
      "id": 586565,
      "name": "Gadzhibatir",
      "nativeName": "Gadzhibatir",
      "code": "AZ-SBN-586565",
      "countryId": 587116,
      "countryCode": "AZ",
      "stateCode": "AZ-SBN",
      "latitude": 41.36667,
      "longitude": 49.01667
    },
    {
      "id": 586400,
      "name": "Gyulamli",
      "nativeName": "Gyulamli",
      "code": "AZ-SBN-586400",
      "countryId": 587116,
      "countryCode": "AZ",
      "stateCode": "AZ-SBN",
      "latitude": 41.20611,
      "longitude": 49.02028
    },
    {
      "id": 8621822,
      "name": "Gyunashli",
      "nativeName": "Gyunashli",
      "code": "AZ-SBN-8621822",
      "countryId": 587116,
      "countryCode": "AZ",
      "stateCode": "AZ-SBN",
      "latitude": 41.32036,
      "longitude": 48.81807
    },
    {
      "id": 586402,
      "name": "Güləh",
      "nativeName": "Gyunesh",
      "code": "AZ-SBN-586402",
      "countryId": 587116,
      "countryCode": "AZ",
      "stateCode": "AZ-SBN",
      "latitude": 41.07157,
      "longitude": 48.94774
    },
    {
      "id": 586549,
      "name": "Hacı Qaraqaşlı",
      "nativeName": "Hacı Qaraqaşlı",
      "code": "AZ-SBN-586549",
      "countryId": 587116,
      "countryCode": "AZ",
      "stateCode": "AZ-SBN",
      "latitude": 41.34178,
      "longitude": 49.06827
    },
    {
      "id": 586552,
      "name": "Hacıisgəndərli",
      "nativeName": "Gadzhyiskenderli",
      "code": "AZ-SBN-586552",
      "countryId": 587116,
      "countryCode": "AZ",
      "stateCode": "AZ-SBN",
      "latitude": 41.07571,
      "longitude": 48.90234
    },
    {
      "id": 586312,
      "name": "Izmara",
      "nativeName": "Izmara",
      "code": "AZ-SBN-586312",
      "countryId": 587116,
      "countryCode": "AZ",
      "stateCode": "AZ-SBN",
      "latitude": 41.16667,
      "longitude": 48.85
    },
    {
      "id": 586297,
      "name": "Kakhal",
      "nativeName": "Kakhal",
      "code": "AZ-SBN-586297",
      "countryId": 587116,
      "countryCode": "AZ",
      "stateCode": "AZ-SBN",
      "latitude": 41.3,
      "longitude": 48.91667
    },
    {
      "id": 586242,
      "name": "Karabagly",
      "nativeName": "Üzümlu",
      "code": "AZ-SBN-586242",
      "countryId": 587116,
      "countryCode": "AZ",
      "stateCode": "AZ-SBN",
      "latitude": 41.14359,
      "longitude": 48.9712
    },
    {
      "id": 586512,
      "name": "Karblyuk",
      "nativeName": "Karblyuk",
      "code": "AZ-SBN-586512",
      "countryId": 587116,
      "countryCode": "AZ",
      "stateCode": "AZ-SBN",
      "latitude": 40.95046,
      "longitude": 48.78708
    },
    {
      "id": 585993,
      "name": "Khalfalar",
      "nativeName": "Khalfalar",
      "code": "AZ-SBN-585993",
      "countryId": 587116,
      "countryCode": "AZ",
      "stateCode": "AZ-SBN",
      "latitude": 41.17173,
      "longitude": 48.89599
    },
    {
      "id": 585987,
      "name": "Khalilli",
      "nativeName": "Khalilli",
      "code": "AZ-SBN-585987",
      "countryId": 587116,
      "countryCode": "AZ",
      "stateCode": "AZ-SBN",
      "latitude": 41.30074,
      "longitude": 48.98362
    },
    {
      "id": 585981,
      "name": "Khaltandekhnya",
      "nativeName": "Khaltandekhnya",
      "code": "AZ-SBN-585981",
      "countryId": 587116,
      "countryCode": "AZ",
      "stateCode": "AZ-SBN",
      "latitude": 41.03,
      "longitude": 48.78778
    },
    {
      "id": 585961,
      "name": "Kharko",
      "nativeName": "Kharko",
      "code": "AZ-SBN-585961",
      "countryId": 587116,
      "countryCode": "AZ",
      "stateCode": "AZ-SBN",
      "latitude": 40.95,
      "longitude": 48.76667
    },
    {
      "id": 585893,
      "name": "Kilvar",
      "nativeName": "Kilvar",
      "code": "AZ-SBN-585893",
      "countryId": 587116,
      "countryCode": "AZ",
      "stateCode": "AZ-SBN",
      "latitude": 41.2052,
      "longitude": 48.76087
    },
    {
      "id": 9261124,
      "name": "Kil’var",
      "nativeName": "Kil’var",
      "code": "AZ-SBN-9261124",
      "countryId": 587116,
      "countryCode": "AZ",
      "stateCode": "AZ-SBN",
      "latitude": 41.2052,
      "longitude": 48.76087
    },
    {
      "id": 585737,
      "name": "Kuyubulak",
      "nativeName": "Kuyubulak",
      "code": "AZ-SBN-585737",
      "countryId": 587116,
      "countryCode": "AZ",
      "stateCode": "AZ-SBN",
      "latitude": 41.13333,
      "longitude": 49.01667
    },
    {
      "id": 585661,
      "name": "Kyzylly",
      "nativeName": "Kyzylly",
      "code": "AZ-SBN-585661",
      "countryId": 587116,
      "countryCode": "AZ",
      "stateCode": "AZ-SBN",
      "latitude": 41.11194,
      "longitude": 49.01167
    },
    {
      "id": 585696,
      "name": "Kyünçal",
      "nativeName": "Kyünçal",
      "code": "AZ-SBN-585696",
      "countryId": 587116,
      "countryCode": "AZ",
      "stateCode": "AZ-SBN",
      "latitude": 41.08236,
      "longitude": 48.82369
    },
    {
      "id": 585650,
      "name": "Ledzhedy",
      "nativeName": "Ledzhedy",
      "code": "AZ-SBN-585650",
      "countryId": 587116,
      "countryCode": "AZ",
      "stateCode": "AZ-SBN",
      "latitude": 41.2268,
      "longitude": 48.86114
    },
    {
      "id": 9887863,
      "name": "Liman",
      "nativeName": "Liman",
      "code": "AZ-SBN-9887863",
      "countryId": 587116,
      "countryCode": "AZ",
      "stateCode": "AZ-SBN",
      "latitude": 41.26443,
      "longitude": 48.99258
    },
    {
      "id": 585587,
      "name": "Mamedoba",
      "nativeName": "Mamedoba",
      "code": "AZ-SBN-585587",
      "countryId": 587116,
      "countryCode": "AZ",
      "stateCode": "AZ-SBN",
      "latitude": 41.36667,
      "longitude": 49.03333
    },
    {
      "id": 585519,
      "name": "Meytablı",
      "nativeName": "Meytablı",
      "code": "AZ-SBN-585519",
      "countryId": 587116,
      "countryCode": "AZ",
      "stateCode": "AZ-SBN",
      "latitude": 41.32919,
      "longitude": 48.93006
    },
    {
      "id": 585480,
      "name": "Mollakamallı",
      "nativeName": "Mollakamallı",
      "code": "AZ-SBN-585480",
      "countryId": 587116,
      "countryCode": "AZ",
      "stateCode": "AZ-SBN",
      "latitude": 41.24696,
      "longitude": 48.94055
    },
    {
      "id": 8422851,
      "name": "Mumlu",
      "nativeName": "Mumlu",
      "code": "AZ-SBN-8422851",
      "countryId": 587116,
      "countryCode": "AZ",
      "stateCode": "AZ-SBN",
      "latitude": 41.21076,
      "longitude": 48.8335
    },
    {
      "id": 585429,
      "name": "Mustafaxanlı",
      "nativeName": "Mustafaxanlı",
      "code": "AZ-SBN-585429",
      "countryId": 587116,
      "countryCode": "AZ",
      "stateCode": "AZ-SBN",
      "latitude": 40.97489,
      "longitude": 48.89528
    },
    {
      "id": 585534,
      "name": "Məliklər",
      "nativeName": "Meliklyar",
      "code": "AZ-SBN-585534",
      "countryId": 587116,
      "countryCode": "AZ",
      "stateCode": "AZ-SBN",
      "latitude": 41.27785,
      "longitude": 48.92459
    },
    {
      "id": 585355,
      "name": "Nohurlar",
      "nativeName": "Nohurlar",
      "code": "AZ-SBN-585355",
      "countryId": 587116,
      "countryCode": "AZ",
      "stateCode": "AZ-SBN",
      "latitude": 41.10356,
      "longitude": 48.77189
    },
    {
      "id": 585295,
      "name": "Padar",
      "nativeName": "Padar",
      "code": "AZ-SBN-585295",
      "countryId": 587116,
      "countryCode": "AZ",
      "stateCode": "AZ-SBN",
      "latitude": 41.31634,
      "longitude": 48.89013
    },
    {
      "id": 585266,
      "name": "Pirəbədil",
      "nativeName": "Pirəbədil",
      "code": "AZ-SBN-585266",
      "countryId": 587116,
      "countryCode": "AZ",
      "stateCode": "AZ-SBN",
      "latitude": 41.20812,
      "longitude": 48.80125
    },
    {
      "id": 585268,
      "name": "Pirəmsən",
      "nativeName": "Piramsin",
      "code": "AZ-SBN-585268",
      "countryId": 587116,
      "countryCode": "AZ",
      "stateCode": "AZ-SBN",
      "latitude": 41.26712,
      "longitude": 48.85993
    },
    {
      "id": 586277,
      "name": "Qalagah",
      "nativeName": "Qalagah",
      "code": "AZ-SBN-586277",
      "countryId": 587116,
      "countryCode": "AZ",
      "stateCode": "AZ-SBN",
      "latitude": 41.21824,
      "longitude": 48.86696
    },
    {
      "id": 586225,
      "name": "Qaraçaylı",
      "nativeName": "Qaraçaylı",
      "code": "AZ-SBN-586225",
      "countryId": 587116,
      "countryCode": "AZ",
      "stateCode": "AZ-SBN",
      "latitude": 41.36541,
      "longitude": 48.91875
    },
    {
      "id": 824952,
      "name": "Qorqan",
      "nativeName": "Qorqan",
      "code": "AZ-SBN-824952",
      "countryId": 587116,
      "countryCode": "AZ",
      "stateCode": "AZ-SBN",
      "latitude": 41.17013,
      "longitude": 48.80777
    },
    {
      "id": 586081,
      "name": "Qozbabalı",
      "nativeName": "Qozbabalı",
      "code": "AZ-SBN-586081",
      "countryId": 587116,
      "countryCode": "AZ",
      "stateCode": "AZ-SBN",
      "latitude": 41.11915,
      "longitude": 48.93963
    },
    {
      "id": 585664,
      "name": "Qızılqazma",
      "nativeName": "Qızılqazma",
      "code": "AZ-SBN-585664",
      "countryId": 587116,
      "countryCode": "AZ",
      "stateCode": "AZ-SBN",
      "latitude": 40.96326,
      "longitude": 48.82994
    },
    {
      "id": 585213,
      "name": "Rǝhimli",
      "nativeName": "Ragimli",
      "code": "AZ-SBN-585213",
      "countryId": 587116,
      "countryCode": "AZ",
      "stateCode": "AZ-SBN",
      "latitude": 41.31409,
      "longitude": 48.91317
    },
    {
      "id": 585136,
      "name": "Sarvan",
      "nativeName": "Sarvan",
      "code": "AZ-SBN-585136",
      "countryId": 587116,
      "countryCode": "AZ",
      "stateCode": "AZ-SBN",
      "latitude": 41.28362,
      "longitude": 49.01774
    },
    {
      "id": 584975,
      "name": "Shykhly",
      "nativeName": "Shykhly",
      "code": "AZ-SBN-584975",
      "countryId": 587116,
      "countryCode": "AZ",
      "stateCode": "AZ-SBN",
      "latitude": 41.11667,
      "longitude": 48.95
    },
    {
      "id": 584958,
      "name": "Sincan Boyat",
      "nativeName": "Sincan Boyat",
      "code": "AZ-SBN-584958",
      "countryId": 587116,
      "countryCode": "AZ",
      "stateCode": "AZ-SBN",
      "latitude": 41.21782,
      "longitude": 48.96081
    },
    {
      "id": 584926,
      "name": "Sumağava",
      "nativeName": "Sumağava",
      "code": "AZ-SBN-584926",
      "countryId": 587116,
      "countryCode": "AZ",
      "stateCode": "AZ-SBN",
      "latitude": 41.20155,
      "longitude": 48.81461
    },
    {
      "id": 584925,
      "name": "Sumağavaqazma",
      "nativeName": "Sumağavaqazma",
      "code": "AZ-SBN-584925",
      "countryId": 587116,
      "countryCode": "AZ",
      "stateCode": "AZ-SBN",
      "latitude": 41.18889,
      "longitude": 48.81819
    },
    {
      "id": 584917,
      "name": "Surra",
      "nativeName": "Surra",
      "code": "AZ-SBN-584917",
      "countryId": 587116,
      "countryCode": "AZ",
      "stateCode": "AZ-SBN",
      "latitude": 41.18132,
      "longitude": 48.96516
    },
    {
      "id": 584909,
      "name": "Suvazly",
      "nativeName": "Suvazly",
      "code": "AZ-SBN-584909",
      "countryId": 587116,
      "countryCode": "AZ",
      "stateCode": "AZ-SBN",
      "latitude": 41.25944,
      "longitude": 48.89802
    },
    {
      "id": 585100,
      "name": "Söhbətli",
      "nativeName": "Sokhbetli",
      "code": "AZ-SBN-585100",
      "countryId": 587116,
      "countryCode": "AZ",
      "stateCode": "AZ-SBN",
      "latitude": 41.36213,
      "longitude": 48.85766
    },
    {
      "id": 584844,
      "name": "Taka",
      "nativeName": "Taka",
      "code": "AZ-SBN-584844",
      "countryId": 587116,
      "countryCode": "AZ",
      "stateCode": "AZ-SBN",
      "latitude": 41.0793,
      "longitude": 48.88614
    },
    {
      "id": 8422852,
      "name": "Taxtalar",
      "nativeName": "Taxtalar",
      "code": "AZ-SBN-8422852",
      "countryId": 587116,
      "countryCode": "AZ",
      "stateCode": "AZ-SBN",
      "latitude": 41.19648,
      "longitude": 48.93632
    },
    {
      "id": 584851,
      "name": "Tazakend",
      "nativeName": "Tazakend",
      "code": "AZ-SBN-584851",
      "countryId": 587116,
      "countryCode": "AZ",
      "stateCode": "AZ-SBN",
      "latitude": 41.3475,
      "longitude": 48.8879
    },
    {
      "id": 9887867,
      "name": "Təzəkənd",
      "nativeName": "Təzəkənd",
      "code": "AZ-SBN-9887867",
      "countryId": 587116,
      "countryCode": "AZ",
      "stateCode": "AZ-SBN",
      "latitude": 41.23763,
      "longitude": 48.937
    },
    {
      "id": 584787,
      "name": "Udullu",
      "nativeName": "Udullu",
      "code": "AZ-SBN-584787",
      "countryId": 587116,
      "countryCode": "AZ",
      "stateCode": "AZ-SBN",
      "latitude": 41.34687,
      "longitude": 48.9328
    },
    {
      "id": 584782,
      "name": "Uqah",
      "nativeName": "Uqah",
      "code": "AZ-SBN-584782",
      "countryId": 587116,
      "countryCode": "AZ",
      "stateCode": "AZ-SBN",
      "latitude": 41.08956,
      "longitude": 48.86073
    },
    {
      "id": 584761,
      "name": "Uzunboyad",
      "nativeName": "Uzunboyad",
      "code": "AZ-SBN-584761",
      "countryId": 587116,
      "countryCode": "AZ",
      "stateCode": "AZ-SBN",
      "latitude": 41.28977,
      "longitude": 48.91564
    },
    {
      "id": 585914,
      "name": "Xırdaoymaq",
      "nativeName": "Xırdaoymaq",
      "code": "AZ-SBN-585914",
      "countryId": 587116,
      "countryCode": "AZ",
      "stateCode": "AZ-SBN",
      "latitude": 41.3687,
      "longitude": 48.88713
    },
    {
      "id": 584688,
      "name": "Yelekesan",
      "nativeName": "Yelekesan",
      "code": "AZ-SBN-584688",
      "countryId": 587116,
      "countryCode": "AZ",
      "stateCode": "AZ-SBN",
      "latitude": 41.1661,
      "longitude": 48.88929
    },
    {
      "id": 584638,
      "name": "Yukhary Dzhalgan",
      "nativeName": "Yukhary Dzhalgan",
      "code": "AZ-SBN-584638",
      "countryId": 587116,
      "countryCode": "AZ",
      "stateCode": "AZ-SBN",
      "latitude": 41.08333,
      "longitude": 48.93333
    },
    {
      "id": 584589,
      "name": "Zarat",
      "nativeName": "Zarat",
      "code": "AZ-SBN-584589",
      "countryId": 587116,
      "countryCode": "AZ",
      "stateCode": "AZ-SBN",
      "latitude": 40.97243,
      "longitude": 48.76753
    },
    {
      "id": 584609,
      "name": "Zağlı",
      "nativeName": "Zağlı",
      "code": "AZ-SBN-584609",
      "countryId": 587116,
      "countryCode": "AZ",
      "stateCode": "AZ-SBN",
      "latitude": 41.15,
      "longitude": 48.83333
    },
    {
      "id": 584569,
      "name": "Zeyva",
      "nativeName": "Zeyva",
      "code": "AZ-SBN-584569",
      "countryId": 587116,
      "countryCode": "AZ",
      "stateCode": "AZ-SBN",
      "latitude": 41.19792,
      "longitude": 48.74091
    },
    {
      "id": 584557,
      "name": "Zöhrabkǝnd",
      "nativeName": "Zokhrabkend",
      "code": "AZ-SBN-584557",
      "countryId": 587116,
      "countryCode": "AZ",
      "stateCode": "AZ-SBN",
      "latitude": 40.97628,
      "longitude": 48.85307
    },
    {
      "id": 584556,
      "name": "Zöhramlı",
      "nativeName": "Zöhramlı",
      "code": "AZ-SBN-584556",
      "countryId": 587116,
      "countryCode": "AZ",
      "stateCode": "AZ-SBN",
      "latitude": 41.21665,
      "longitude": 48.81012
    },
    {
      "id": 800392,
      "name": "Çay Qaraqaşlı",
      "nativeName": "Çay Qaraqaşlı",
      "code": "AZ-SBN-800392",
      "countryId": 587116,
      "countryCode": "AZ",
      "stateCode": "AZ-SBN",
      "latitude": 41.38015,
      "longitude": 49.03465
    },
    {
      "id": 586846,
      "name": "Çinarlar",
      "nativeName": "Çinarlar",
      "code": "AZ-SBN-586846",
      "countryId": 587116,
      "countryCode": "AZ",
      "stateCode": "AZ-SBN",
      "latitude": 41.13129,
      "longitude": 48.80219
    },
    {
      "id": 586893,
      "name": "Çirax",
      "nativeName": "Çarah",
      "code": "AZ-SBN-586893",
      "countryId": 587116,
      "countryCode": "AZ",
      "stateCode": "AZ-SBN",
      "latitude": 41.07957,
      "longitude": 48.91159
    },
    {
      "id": 586822,
      "name": "Çuxurǝzǝmi",
      "nativeName": "Chukhur-Zami",
      "code": "AZ-SBN-586822",
      "countryId": 587116,
      "countryCode": "AZ",
      "stateCode": "AZ-SBN",
      "latitude": 40.96714,
      "longitude": 48.80707
    },
    {
      "id": 586859,
      "name": "Çöl Quşçu",
      "nativeName": "Çöl Quşçu",
      "code": "AZ-SBN-586859",
      "countryId": 587116,
      "countryCode": "AZ",
      "stateCode": "AZ-SBN",
      "latitude": 41.33525,
      "longitude": 49.00653
    },
    {
      "id": 586982,
      "name": "Şahnəzərli",
      "nativeName": "Shakh-Nazarly",
      "code": "AZ-SBN-586982",
      "countryId": 587116,
      "countryCode": "AZ",
      "stateCode": "AZ-SBN",
      "latitude": 41.28573,
      "longitude": 48.87835
    }
  ]
}