{
  "stateId": 828304,
  "stateCode": "AZ-SIY",
  "countryCode": "AZ",
  "cities": [
    {
      "id": 584954,
      "name": "Siyǝzǝn",
      "nativeName": "Kyzyl-Burun",
      "code": "AZ-SIY-584954",
      "countryId": 587116,
      "countryCode": "AZ",
      "stateCode": "AZ-SIY",
      "latitude": 41.07811,
      "longitude": 49.11564
    },
    {
      "id": 587393,
      "name": "Agasibeyli",
      "nativeName": "Agasibeyli",
      "code": "AZ-SIY-587393",
      "countryId": 587116,
      "countryCode": "AZ",
      "stateCode": "AZ-SIY",
      "latitude": 41.13333,
      "longitude": 49.11667
    },
    {
      "id": 587297,
      "name": "Ali-Mammet-Arab",
      "nativeName": "Ali-Mammet-Arab",
      "code": "AZ-SIY-587297",
      "countryId": 587116,
      "countryCode": "AZ",
      "stateCode": "AZ-SIY",
      "latitude": 41.07306,
      "longitude": 49.14889
    },
    {
      "id": 587300,
      "name": "Alykhanly",
      "nativeName": "Alykhanly",
      "code": "AZ-SIY-587300",
      "countryId": 587116,
      "countryCode": "AZ",
      "stateCode": "AZ-SIY",
      "latitude": 41.14079,
      "longitude": 49.04334
    },
    {
      "id": 587079,
      "name": "Balaca Həmyə",
      "nativeName": "Ali-Mammet-Arab",
      "code": "AZ-SIY-587079",
      "countryId": 587116,
      "countryCode": "AZ",
      "stateCode": "AZ-SIY",
      "latitude": 41.07524,
      "longitude": 49.15245
    },
    {
      "id": 824022,
      "name": "Beşdam",
      "nativeName": "Beşdam",
      "code": "AZ-SIY-824022",
      "countryId": 587116,
      "countryCode": "AZ",
      "stateCode": "AZ-SIY",
      "latitude": 40.99553,
      "longitude": 49.19838
    },
    {
      "id": 586992,
      "name": "Böyük Hǝmyǝ",
      "nativeName": "Böyük Həmyə",
      "code": "AZ-SIY-586992",
      "countryId": 587116,
      "countryCode": "AZ",
      "stateCode": "AZ-SIY",
      "latitude": 41.10655,
      "longitude": 49.14444
    },
    {
      "id": 586900,
      "name": "Chandakhar",
      "nativeName": "Chandakhar",
      "code": "AZ-SIY-586900",
      "countryId": 587116,
      "countryCode": "AZ",
      "stateCode": "AZ-SIY",
      "latitude": 40.9856,
      "longitude": 49.23729
    },
    {
      "id": 586800,
      "name": "Dağ Quşçu",
      "nativeName": "Dağ Quşçu",
      "code": "AZ-SIY-586800",
      "countryId": 587116,
      "countryCode": "AZ",
      "stateCode": "AZ-SIY",
      "latitude": 41.00493,
      "longitude": 48.97386
    },
    {
      "id": 586740,
      "name": "Dǝrǝ Zarat",
      "nativeName": "Dere-Zorat",
      "code": "AZ-SIY-586740",
      "countryId": 587116,
      "countryCode": "AZ",
      "stateCode": "AZ-SIY",
      "latitude": 40.99045,
      "longitude": 49.11314
    },
    {
      "id": 586604,
      "name": "Erzikyush",
      "nativeName": "Erzikyush",
      "code": "AZ-SIY-586604",
      "countryId": 587116,
      "countryCode": "AZ",
      "stateCode": "AZ-SIY",
      "latitude": 40.94364,
      "longitude": 48.91117
    },
    {
      "id": 586594,
      "name": "Eynibulaq",
      "nativeName": "Eynibulaq",
      "code": "AZ-SIY-586594",
      "countryId": 587116,
      "countryCode": "AZ",
      "stateCode": "AZ-SIY",
      "latitude": 41.10375,
      "longitude": 49.04049
    },
    {
      "id": 587198,
      "name": "Fındığan",
      "nativeName": "Fındığan",
      "code": "AZ-SIY-587198",
      "countryId": 587116,
      "countryCode": "AZ",
      "stateCode": "AZ-SIY",
      "latitude": 40.95918,
      "longitude": 49.03747
    },
    {
      "id": 586447,
      "name": "Gilgilçay",
      "nativeName": "Gilgilçay",
      "code": "AZ-SIY-586447",
      "countryId": 587116,
      "countryCode": "AZ",
      "stateCode": "AZ-SIY",
      "latitude": 41.13932,
      "longitude": 49.09038
    },
    {
      "id": 9887934,
      "name": "Hacışəkər",
      "nativeName": "Hacışəkər",
      "code": "AZ-SIY-9887934",
      "countryId": 587116,
      "countryCode": "AZ",
      "stateCode": "AZ-SIY",
      "latitude": 40.9408,
      "longitude": 48.99689
    },
    {
      "id": 586181,
      "name": "Karakh",
      "nativeName": "Karakh",
      "code": "AZ-SIY-586181",
      "countryId": 587116,
      "countryCode": "AZ",
      "stateCode": "AZ-SIY",
      "latitude": 41.11238,
      "longitude": 48.9773
    },
    {
      "id": 586151,
      "name": "Karasiyazen",
      "nativeName": "Karasiyazen",
      "code": "AZ-SIY-586151",
      "countryId": 587116,
      "countryCode": "AZ",
      "stateCode": "AZ-SIY",
      "latitude": 41.00507,
      "longitude": 49.17769
    },
    {
      "id": 586056,
      "name": "Kogna-Kushchi",
      "nativeName": "Kogna-Kushchi",
      "code": "AZ-SIY-586056",
      "countryId": 587116,
      "countryCode": "AZ",
      "stateCode": "AZ-SIY",
      "latitude": 40.96749,
      "longitude": 48.91319
    },
    {
      "id": 585827,
      "name": "Kolanı",
      "nativeName": "Kolanı",
      "code": "AZ-SIY-585827",
      "countryId": 587116,
      "countryCode": "AZ",
      "stateCode": "AZ-SIY",
      "latitude": 41.17919,
      "longitude": 49.12151
    },
    {
      "id": 585768,
      "name": "Kunshady",
      "nativeName": "Kunshady",
      "code": "AZ-SIY-585768",
      "countryId": 587116,
      "countryCode": "AZ",
      "stateCode": "AZ-SIY",
      "latitude": 40.94182,
      "longitude": 48.94652
    },
    {
      "id": 585415,
      "name": "Müşkülqazma",
      "nativeName": "Müşkülqazma",
      "code": "AZ-SIY-585415",
      "countryId": 587116,
      "countryCode": "AZ",
      "stateCode": "AZ-SIY",
      "latitude": 41.06406,
      "longitude": 49.00852
    },
    {
      "id": 824024,
      "name": "Mǝşrif",
      "nativeName": "Meshrif",
      "code": "AZ-SIY-824024",
      "countryId": 587116,
      "countryCode": "AZ",
      "stateCode": "AZ-SIY",
      "latitude": 41.09765,
      "longitude": 48.95776
    },
    {
      "id": 585387,
      "name": "Nardaran",
      "nativeName": "Nardaran",
      "code": "AZ-SIY-585387",
      "countryId": 587116,
      "countryCode": "AZ",
      "stateCode": "AZ-SIY",
      "latitude": 41.01301,
      "longitude": 49.14451
    },
    {
      "id": 585319,
      "name": "Orta Çalğan",
      "nativeName": "Orta Çalğan",
      "code": "AZ-SIY-585319",
      "countryId": 587116,
      "countryCode": "AZ",
      "stateCode": "AZ-SIY",
      "latitude": 41.08299,
      "longitude": 48.96976
    },
    {
      "id": 8609718,
      "name": "Qalaaltı",
      "nativeName": "Qalaaltı",
      "code": "AZ-SIY-8609718",
      "countryId": 587116,
      "countryCode": "AZ",
      "stateCode": "AZ-SIY",
      "latitude": 41.09074,
      "longitude": 48.94588
    },
    {
      "id": 586272,
      "name": "Qalaşıxı",
      "nativeName": "Qalaşıxı",
      "code": "AZ-SIY-586272",
      "countryId": 587116,
      "countryCode": "AZ",
      "stateCode": "AZ-SIY",
      "latitude": 40.96681,
      "longitude": 49.23473
    },
    {
      "id": 586190,
      "name": "Qaragöz",
      "nativeName": "Qaragöz",
      "code": "AZ-SIY-586190",
      "countryId": 587116,
      "countryCode": "AZ",
      "stateCode": "AZ-SIY",
      "latitude": 40.94803,
      "longitude": 48.98394
    },
    {
      "id": 585798,
      "name": "Qozağacı",
      "nativeName": "Qozağacı",
      "code": "AZ-SIY-585798",
      "countryId": 587116,
      "countryCode": "AZ",
      "stateCode": "AZ-SIY",
      "latitude": 41.09995,
      "longitude": 48.98602
    },
    {
      "id": 800022,
      "name": "Salapy",
      "nativeName": "Salapy",
      "code": "AZ-SIY-800022",
      "countryId": 587116,
      "countryCode": "AZ",
      "stateCode": "AZ-SIY",
      "latitude": 41.16778,
      "longitude": 49.08861
    },
    {
      "id": 585172,
      "name": "Sağolcan",
      "nativeName": "Sağlocan",
      "code": "AZ-SIY-585172",
      "countryId": 587116,
      "countryCode": "AZ",
      "stateCode": "AZ-SIY",
      "latitude": 41.04311,
      "longitude": 49.02669
    },
    {
      "id": 585192,
      "name": "Sǝdan",
      "nativeName": "Siadan",
      "code": "AZ-SIY-585192",
      "countryId": 587116,
      "countryCode": "AZ",
      "stateCode": "AZ-SIY",
      "latitude": 41.06516,
      "longitude": 49.03915
    },
    {
      "id": 584890,
      "name": "Takyaliakty",
      "nativeName": "Takyaliakty",
      "code": "AZ-SIY-584890",
      "countryId": 587116,
      "countryCode": "AZ",
      "stateCode": "AZ-SIY",
      "latitude": 40.90417,
      "longitude": 49.24611
    },
    {
      "id": 584899,
      "name": "Tuğay",
      "nativeName": "Tuğay",
      "code": "AZ-SIY-584899",
      "countryId": 587116,
      "countryCode": "AZ",
      "stateCode": "AZ-SIY",
      "latitude": 41.15358,
      "longitude": 49.13174
    },
    {
      "id": 584705,
      "name": "Yanykhalayaz",
      "nativeName": "Yanykhalayaz",
      "code": "AZ-SIY-584705",
      "countryId": 587116,
      "countryCode": "AZ",
      "stateCode": "AZ-SIY",
      "latitude": 40.95627,
      "longitude": 48.98376
    },
    {
      "id": 824025,
      "name": "Yenikend",
      "nativeName": "Yenikend",
      "code": "AZ-SIY-824025",
      "countryId": 587116,
      "countryCode": "AZ",
      "stateCode": "AZ-SIY",
      "latitude": 41.16425,
      "longitude": 49.08387
    },
    {
      "id": 584645,
      "name": "Yukhary Alyaz",
      "nativeName": "Yukhary Alyaz",
      "code": "AZ-SIY-584645",
      "countryId": 587116,
      "countryCode": "AZ",
      "stateCode": "AZ-SIY",
      "latitude": 40.963,
      "longitude": 48.96249
    },
    {
      "id": 584590,
      "name": "Zarat",
      "nativeName": "Zarat",
      "code": "AZ-SIY-584590",
      "countryId": 587116,
      "countryCode": "AZ",
      "stateCode": "AZ-SIY",
      "latitude": 40.94905,
      "longitude": 49.28205
    },
    {
      "id": 586887,
      "name": "Çarxana",
      "nativeName": "Çarxana",
      "code": "AZ-SIY-586887",
      "countryId": 587116,
      "countryCode": "AZ",
      "stateCode": "AZ-SIY",
      "latitude": 41.04383,
      "longitude": 49.06198
    },
    {
      "id": 587289,
      "name": "Allahyarlı",
      "nativeName": "Allahyarlı",
      "code": "AZ-SIY-587289",
      "countryId": 587116,
      "countryCode": "AZ",
      "stateCode": "AZ-SIY",
      "latitude": 40.95163,
      "longitude": 48.97805
    },
    {
      "id": 585974,
      "name": "Khandek",
      "nativeName": "Khandek",
      "code": "AZ-SIY-585974",
      "countryId": 587116,
      "countryCode": "AZ",
      "stateCode": "AZ-SIY",
      "latitude": 40.97626,
      "longitude": 48.99661
    }
  ]
}