{
  "stateId": 409423,
  "stateCode": "AZ-XVD",
  "countryCode": "AZ",
  "cities": [
    {
      "id": 146969,
      "name": "Novyy Karanlug",
      "nativeName": "Novyy Karanlug",
      "code": "AZ-XVD-146969",
      "countryId": 587116,
      "countryCode": "AZ",
      "stateCode": "AZ-XVD",
      "latitude": 39.79496,
      "longitude": 47.1117
    },
    {
      "id": 388654,
      "name": "Amaras",
      "nativeName": "Amaras",
      "code": "AZ-XVD-388654",
      "countryId": 587116,
      "countryCode": "AZ",
      "stateCode": "AZ-XVD",
      "latitude": 39.68376,
      "longitude": 47.07216
    },
    {
      "id": 148520,
      "name": "Arakül",
      "nativeName": "Arakül",
      "code": "AZ-XVD-148520",
      "countryId": 587116,
      "countryCode": "AZ",
      "stateCode": "AZ-XVD",
      "latitude": 39.43909,
      "longitude": 46.99628
    },
    {
      "id": 147720,
      "name": "Arpadüzü",
      "nativeName": "Arpadüzü",
      "code": "AZ-XVD-147720",
      "countryId": 587116,
      "countryCode": "AZ",
      "stateCode": "AZ-XVD",
      "latitude": 39.74912,
      "longitude": 46.95159
    },
    {
      "id": 148502,
      "name": "Arpagədik",
      "nativeName": "Arpagyadyuk",
      "code": "AZ-XVD-148502",
      "countryId": 587116,
      "countryCode": "AZ",
      "stateCode": "AZ-XVD",
      "latitude": 39.55824,
      "longitude": 46.70495
    },
    {
      "id": 148495,
      "name": "Arış",
      "nativeName": "Arış",
      "code": "AZ-XVD-148495",
      "countryId": 587116,
      "countryCode": "AZ",
      "stateCode": "AZ-XVD",
      "latitude": 39.53538,
      "longitude": 47.11024
    },
    {
      "id": 148441,
      "name": "Ataqut",
      "nativeName": "Ataqut",
      "code": "AZ-XVD-148441",
      "countryId": 587116,
      "countryCode": "AZ",
      "stateCode": "AZ-XVD",
      "latitude": 39.57385,
      "longitude": 46.96392
    },
    {
      "id": 148437,
      "name": "Avdur",
      "nativeName": "Avdur",
      "code": "AZ-XVD-148437",
      "countryId": 587116,
      "countryCode": "AZ",
      "stateCode": "AZ-XVD",
      "latitude": 39.84234,
      "longitude": 46.94185
    },
    {
      "id": 393997,
      "name": "Axullu",
      "nativeName": "Axullu",
      "code": "AZ-XVD-393997",
      "countryId": 587116,
      "countryCode": "AZ",
      "stateCode": "AZ-XVD",
      "latitude": 39.56361,
      "longitude": 47.07836
    },
    {
      "id": 148422,
      "name": "Azıx",
      "nativeName": "Azıx",
      "code": "AZ-XVD-148422",
      "countryId": 587116,
      "countryCode": "AZ",
      "stateCode": "AZ-XVD",
      "latitude": 39.61924,
      "longitude": 46.9781
    },
    {
      "id": 147445,
      "name": "Ağbulaq",
      "nativeName": "Ağbulaq",
      "code": "AZ-XVD-147445",
      "countryId": 587116,
      "countryCode": "AZ",
      "stateCode": "AZ-XVD",
      "latitude": 39.74666,
      "longitude": 46.9139
    },
    {
      "id": 148622,
      "name": "Ağbulaq",
      "nativeName": "Ağbulaq",
      "code": "AZ-XVD-148622",
      "countryId": 587116,
      "countryCode": "AZ",
      "stateCode": "AZ-XVD",
      "latitude": 39.55752,
      "longitude": 47.08312
    },
    {
      "id": 394946,
      "name": "Ağcakənd",
      "nativeName": "Agdzhakend",
      "code": "AZ-XVD-394946",
      "countryId": 587116,
      "countryCode": "AZ",
      "stateCode": "AZ-XVD",
      "latitude": 39.50354,
      "longitude": 46.88211
    },
    {
      "id": 148606,
      "name": "Ağdam",
      "nativeName": "Ağdam",
      "code": "AZ-XVD-148606",
      "countryId": 587116,
      "countryCode": "AZ",
      "stateCode": "AZ-XVD",
      "latitude": 39.55672,
      "longitude": 46.95181
    },
    {
      "id": 147113,
      "name": "Ağkənd",
      "nativeName": "Spitakshen",
      "code": "AZ-XVD-147113",
      "countryId": 587116,
      "countryCode": "AZ",
      "stateCode": "AZ-XVD",
      "latitude": 39.81851,
      "longitude": 47.02019
    },
    {
      "id": 148338,
      "name": "Bilbilyak",
      "nativeName": "Bilbilyak",
      "code": "AZ-XVD-148338",
      "countryId": 587116,
      "countryCode": "AZ",
      "stateCode": "AZ-XVD",
      "latitude": 39.69444,
      "longitude": 46.94639
    },
    {
      "id": 148188,
      "name": "Binə",
      "nativeName": "Tumi",
      "code": "AZ-XVD-148188",
      "countryId": 587116,
      "countryCode": "AZ",
      "stateCode": "AZ-XVD",
      "latitude": 39.58787,
      "longitude": 46.90117
    },
    {
      "id": 148377,
      "name": "Binədərəsi",
      "nativeName": "Banazur",
      "code": "AZ-XVD-148377",
      "countryId": 587116,
      "countryCode": "AZ",
      "stateCode": "AZ-XVD",
      "latitude": 39.45738,
      "longitude": 47.01161
    },
    {
      "id": 148310,
      "name": "Bulutan",
      "nativeName": "Bulutan",
      "code": "AZ-XVD-148310",
      "countryId": 587116,
      "countryCode": "AZ",
      "stateCode": "AZ-XVD",
      "latitude": 39.53802,
      "longitude": 47.08841
    },
    {
      "id": 147518,
      "name": "Böyük Tağlar",
      "nativeName": "Böyük Tağlar",
      "code": "AZ-XVD-147518",
      "countryId": 587116,
      "countryCode": "AZ",
      "stateCode": "AZ-XVD",
      "latitude": 39.62131,
      "longitude": 46.95552
    },
    {
      "id": 148309,
      "name": "Bünyadlı",
      "nativeName": "Bünyadlı",
      "code": "AZ-XVD-148309",
      "countryId": 587116,
      "countryCode": "AZ",
      "stateCode": "AZ-XVD",
      "latitude": 39.41342,
      "longitude": 46.98136
    },
    {
      "id": 148135,
      "name": "Cilən",
      "nativeName": "Dzhilan",
      "code": "AZ-XVD-148135",
      "countryId": 587116,
      "countryCode": "AZ",
      "stateCode": "AZ-XVD",
      "latitude": 39.43796,
      "longitude": 46.96995
    },
    {
      "id": 148264,
      "name": "Ciraquz",
      "nativeName": "Ciraquz",
      "code": "AZ-XVD-148264",
      "countryId": 587116,
      "countryCode": "AZ",
      "stateCode": "AZ-XVD",
      "latitude": 39.57999,
      "longitude": 47.01381
    },
    {
      "id": 395738,
      "name": "Cütçü",
      "nativeName": "Cütçü",
      "code": "AZ-XVD-395738",
      "countryId": 587116,
      "countryCode": "AZ",
      "stateCode": "AZ-XVD",
      "latitude": 39.69361,
      "longitude": 47.02639
    },
    {
      "id": 147027,
      "name": "Dağdöşü",
      "nativeName": "Tank",
      "code": "AZ-XVD-147027",
      "countryId": 587116,
      "countryCode": "AZ",
      "stateCode": "AZ-XVD",
      "latitude": 39.50321,
      "longitude": 47.03817
    },
    {
      "id": 148190,
      "name": "Dolanlar",
      "nativeName": "Dolanlar",
      "code": "AZ-XVD-148190",
      "countryId": 587116,
      "countryCode": "AZ",
      "stateCode": "AZ-XVD",
      "latitude": 39.44623,
      "longitude": 46.82866
    },
    {
      "id": 148178,
      "name": "Düdükçü",
      "nativeName": "Dudukchi",
      "code": "AZ-XVD-148178",
      "countryId": 587116,
      "countryCode": "AZ",
      "stateCode": "AZ-XVD",
      "latitude": 39.57678,
      "longitude": 47.0546
    },
    {
      "id": 148129,
      "name": "Edilli",
      "nativeName": "Edilli",
      "code": "AZ-XVD-148129",
      "countryId": 587116,
      "countryCode": "AZ",
      "stateCode": "AZ-XVD",
      "latitude": 39.56223,
      "longitude": 47.06801
    },
    {
      "id": 148075,
      "name": "Gavahın",
      "nativeName": "Gavahın",
      "code": "AZ-XVD-148075",
      "countryId": 587116,
      "countryCode": "AZ",
      "stateCode": "AZ-XVD",
      "latitude": 39.76094,
      "longitude": 46.91349
    },
    {
      "id": 148009,
      "name": "Güneyxırman",
      "nativeName": "Güneyxırman",
      "code": "AZ-XVD-148009",
      "countryId": 587116,
      "countryCode": "AZ",
      "stateCode": "AZ-XVD",
      "latitude": 39.74629,
      "longitude": 47.03796
    },
    {
      "id": 148010,
      "name": "Güneyçartar",
      "nativeName": "Güneyçartar",
      "code": "AZ-XVD-148010",
      "countryId": 587116,
      "countryCode": "AZ",
      "stateCode": "AZ-XVD",
      "latitude": 39.75324,
      "longitude": 47.01837
    },
    {
      "id": 11980212,
      "name": "Günəşli",
      "nativeName": "Günəşli",
      "code": "AZ-XVD-11980212",
      "countryId": 587116,
      "countryCode": "AZ",
      "stateCode": "AZ-XVD",
      "latitude": 39.49278,
      "longitude": 47.07199
    },
    {
      "id": 148105,
      "name": "Hadrut",
      "nativeName": "Hadrut",
      "code": "AZ-XVD-148105",
      "countryId": 587116,
      "countryCode": "AZ",
      "stateCode": "AZ-XVD",
      "latitude": 39.52003,
      "longitude": 47.0319
    },
    {
      "id": 8660888,
      "name": "Harar",
      "nativeName": "Harar",
      "code": "AZ-XVD-8660888",
      "countryId": 587116,
      "countryCode": "AZ",
      "stateCode": "AZ-XVD",
      "latitude": 39.41929,
      "longitude": 46.97711
    },
    {
      "id": 148455,
      "name": "Heşan",
      "nativeName": "Heşan",
      "code": "AZ-XVD-148455",
      "countryId": 587116,
      "countryCode": "AZ",
      "stateCode": "AZ-XVD",
      "latitude": 39.83511,
      "longitude": 46.99627
    },
    {
      "id": 147906,
      "name": "Karakend",
      "nativeName": "Karakend",
      "code": "AZ-XVD-147906",
      "countryId": 587116,
      "countryCode": "AZ",
      "stateCode": "AZ-XVD",
      "latitude": 39.84446,
      "longitude": 47.02696
    },
    {
      "id": 8623460,
      "name": "Kazh",
      "nativeName": "Kazh",
      "code": "AZ-XVD-8623460",
      "countryId": 587116,
      "countryCode": "AZ",
      "stateCode": "AZ-XVD",
      "latitude": 39.62315,
      "longitude": 46.90828
    },
    {
      "id": 148042,
      "name": "Kiş",
      "nativeName": "Kiş",
      "code": "AZ-XVD-148042",
      "countryId": 587116,
      "countryCode": "AZ",
      "stateCode": "AZ-XVD",
      "latitude": 39.77466,
      "longitude": 47.02473
    },
    {
      "id": 388704,
      "name": "Kokva-Kolel",
      "nativeName": "Kokva-Kolel",
      "code": "AZ-XVD-388704",
      "countryId": 587116,
      "countryCode": "AZ",
      "stateCode": "AZ-XVD",
      "latitude": 39.55194,
      "longitude": 46.93389
    },
    {
      "id": 393991,
      "name": "Kuropatkino",
      "nativeName": "Kuropatkino",
      "code": "AZ-XVD-393991",
      "countryId": 587116,
      "countryCode": "AZ",
      "stateCode": "AZ-XVD",
      "latitude": 39.82997,
      "longitude": 47.1619
    },
    {
      "id": 147782,
      "name": "Köhnə Tağlar",
      "nativeName": "Khintaglar",
      "code": "AZ-XVD-147782",
      "countryId": 587116,
      "countryCode": "AZ",
      "stateCode": "AZ-XVD",
      "latitude": 39.51132,
      "longitude": 46.82196
    },
    {
      "id": 147846,
      "name": "Kəndxurd",
      "nativeName": "Kendkhurd",
      "code": "AZ-XVD-147846",
      "countryId": 587116,
      "countryCode": "AZ",
      "stateCode": "AZ-XVD",
      "latitude": 39.77559,
      "longitude": 46.96651
    },
    {
      "id": 147590,
      "name": "Machkalashen",
      "nativeName": "Machkalashen",
      "code": "AZ-XVD-147590",
      "countryId": 587116,
      "countryCode": "AZ",
      "stateCode": "AZ-XVD",
      "latitude": 39.69727,
      "longitude": 47.02425
    },
    {
      "id": 147542,
      "name": "Mavas",
      "nativeName": "Mavas",
      "code": "AZ-XVD-147542",
      "countryId": 587116,
      "countryCode": "AZ",
      "stateCode": "AZ-XVD",
      "latitude": 39.71321,
      "longitude": 46.93563
    },
    {
      "id": 147496,
      "name": "Mirikənd",
      "nativeName": "Mirushen",
      "code": "AZ-XVD-147496",
      "countryId": 587116,
      "countryCode": "AZ",
      "stateCode": "AZ-XVD",
      "latitude": 39.83997,
      "longitude": 46.92528
    },
    {
      "id": 147462,
      "name": "Muğanlı",
      "nativeName": "Muğanlı",
      "code": "AZ-XVD-147462",
      "countryId": 587116,
      "countryCode": "AZ",
      "stateCode": "AZ-XVD",
      "latitude": 39.82506,
      "longitude": 47.14008
    },
    {
      "id": 147444,
      "name": "Mülküdərə",
      "nativeName": "Mioulkoudara",
      "code": "AZ-XVD-147444",
      "countryId": 587116,
      "countryCode": "AZ",
      "stateCode": "AZ-XVD",
      "latitude": 39.47567,
      "longitude": 46.93242
    },
    {
      "id": 147449,
      "name": "Müşkapat",
      "nativeName": "Müşkapat",
      "code": "AZ-XVD-147449",
      "countryId": 587116,
      "countryCode": "AZ",
      "stateCode": "AZ-XVD",
      "latitude": 39.76764,
      "longitude": 46.9835
    },
    {
      "id": 147529,
      "name": "Məlikcanlı",
      "nativeName": "Melikcanlı",
      "code": "AZ-XVD-147529",
      "countryId": 587116,
      "countryCode": "AZ",
      "stateCode": "AZ-XVD",
      "latitude": 39.52931,
      "longitude": 47.08308
    },
    {
      "id": 147569,
      "name": "Məmməddərə",
      "nativeName": "Mamedazur",
      "code": "AZ-XVD-147569",
      "countryId": 587116,
      "countryCode": "AZ",
      "stateCode": "AZ-XVD",
      "latitude": 39.57705,
      "longitude": 47.00308
    },
    {
      "id": 8655931,
      "name": "Nerk’in T’aghavard",
      "nativeName": "Nerk’in T’aghavard",
      "code": "AZ-XVD-8655931",
      "countryId": 587116,
      "countryCode": "AZ",
      "stateCode": "AZ-XVD",
      "latitude": 39.66975,
      "longitude": 46.93244
    },
    {
      "id": 147415,
      "name": "Ningi",
      "nativeName": "Ningi",
      "code": "AZ-XVD-147415",
      "countryId": 587116,
      "countryCode": "AZ",
      "stateCode": "AZ-XVD",
      "latitude": 39.7954,
      "longitude": 46.88669
    },
    {
      "id": 147414,
      "name": "Ningidzhan",
      "nativeName": "Ningidzhan",
      "code": "AZ-XVD-147414",
      "countryId": 587116,
      "countryCode": "AZ",
      "stateCode": "AZ-XVD",
      "latitude": 39.78333,
      "longitude": 46.95
    },
    {
      "id": 147407,
      "name": "Noraşen",
      "nativeName": "Noraşen",
      "code": "AZ-XVD-147407",
      "countryId": 587116,
      "countryCode": "AZ",
      "stateCode": "AZ-XVD",
      "latitude": 39.4924,
      "longitude": 47.07778
    },
    {
      "id": 147405,
      "name": "Norshen",
      "nativeName": "Norshen",
      "code": "AZ-XVD-147405",
      "countryId": 587116,
      "countryCode": "AZ",
      "stateCode": "AZ-XVD",
      "latitude": 39.84801,
      "longitude": 46.98237
    },
    {
      "id": 147345,
      "name": "Paravatumb",
      "nativeName": "Paravatumb",
      "code": "AZ-XVD-147345",
      "countryId": 587116,
      "countryCode": "AZ",
      "stateCode": "AZ-XVD",
      "latitude": 39.81266,
      "longitude": 46.9438
    },
    {
      "id": 8655930,
      "name": "Peretes",
      "nativeName": "Peretes",
      "code": "AZ-XVD-8655930",
      "countryId": 587116,
      "countryCode": "AZ",
      "stateCode": "AZ-XVD",
      "latitude": 39.73957,
      "longitude": 46.94754
    },
    {
      "id": 147928,
      "name": "Qaradağlı",
      "nativeName": "Qaradağlı",
      "code": "AZ-XVD-147928",
      "countryId": 587116,
      "countryCode": "AZ",
      "stateCode": "AZ-XVD",
      "latitude": 39.79317,
      "longitude": 46.98103
    },
    {
      "id": 11804331,
      "name": "Qarasaqqal",
      "nativeName": "Qarasaqqal",
      "code": "AZ-XVD-11804331",
      "countryId": 587116,
      "countryCode": "AZ",
      "stateCode": "AZ-XVD",
      "latitude": 39.59089,
      "longitude": 46.76423
    },
    {
      "id": 147889,
      "name": "Qarazəmi",
      "nativeName": "Qarahonç",
      "code": "AZ-XVD-147889",
      "countryId": 587116,
      "countryCode": "AZ",
      "stateCode": "AZ-XVD",
      "latitude": 39.73216,
      "longitude": 46.99501
    },
    {
      "id": 148059,
      "name": "Qarqar",
      "nativeName": "Qarqar",
      "code": "AZ-XVD-148059",
      "countryId": 587116,
      "countryCode": "AZ",
      "stateCode": "AZ-XVD",
      "latitude": 39.70446,
      "longitude": 46.9624
    },
    {
      "id": 147959,
      "name": "Qağartsi",
      "nativeName": "Qağartsi",
      "code": "AZ-XVD-147959",
      "countryId": 587116,
      "countryCode": "AZ",
      "stateCode": "AZ-XVD",
      "latitude": 39.81663,
      "longitude": 46.94005
    },
    {
      "id": 412751,
      "name": "Qoçbəyli",
      "nativeName": "Kochbek",
      "code": "AZ-XVD-412751",
      "countryId": 587116,
      "countryCode": "AZ",
      "stateCode": "AZ-XVD",
      "latitude": 39.50592,
      "longitude": 47.06489
    },
    {
      "id": 148004,
      "name": "Quzeyxırman",
      "nativeName": "Quzeyxırman",
      "code": "AZ-XVD-148004",
      "countryId": 587116,
      "countryCode": "AZ",
      "stateCode": "AZ-XVD",
      "latitude": 39.73888,
      "longitude": 47.03299
    },
    {
      "id": 8432820,
      "name": "Quzeyçartar",
      "nativeName": "Quzeyçartar",
      "code": "AZ-XVD-8432820",
      "countryId": 587116,
      "countryCode": "AZ",
      "stateCode": "AZ-XVD",
      "latitude": 39.74766,
      "longitude": 47.01159
    },
    {
      "id": 147839,
      "name": "Quzumkənd",
      "nativeName": "Kert",
      "code": "AZ-XVD-147839",
      "countryId": 587116,
      "countryCode": "AZ",
      "stateCode": "AZ-XVD",
      "latitude": 39.7384,
      "longitude": 46.99465
    },
    {
      "id": 147695,
      "name": "Qırmızı Bazar",
      "nativeName": "Qırmızı Bazar",
      "code": "AZ-XVD-147695",
      "countryId": 587116,
      "countryCode": "AZ",
      "stateCode": "AZ-XVD",
      "latitude": 39.67669,
      "longitude": 46.95123
    },
    {
      "id": 147848,
      "name": "Qırmızıqaya",
      "nativeName": "Qırmızıqaya",
      "code": "AZ-XVD-147848",
      "countryId": 587116,
      "countryCode": "AZ",
      "stateCode": "AZ-XVD",
      "latitude": 39.54071,
      "longitude": 47.02277
    },
    {
      "id": 147277,
      "name": "Salaketin",
      "nativeName": "Salaketin",
      "code": "AZ-XVD-147277",
      "countryId": 587116,
      "countryCode": "AZ",
      "stateCode": "AZ-XVD",
      "latitude": 39.62895,
      "longitude": 47.00061
    },
    {
      "id": 147189,
      "name": "Shekher",
      "nativeName": "Shekher",
      "code": "AZ-XVD-147189",
      "countryId": 587116,
      "countryCode": "AZ",
      "stateCode": "AZ-XVD",
      "latitude": 39.65113,
      "longitude": 46.98117
    },
    {
      "id": 147040,
      "name": "Sor",
      "nativeName": "Sor",
      "code": "AZ-XVD-147040",
      "countryId": 587116,
      "countryCode": "AZ",
      "stateCode": "AZ-XVD",
      "latitude": 39.49218,
      "longitude": 47.02257
    },
    {
      "id": 147119,
      "name": "Sos",
      "nativeName": "Sos",
      "code": "AZ-XVD-147119",
      "countryId": 587116,
      "countryCode": "AZ",
      "stateCode": "AZ-XVD",
      "latitude": 39.70869,
      "longitude": 47.00562
    },
    {
      "id": 412748,
      "name": "Spitakshen",
      "nativeName": "Spitakshen",
      "code": "AZ-XVD-412748",
      "countryId": 587116,
      "countryCode": "AZ",
      "stateCode": "AZ-XVD",
      "latitude": 39.53976,
      "longitude": 46.71125
    },
    {
      "id": 388673,
      "name": "Susanlıq",
      "nativeName": "Susanlıq",
      "code": "AZ-XVD-388673",
      "countryId": 587116,
      "countryCode": "AZ",
      "stateCode": "AZ-XVD",
      "latitude": 39.57251,
      "longitude": 46.93126
    },
    {
      "id": 147094,
      "name": "Tağaser",
      "nativeName": "Tağaser",
      "code": "AZ-XVD-147094",
      "countryId": 587116,
      "countryCode": "AZ",
      "stateCode": "AZ-XVD",
      "latitude": 39.52001,
      "longitude": 47.01
    },
    {
      "id": 147093,
      "name": "Tağaverd",
      "nativeName": "Tağaverd",
      "code": "AZ-XVD-147093",
      "countryId": 587116,
      "countryCode": "AZ",
      "stateCode": "AZ-XVD",
      "latitude": 39.66831,
      "longitude": 46.90189
    },
    {
      "id": 147041,
      "name": "Tsakuri",
      "nativeName": "Tsakuri",
      "code": "AZ-XVD-147041",
      "countryId": 587116,
      "countryCode": "AZ",
      "stateCode": "AZ-XVD",
      "latitude": 39.57252,
      "longitude": 46.98688
    },
    {
      "id": 147039,
      "name": "Tuğ",
      "nativeName": "Tuğ",
      "code": "AZ-XVD-147039",
      "countryId": 587116,
      "countryCode": "AZ",
      "stateCode": "AZ-XVD",
      "latitude": 39.58673,
      "longitude": 46.96625
    },
    {
      "id": 147001,
      "name": "Vank",
      "nativeName": "Vank",
      "code": "AZ-XVD-147001",
      "countryId": 587116,
      "countryCode": "AZ",
      "stateCode": "AZ-XVD",
      "latitude": 39.51148,
      "longitude": 47.02365
    },
    {
      "id": 147778,
      "name": "Xanoba",
      "nativeName": "Xanoba",
      "code": "AZ-XVD-147778",
      "countryId": 587116,
      "countryCode": "AZ",
      "stateCode": "AZ-XVD",
      "latitude": 39.76169,
      "longitude": 47.04281
    },
    {
      "id": 393984,
      "name": "Xanoba",
      "nativeName": "Xanoba",
      "code": "AZ-XVD-393984",
      "countryId": 587116,
      "countryCode": "AZ",
      "stateCode": "AZ-XVD",
      "latitude": 39.7575,
      "longitude": 47.03139
    },
    {
      "id": 147758,
      "name": "Xırmancıq",
      "nativeName": "Xırmancıq",
      "code": "AZ-XVD-147758",
      "countryId": 587116,
      "countryCode": "AZ",
      "stateCode": "AZ-XVD",
      "latitude": 39.5449,
      "longitude": 47.09312
    },
    {
      "id": 147786,
      "name": "Xərxan",
      "nativeName": "Kherkhan",
      "code": "AZ-XVD-147786",
      "countryId": 587116,
      "countryCode": "AZ",
      "stateCode": "AZ-XVD",
      "latitude": 39.72283,
      "longitude": 46.9444
    },
    {
      "id": 148127,
      "name": "Yedysha",
      "nativeName": "Yedysha",
      "code": "AZ-XVD-148127",
      "countryId": 587116,
      "countryCode": "AZ",
      "stateCode": "AZ-XVD",
      "latitude": 39.52662,
      "longitude": 47.00204
    },
    {
      "id": 146950,
      "name": "Yemişcan",
      "nativeName": "Yemişcan",
      "code": "AZ-XVD-146950",
      "countryId": 587116,
      "countryCode": "AZ",
      "stateCode": "AZ-XVD",
      "latitude": 39.81968,
      "longitude": 47.04772
    },
    {
      "id": 146902,
      "name": "Zamzur",
      "nativeName": "Zamzur",
      "code": "AZ-XVD-146902",
      "countryId": 587116,
      "countryCode": "AZ",
      "stateCode": "AZ-XVD",
      "latitude": 39.49695,
      "longitude": 46.96603
    },
    {
      "id": 146889,
      "name": "Zavadykh",
      "nativeName": "Zavadıx",
      "code": "AZ-XVD-146889",
      "countryId": 587116,
      "countryCode": "AZ",
      "stateCode": "AZ-XVD",
      "latitude": 39.71947,
      "longitude": 46.95537
    },
    {
      "id": 147042,
      "name": "Zoğalbulaq",
      "nativeName": "Zoğalbulaq",
      "code": "AZ-XVD-147042",
      "countryId": 587116,
      "countryCode": "AZ",
      "stateCode": "AZ-XVD",
      "latitude": 39.62933,
      "longitude": 47.00854
    },
    {
      "id": 146894,
      "name": "Zərdanaşen",
      "nativeName": "Zardanashen",
      "code": "AZ-XVD-146894",
      "countryId": 587116,
      "countryCode": "AZ",
      "stateCode": "AZ-XVD",
      "latitude": 39.6688,
      "longitude": 46.88265
    },
    {
      "id": 147757,
      "name": "Çaylaqqala",
      "nativeName": "Çaylaqqala",
      "code": "AZ-XVD-147757",
      "countryId": 587116,
      "countryCode": "AZ",
      "stateCode": "AZ-XVD",
      "latitude": 39.54623,
      "longitude": 46.77152
    },
    {
      "id": 147253,
      "name": "Çağadüz",
      "nativeName": "Çağadüz",
      "code": "AZ-XVD-147253",
      "countryId": 587116,
      "countryCode": "AZ",
      "stateCode": "AZ-XVD",
      "latitude": 39.69237,
      "longitude": 46.89643
    },
    {
      "id": 148076,
      "name": "Çörəkli",
      "nativeName": "Gatsy",
      "code": "AZ-XVD-148076",
      "countryId": 587116,
      "countryCode": "AZ",
      "stateCode": "AZ-XVD",
      "latitude": 39.84122,
      "longitude": 46.96052
    },
    {
      "id": 147217,
      "name": "Şahyeri",
      "nativeName": "Şahyeri",
      "code": "AZ-XVD-147217",
      "countryId": 587116,
      "countryCode": "AZ",
      "stateCode": "AZ-XVD",
      "latitude": 39.51584,
      "longitude": 46.9832
    },
    {
      "id": 147133,
      "name": "Şıx Dursun",
      "nativeName": "Şıx Dursun",
      "code": "AZ-XVD-147133",
      "countryId": 587116,
      "countryCode": "AZ",
      "stateCode": "AZ-XVD",
      "latitude": 39.7056,
      "longitude": 46.93949
    },
    {
      "id": 148534,
      "name": "Əmiranlar",
      "nativeName": "Amiralar",
      "code": "AZ-XVD-148534",
      "countryId": 587116,
      "countryCode": "AZ",
      "stateCode": "AZ-XVD",
      "latitude": 39.79651,
      "longitude": 47.13656
    }
  ]
}