{
  "stateId": 584583,
  "stateCode": "AZ-ZAR",
  "countryCode": "AZ",
  "cities": [
    {
      "id": 584586,
      "name": "Zǝrdab",
      "nativeName": "Zardob",
      "code": "AZ-ZAR-584586",
      "countryId": 587116,
      "countryCode": "AZ",
      "stateCode": "AZ-ZAR",
      "latitude": 40.2184,
      "longitude": 47.71214
    },
    {
      "id": 587313,
      "name": "Alibeyli",
      "nativeName": "Alibeyli",
      "code": "AZ-ZAR-587313",
      "countryId": 587116,
      "countryCode": "AZ",
      "stateCode": "AZ-ZAR",
      "latitude": 40.20249,
      "longitude": 47.68422
    },
    {
      "id": 587410,
      "name": "Ağabağı",
      "nativeName": "Ağabağı",
      "code": "AZ-ZAR-587410",
      "countryId": 587116,
      "countryCode": "AZ",
      "stateCode": "AZ-ZAR",
      "latitude": 40.1086,
      "longitude": 47.80988
    },
    {
      "id": 587308,
      "name": "Birinci Alıcanlı",
      "nativeName": "Birinci Alıcanlı",
      "code": "AZ-ZAR-587308",
      "countryId": 587116,
      "countryCode": "AZ",
      "stateCode": "AZ-ZAR",
      "latitude": 40.32977,
      "longitude": 47.63252
    },
    {
      "id": 586928,
      "name": "Burunlu",
      "nativeName": "Burunlu",
      "code": "AZ-ZAR-586928",
      "countryId": 587116,
      "countryCode": "AZ",
      "stateCode": "AZ-ZAR",
      "latitude": 40.23859,
      "longitude": 47.5263
    },
    {
      "id": 586994,
      "name": "Böyük Dəkkə",
      "nativeName": "Böyük Dəkkə",
      "code": "AZ-ZAR-586994",
      "countryId": 587116,
      "countryCode": "AZ",
      "stateCode": "AZ-ZAR",
      "latitude": 40.18723,
      "longitude": 47.74761
    },
    {
      "id": 586921,
      "name": "Bıçaqçı",
      "nativeName": "Bıçaqçı",
      "code": "AZ-ZAR-586921",
      "countryId": 587116,
      "countryCode": "AZ",
      "stateCode": "AZ-ZAR",
      "latitude": 40.30627,
      "longitude": 47.47204
    },
    {
      "id": 587014,
      "name": "Bǝyimli",
      "nativeName": "Begimli",
      "code": "AZ-ZAR-587014",
      "countryId": 587116,
      "countryCode": "AZ",
      "stateCode": "AZ-ZAR",
      "latitude": 40.25234,
      "longitude": 47.82303
    },
    {
      "id": 824403,
      "name": "Cilovxanlı",
      "nativeName": "Cilovxanlı",
      "code": "AZ-ZAR-824403",
      "countryId": 587116,
      "countryCode": "AZ",
      "stateCode": "AZ-ZAR",
      "latitude": 40.31661,
      "longitude": 47.60343
    },
    {
      "id": 586755,
      "name": "Dekkyaoba",
      "nativeName": "Dekkyaoba",
      "code": "AZ-ZAR-586755",
      "countryId": 587116,
      "countryCode": "AZ",
      "stateCode": "AZ-ZAR",
      "latitude": 40.198,
      "longitude": 47.74929
    },
    {
      "id": 800626,
      "name": "Dzhandzhan",
      "nativeName": "Dzhandzhan",
      "code": "AZ-ZAR-800626",
      "countryId": 587116,
      "countryCode": "AZ",
      "stateCode": "AZ-ZAR",
      "latitude": 40.18322,
      "longitude": 47.69807
    },
    {
      "id": 824053,
      "name": "Dəli Quşçu",
      "nativeName": "Dali-Kushchu",
      "code": "AZ-ZAR-824053",
      "countryId": 587116,
      "countryCode": "AZ",
      "stateCode": "AZ-ZAR",
      "latitude": 40.21863,
      "longitude": 47.75311
    },
    {
      "id": 800615,
      "name": "Gyurgyur",
      "nativeName": "Gyurgyur",
      "code": "AZ-ZAR-800615",
      "countryId": 587116,
      "countryCode": "AZ",
      "stateCode": "AZ-ZAR",
      "latitude": 40.08099,
      "longitude": 47.89556
    },
    {
      "id": 586493,
      "name": "Gödǝkqobu",
      "nativeName": "Gedekkobu",
      "code": "AZ-ZAR-586493",
      "countryId": 587116,
      "countryCode": "AZ",
      "stateCode": "AZ-ZAR",
      "latitude": 40.24426,
      "longitude": 47.59145
    },
    {
      "id": 586410,
      "name": "Gəlmə",
      "nativeName": "Gəlmə",
      "code": "AZ-ZAR-586410",
      "countryId": 587116,
      "countryCode": "AZ",
      "stateCode": "AZ-ZAR",
      "latitude": 40.21793,
      "longitude": 47.69021
    },
    {
      "id": 586417,
      "name": "Hüseynxanlı",
      "nativeName": "Hüseynxanlı",
      "code": "AZ-ZAR-586417",
      "countryId": 587116,
      "countryCode": "AZ",
      "stateCode": "AZ-ZAR",
      "latitude": 40.22734,
      "longitude": 47.66602
    },
    {
      "id": 585965,
      "name": "Khanmamedli",
      "nativeName": "Khanmamedli",
      "code": "AZ-ZAR-585965",
      "countryId": 587116,
      "countryCode": "AZ",
      "stateCode": "AZ-ZAR",
      "latitude": 40.23636,
      "longitude": 47.65378
    },
    {
      "id": 585808,
      "name": "Koshaoba",
      "nativeName": "Koshaoba",
      "code": "AZ-ZAR-585808",
      "countryId": 587116,
      "countryCode": "AZ",
      "stateCode": "AZ-ZAR",
      "latitude": 40.26639,
      "longitude": 47.68222
    },
    {
      "id": 586026,
      "name": "Körpükǝnd",
      "nativeName": "Körpükənd",
      "code": "AZ-ZAR-586026",
      "countryId": 587116,
      "countryCode": "AZ",
      "stateCode": "AZ-ZAR",
      "latitude": 40.26614,
      "longitude": 47.49518
    },
    {
      "id": 585623,
      "name": "Lǝlǝağacı",
      "nativeName": "Lyalyaagadzhy",
      "code": "AZ-ZAR-585623",
      "countryId": 587116,
      "countryCode": "AZ",
      "stateCode": "AZ-ZAR",
      "latitude": 40.18883,
      "longitude": 47.62465
    },
    {
      "id": 8548827,
      "name": "Melikumudlu",
      "nativeName": "Melikumudlu",
      "code": "AZ-ZAR-8548827",
      "countryId": 587116,
      "countryCode": "AZ",
      "stateCode": "AZ-ZAR",
      "latitude": 40.32852,
      "longitude": 47.73898
    },
    {
      "id": 585536,
      "name": "Mǝlikli",
      "nativeName": "Melikli",
      "code": "AZ-ZAR-585536",
      "countryId": 587116,
      "countryCode": "AZ",
      "stateCode": "AZ-ZAR",
      "latitude": 40.20879,
      "longitude": 47.53014
    },
    {
      "id": 585589,
      "name": "Məmmədqasımlı",
      "nativeName": "Mamedkasymly",
      "code": "AZ-ZAR-585589",
      "countryId": 587116,
      "countryCode": "AZ",
      "stateCode": "AZ-ZAR",
      "latitude": 40.20166,
      "longitude": 47.59381
    },
    {
      "id": 585405,
      "name": "Nadzhafali",
      "nativeName": "Nadzhafali",
      "code": "AZ-ZAR-585405",
      "countryId": 587116,
      "countryCode": "AZ",
      "stateCode": "AZ-ZAR",
      "latitude": 40.26667,
      "longitude": 47.65
    },
    {
      "id": 585373,
      "name": "Nəzəralılı",
      "nativeName": "Nazarally",
      "code": "AZ-ZAR-585373",
      "countryId": 587116,
      "countryCode": "AZ",
      "stateCode": "AZ-ZAR",
      "latitude": 40.14882,
      "longitude": 47.77976
    },
    {
      "id": 587136,
      "name": "Otmanoba",
      "nativeName": "Otmanoba",
      "code": "AZ-ZAR-587136",
      "countryId": 587116,
      "countryCode": "AZ",
      "stateCode": "AZ-ZAR",
      "latitude": 40.09242,
      "longitude": 47.90359
    },
    {
      "id": 585278,
      "name": "Pervanly",
      "nativeName": "Pervanly",
      "code": "AZ-ZAR-585278",
      "countryId": 587116,
      "countryCode": "AZ",
      "stateCode": "AZ-ZAR",
      "latitude": 40.18801,
      "longitude": 47.57608
    },
    {
      "id": 800613,
      "name": "Potikhinly",
      "nativeName": "Potikhinly",
      "code": "AZ-ZAR-800613",
      "countryId": 587116,
      "countryCode": "AZ",
      "stateCode": "AZ-ZAR",
      "latitude": 40.10306,
      "longitude": 47.97
    },
    {
      "id": 586141,
      "name": "Qaravǝlli",
      "nativeName": "Karavelli",
      "code": "AZ-ZAR-586141",
      "countryId": 587116,
      "countryCode": "AZ",
      "stateCode": "AZ-ZAR",
      "latitude": 40.17215,
      "longitude": 47.77871
    },
    {
      "id": 585815,
      "name": "Qoruqbağı",
      "nativeName": "Qoruqbağı",
      "code": "AZ-ZAR-585815",
      "countryId": 587116,
      "countryCode": "AZ",
      "stateCode": "AZ-ZAR",
      "latitude": 40.18485,
      "longitude": 47.54769
    },
    {
      "id": 11980216,
      "name": "Qoşaoba",
      "nativeName": "Qoşaoba",
      "code": "AZ-ZAR-11980216",
      "countryId": 587116,
      "countryCode": "AZ",
      "stateCode": "AZ-ZAR",
      "latitude": 40.23283,
      "longitude": 47.70777
    },
    {
      "id": 585168,
      "name": "Salahlı",
      "nativeName": "Salahlı",
      "code": "AZ-ZAR-585168",
      "countryId": 587116,
      "countryCode": "AZ",
      "stateCode": "AZ-ZAR",
      "latitude": 40.23188,
      "longitude": 47.68991
    },
    {
      "id": 585123,
      "name": "Sarıqaya",
      "nativeName": "Sarıqaya",
      "code": "AZ-ZAR-585123",
      "countryId": 587116,
      "countryCode": "AZ",
      "stateCode": "AZ-ZAR",
      "latitude": 40.18761,
      "longitude": 47.53055
    },
    {
      "id": 585108,
      "name": "Seidlyar",
      "nativeName": "Seidlyar",
      "code": "AZ-ZAR-585108",
      "countryId": 587116,
      "countryCode": "AZ",
      "stateCode": "AZ-ZAR",
      "latitude": 40.12133,
      "longitude": 47.85399
    },
    {
      "id": 585106,
      "name": "Seidlyar",
      "nativeName": "Seidlyar",
      "code": "AZ-ZAR-585106",
      "countryId": 587116,
      "countryCode": "AZ",
      "stateCode": "AZ-ZAR",
      "latitude": 40.3488,
      "longitude": 47.4829
    },
    {
      "id": 585090,
      "name": "Shaftakhal",
      "nativeName": "Shaftakhal",
      "code": "AZ-ZAR-585090",
      "countryId": 587116,
      "countryCode": "AZ",
      "stateCode": "AZ-ZAR",
      "latitude": 40.11648,
      "longitude": 47.82968
    },
    {
      "id": 584961,
      "name": "Sileyli",
      "nativeName": "Sileyli",
      "code": "AZ-ZAR-584961",
      "countryId": 587116,
      "countryCode": "AZ",
      "stateCode": "AZ-ZAR",
      "latitude": 40.36135,
      "longitude": 47.51842
    },
    {
      "id": 584858,
      "name": "Tazakend",
      "nativeName": "Tazakend",
      "code": "AZ-ZAR-584858",
      "countryId": 587116,
      "countryCode": "AZ",
      "stateCode": "AZ-ZAR",
      "latitude": 40.20398,
      "longitude": 47.724
    },
    {
      "id": 584734,
      "name": "Velikhanly",
      "nativeName": "Velikhanly",
      "code": "AZ-ZAR-584734",
      "countryId": 587116,
      "countryCode": "AZ",
      "stateCode": "AZ-ZAR",
      "latitude": 40.23833,
      "longitude": 47.75417
    },
    {
      "id": 584701,
      "name": "Yarmammedbagy",
      "nativeName": "Yarmammedbagy",
      "code": "AZ-ZAR-584701",
      "countryId": 587116,
      "countryCode": "AZ",
      "stateCode": "AZ-ZAR",
      "latitude": 40.18288,
      "longitude": 47.60765
    },
    {
      "id": 586905,
      "name": "Çallı",
      "nativeName": "Çallı",
      "code": "AZ-ZAR-586905",
      "countryId": 587116,
      "countryCode": "AZ",
      "stateCode": "AZ-ZAR",
      "latitude": 40.31682,
      "longitude": 47.68953
    },
    {
      "id": 587307,
      "name": "İkinci Əlicanlı",
      "nativeName": "İkinci Alıcanlı",
      "code": "AZ-ZAR-587307",
      "countryId": 587116,
      "countryCode": "AZ",
      "stateCode": "AZ-ZAR",
      "latitude": 40.32364,
      "longitude": 47.63095
    },
    {
      "id": 586327,
      "name": "İsaqbağı",
      "nativeName": "İsaqbağı",
      "code": "AZ-ZAR-586327",
      "countryId": 587116,
      "countryCode": "AZ",
      "stateCode": "AZ-ZAR",
      "latitude": 40.18283,
      "longitude": 47.75846
    },
    {
      "id": 585066,
      "name": "Şahhüseynli",
      "nativeName": "Şahhüseynli",
      "code": "AZ-ZAR-585066",
      "countryId": 587116,
      "countryCode": "AZ",
      "stateCode": "AZ-ZAR",
      "latitude": 40.13965,
      "longitude": 47.87595
    },
    {
      "id": 584981,
      "name": "Şıxbağı",
      "nativeName": "Şıxbağı",
      "code": "AZ-ZAR-584981",
      "countryId": 587116,
      "countryCode": "AZ",
      "stateCode": "AZ-ZAR",
      "latitude": 40.1325,
      "longitude": 47.79532
    },
    {
      "id": 587270,
      "name": "Əlvǝnd",
      "nativeName": "Əlvənd",
      "code": "AZ-ZAR-587270",
      "countryId": 587116,
      "countryCode": "AZ",
      "stateCode": "AZ-ZAR",
      "latitude": 40.10735,
      "longitude": 47.87369
    }
  ]
}