{
  "countryId": 587116,
  "countryCode": "AZ",
  "states": [
    {
      "id": 587245,
      "name": "Absheron Rayon",
      "nativeName": "Absheron Rayon",
      "code": "AZ-ABS",
      "internalCode": "ABS",
      "countryId": 587116,
      "countryCode": "AZ",
      "latitude": 40.41667,
      "longitude": 49.33333
    },
    {
      "id": 148617,
      "name": "Aghdam Rayon",
      "nativeName": "Aghdam Rayon",
      "code": "AZ-AGM",
      "internalCode": "AGM",
      "countryId": 587116,
      "countryCode": "AZ",
      "latitude": 40,
      "longitude": 47
    },
    {
      "id": 587376,
      "name": "Aghdash Rayon",
      "nativeName": "Aghdash Rayon",
      "code": "AZ-AGS",
      "internalCode": "AGS",
      "countryId": 587116,
      "countryCode": "AZ",
      "latitude": 40.58333,
      "longitude": 47.41667
    },
    {
      "id": 148615,
      "name": "Aghjabadi Rayon",
      "nativeName": "Aghjabadi Rayon",
      "code": "AZ-AGC",
      "internalCode": "AGC",
      "countryId": 587116,
      "countryCode": "AZ",
      "latitude": 40,
      "longitude": 47.41667
    },
    {
      "id": 828297,
      "name": "Aghstafa Rayon",
      "nativeName": "Aghstafa Rayon",
      "code": "AZ-AGA",
      "internalCode": "AGA",
      "countryId": 587116,
      "countryCode": "AZ",
      "latitude": 41.25,
      "longitude": 45.5
    },
    {
      "id": 587342,
      "name": "Agsu District",
      "nativeName": "Aghsu Rayon",
      "code": "AZ-AGU",
      "internalCode": "AGU",
      "countryId": 587116,
      "countryCode": "AZ",
      "latitude": 40.5,
      "longitude": 48.33333
    },
    {
      "id": 148442,
      "name": "Astara",
      "nativeName": "Astara District",
      "code": "AZ-AST",
      "internalCode": "AST",
      "countryId": 587116,
      "countryCode": "AZ",
      "latitude": 38.5,
      "longitude": 48.66667
    },
    {
      "id": 587081,
      "name": "Baku City",
      "nativeName": "Baku City",
      "code": "AZ-BA",
      "internalCode": "BA",
      "countryId": 587116,
      "countryCode": "AZ",
      "latitude": 40.39802,
      "longitude": 49.72414
    },
    {
      "id": 587010,
      "name": "Balakan District",
      "nativeName": "Balakan Rayon",
      "code": "AZ-BAL",
      "internalCode": "BAL",
      "countryId": 587116,
      "countryCode": "AZ",
      "latitude": 41.75,
      "longitude": 46.41667
    },
    {
      "id": 587056,
      "name": "Barda",
      "nativeName": "Barda Rayon",
      "code": "AZ-BAR",
      "internalCode": "BAR",
      "countryId": 587116,
      "countryCode": "AZ",
      "latitude": 40.33333,
      "longitude": 47.16667
    },
    {
      "id": 146879,
      "name": "Beylagan Rayon",
      "nativeName": "Beylagan Rayon",
      "code": "AZ-BEY",
      "internalCode": "BEY",
      "countryId": 587116,
      "countryCode": "AZ",
      "latitude": 39.75,
      "longitude": 47.66667
    },
    {
      "id": 147310,
      "name": "Bilasuvar District",
      "nativeName": "Bilasuvar Rayon",
      "code": "AZ-BIL",
      "internalCode": "BIL",
      "countryId": 587116,
      "countryCode": "AZ",
      "latitude": 39.5,
      "longitude": 48.41667
    },
    {
      "id": 586771,
      "name": "Dashkasan Rayon",
      "nativeName": "Dashkasan Rayon",
      "code": "AZ-DAS",
      "internalCode": "DAS",
      "countryId": 587116,
      "countryCode": "AZ",
      "latitude": 40.41667,
      "longitude": 46
    },
    {
      "id": 148107,
      "name": "Fuzuli District",
      "nativeName": "Fizuli Rayon",
      "code": "AZ-FUZ",
      "internalCode": "FUZ",
      "countryId": 587116,
      "countryCode": "AZ",
      "latitude": 39.58333,
      "longitude": 47.33333
    },
    {
      "id": 627535,
      "name": "Gadabay District",
      "nativeName": "Gadabay Rayon",
      "code": "AZ-GAD",
      "internalCode": "GAD",
      "countryId": 587116,
      "countryCode": "AZ",
      "latitude": 40.5,
      "longitude": 45.66667
    },
    {
      "id": 828298,
      "name": "Ganja City",
      "nativeName": "Ganja City",
      "code": "AZ-GA",
      "internalCode": "GA",
      "countryId": 587116,
      "countryCode": "AZ",
      "latitude": 40.6937,
      "longitude": 46.34082
    },
    {
      "id": 828301,
      "name": "Gobustan Rayon",
      "nativeName": "Gobustan Rayon",
      "code": "AZ-QOB",
      "internalCode": "QOB",
      "countryId": 587116,
      "countryCode": "AZ",
      "latitude": 40.5,
      "longitude": 49
    },
    {
      "id": 586112,
      "name": "Goranboy District",
      "nativeName": "Goranboy Rayon",
      "code": "AZ-GOR",
      "internalCode": "GOR",
      "countryId": 587116,
      "countryCode": "AZ",
      "latitude": 40.58333,
      "longitude": 46.66667
    },
    {
      "id": 586482,
      "name": "Goychay Rayon",
      "nativeName": "Goychay Rayon",
      "code": "AZ-GOY",
      "internalCode": "GOY",
      "countryId": 587116,
      "countryCode": "AZ",
      "latitude": 40.58333,
      "longitude": 47.83333
    },
    {
      "id": 585967,
      "name": "Goygol Rayon",
      "nativeName": "Goygol Rayon",
      "code": "AZ-GYG",
      "internalCode": "GYG",
      "countryId": 587116,
      "countryCode": "AZ",
      "latitude": 40.5,
      "longitude": 46.33333
    },
    {
      "id": 828315,
      "name": "Hajigabul Rayon",
      "nativeName": "Hajigabul Rayon",
      "code": "AZ-HAC",
      "internalCode": "HAC",
      "countryId": 587116,
      "countryCode": "AZ",
      "latitude": 40.08333,
      "longitude": 48.91667
    },
    {
      "id": 147983,
      "name": "Imishli Rayon",
      "nativeName": "Imishli Rayon",
      "code": "AZ-IMI",
      "internalCode": "IMI",
      "countryId": 587116,
      "countryCode": "AZ",
      "latitude": 39.83333,
      "longitude": 48.08333
    },
    {
      "id": 586320,
      "name": "Ismayilli District",
      "nativeName": "Ismayilli Rayon",
      "code": "AZ-ISM",
      "internalCode": "ISM",
      "countryId": 587116,
      "countryCode": "AZ",
      "latitude": 40.83333,
      "longitude": 48.16667
    },
    {
      "id": 148140,
      "name": "Jabrayil",
      "nativeName": "Jabrayil District",
      "code": "AZ-CAB",
      "internalCode": "CAB",
      "countryId": 587116,
      "countryCode": "AZ",
      "latitude": 39.33333,
      "longitude": 47
    },
    {
      "id": 148155,
      "name": "Jalilabad",
      "nativeName": "Jalilabad",
      "code": "AZ-CAL",
      "internalCode": "CAL",
      "countryId": 587116,
      "countryCode": "AZ",
      "latitude": 39.25,
      "longitude": 48.5
    },
    {
      "id": 586047,
      "name": "Kalbajar",
      "nativeName": "Kalbajar District",
      "code": "AZ-KAL",
      "internalCode": "KAL",
      "countryId": 587116,
      "countryCode": "AZ",
      "latitude": 40.1027,
      "longitude": 46.1747
    },
    {
      "id": 586001,
      "name": "Khachmaz Rayon",
      "nativeName": "Khachmaz Rayon",
      "code": "AZ-XAC",
      "internalCode": "XAC",
      "countryId": 587116,
      "countryCode": "AZ",
      "latitude": 41.58333,
      "longitude": 48.75
    },
    {
      "id": 828306,
      "name": "Khizi Rayon",
      "nativeName": "Khizi Rayon",
      "code": "AZ-XIZ",
      "internalCode": "XIZ",
      "countryId": 587116,
      "countryCode": "AZ",
      "latitude": 40.75,
      "longitude": 49.16667
    },
    {
      "id": 409423,
      "name": "Khojavend",
      "nativeName": "Khojavend District",
      "code": "AZ-XVD",
      "internalCode": "XVD",
      "countryId": 587116,
      "countryCode": "AZ",
      "latitude": 39.66667,
      "longitude": 47
    },
    {
      "id": 585686,
      "name": "Kurdamir District",
      "nativeName": "Kurdamir Rayon",
      "code": "AZ-KUR",
      "internalCode": "KUR",
      "countryId": 587116,
      "countryCode": "AZ",
      "latitude": 40.25,
      "longitude": 48.16667
    },
    {
      "id": 147613,
      "name": "Lankaran Rayon",
      "nativeName": "Lankaran Rayon",
      "code": "AZ-LAN",
      "internalCode": "LAN",
      "countryId": 587116,
      "countryCode": "AZ",
      "latitude": 38.70071,
      "longitude": 48.75551
    },
    {
      "id": 409418,
      "name": "Lankaran Sahari",
      "nativeName": "Lankaran Sahari",
      "code": "AZ-LA",
      "internalCode": "LA",
      "countryId": 587116,
      "countryCode": "AZ",
      "latitude": 38.73333,
      "longitude": 48.83333
    },
    {
      "id": 147626,
      "name": "Laçın Rayonu",
      "nativeName": "Laçın Rayonu",
      "code": "AZ-LAC",
      "internalCode": "LAC",
      "countryId": 587116,
      "countryCode": "AZ",
      "latitude": 39.65073,
      "longitude": 46.39913
    },
    {
      "id": 147610,
      "name": "Lerik District",
      "nativeName": "Lerik Rayon",
      "code": "AZ-LER",
      "internalCode": "LER",
      "countryId": 587116,
      "countryCode": "AZ",
      "latitude": 38.75,
      "longitude": 48.41667
    },
    {
      "id": 147551,
      "name": "Masally",
      "nativeName": "Masally District",
      "code": "AZ-MAS",
      "internalCode": "MAS",
      "countryId": 587116,
      "countryCode": "AZ",
      "latitude": 39,
      "longitude": 48.66667
    },
    {
      "id": 828299,
      "name": "Mingacevir City",
      "nativeName": "Mingacevir City",
      "code": "AZ-MI",
      "internalCode": "MI",
      "countryId": 587116,
      "countryCode": "AZ",
      "latitude": 40.76667,
      "longitude": 47
    },
    {
      "id": 828300,
      "name": "Naftalan City",
      "nativeName": "Naftalan City",
      "code": "AZ-NA",
      "internalCode": "NA",
      "countryId": 587116,
      "countryCode": "AZ",
      "latitude": 40.50525,
      "longitude": 46.81163
    },
    {
      "id": 147435,
      "name": "Nakhchivan",
      "nativeName": "Nakhchivan Autonomous Republic",
      "code": "AZ-NX",
      "internalCode": "NX",
      "countryId": 587116,
      "countryCode": "AZ",
      "latitude": 39.20991,
      "longitude": 45.41817
    },
    {
      "id": 147422,
      "name": "Neftchala Rayon",
      "nativeName": "Neftchala Rayon",
      "code": "AZ-NEF",
      "internalCode": "NEF",
      "countryId": 587116,
      "countryCode": "AZ",
      "latitude": 39.33333,
      "longitude": 49
    },
    {
      "id": 584742,
      "name": "Oghuz Rayon",
      "nativeName": "Oghuz Rayon",
      "code": "AZ-OGU",
      "internalCode": "OGU",
      "countryId": 587116,
      "countryCode": "AZ",
      "latitude": 41.08333,
      "longitude": 47.5
    },
    {
      "id": 585738,
      "name": "Qabala District",
      "nativeName": "Qabala Rayon",
      "code": "AZ-QAB",
      "internalCode": "QAB",
      "countryId": 587116,
      "countryCode": "AZ",
      "latitude": 40.91667,
      "longitude": 47.83333
    },
    {
      "id": 586290,
      "name": "Qakh Rayon",
      "nativeName": "Qakh Rayon",
      "code": "AZ-QAX",
      "internalCode": "QAX",
      "countryId": 587116,
      "countryCode": "AZ",
      "latitude": 41.33333,
      "longitude": 46.75
    },
    {
      "id": 586087,
      "name": "Qazakh Rayon",
      "nativeName": "Qazakh Rayon",
      "code": "AZ-QAZ",
      "internalCode": "QAZ",
      "countryId": 587116,
      "countryCode": "AZ",
      "latitude": 41.26,
      "longitude": 45.09
    },
    {
      "id": 585786,
      "name": "Quba Rayon",
      "nativeName": "Quba Rayon",
      "code": "AZ-QBA",
      "internalCode": "QBA",
      "countryId": 587116,
      "countryCode": "AZ",
      "latitude": 41.16667,
      "longitude": 48.41667
    },
    {
      "id": 147694,
      "name": "Qubadli Rayon",
      "nativeName": "Qubadli Rayon",
      "code": "AZ-QBI",
      "internalCode": "QBI",
      "countryId": 587116,
      "countryCode": "AZ",
      "latitude": 39.33333,
      "longitude": 46.58333
    },
    {
      "id": 585749,
      "name": "Qusar District",
      "nativeName": "Qusar Rayon",
      "code": "AZ-QUS",
      "internalCode": "QUS",
      "countryId": 587116,
      "countryCode": "AZ",
      "latitude": 41.41667,
      "longitude": 48.25
    },
    {
      "id": 147287,
      "name": "Saatly Rayon",
      "nativeName": "Saatly Rayon",
      "code": "AZ-SAT",
      "internalCode": "SAT",
      "countryId": 587116,
      "countryCode": "AZ",
      "latitude": 39.83333,
      "longitude": 48.41667
    },
    {
      "id": 147284,
      "name": "Sabirabad District",
      "nativeName": "Sabirabad Rayon",
      "code": "AZ-SAB",
      "internalCode": "SAB",
      "countryId": 587116,
      "countryCode": "AZ",
      "latitude": 39.91667,
      "longitude": 48.66667
    },
    {
      "id": 147269,
      "name": "Salyan District",
      "nativeName": "Salyan Rayon",
      "code": "AZ-SAL",
      "internalCode": "SAL",
      "countryId": 587116,
      "countryCode": "AZ",
      "latitude": 39.66667,
      "longitude": 49
    },
    {
      "id": 828302,
      "name": "Samukh Rayon",
      "nativeName": "Samukh Rayon",
      "code": "AZ-SMX",
      "internalCode": "SMX",
      "countryId": 587116,
      "countryCode": "AZ",
      "latitude": 40.91667,
      "longitude": 46.41667
    },
    {
      "id": 586725,
      "name": "Shabran",
      "nativeName": "Shabran Rayon",
      "code": "AZ-SBN",
      "internalCode": "SBN",
      "countryId": 587116,
      "countryCode": "AZ",
      "latitude": 41.18542,
      "longitude": 48.8275
    },
    {
      "id": 585031,
      "name": "Shaki",
      "nativeName": "Shaki Rayon",
      "code": "AZ-SAK",
      "internalCode": "SAK",
      "countryId": 587116,
      "countryCode": "AZ",
      "latitude": 41.08333,
      "longitude": 47.16667
    },
    {
      "id": 828303,
      "name": "Shaki City",
      "nativeName": "Shaki city",
      "code": "AZ-SA",
      "internalCode": "SA",
      "countryId": 587116,
      "countryCode": "AZ",
      "latitude": 41.18333,
      "longitude": 47.16667
    },
    {
      "id": 585030,
      "name": "Shamakhi Rayon",
      "nativeName": "Shamakhi Rayon",
      "code": "AZ-SMI",
      "internalCode": "SMI",
      "countryId": 587116,
      "countryCode": "AZ",
      "latitude": 40.58333,
      "longitude": 48.66667
    },
    {
      "id": 585059,
      "name": "Shamkir Rayon",
      "nativeName": "Shamkir Rayon",
      "code": "AZ-SKR",
      "internalCode": "SKR",
      "countryId": 587116,
      "countryCode": "AZ",
      "latitude": 40.83333,
      "longitude": 46.08333
    },
    {
      "id": 409417,
      "name": "Shirvan",
      "nativeName": "Shirvan",
      "code": "AZ-SR",
      "internalCode": "SR",
      "countryId": 587116,
      "countryCode": "AZ",
      "latitude": 39.9604,
      "longitude": 48.88181
    },
    {
      "id": 147163,
      "name": "Shusha",
      "nativeName": "Şuşa Rayonu",
      "code": "AZ-SUS",
      "internalCode": "SUS",
      "countryId": 587116,
      "countryCode": "AZ",
      "latitude": 39.67773,
      "longitude": 46.66398
    },
    {
      "id": 409419,
      "name": "Shusha City",
      "nativeName": "Shusha",
      "code": "AZ-56",
      "internalCode": "",
      "countryId": 587116,
      "countryCode": "AZ",
      "latitude": 39.75,
      "longitude": 46.75
    },
    {
      "id": 828304,
      "name": "Siazan Rayon",
      "nativeName": "Siazan Rayon",
      "code": "AZ-SIY",
      "internalCode": "SIY",
      "countryId": 587116,
      "countryCode": "AZ",
      "latitude": 41,
      "longitude": 49.08333
    },
    {
      "id": 828305,
      "name": "Sumqayit City",
      "nativeName": "Sumqayit City",
      "code": "AZ-SM",
      "internalCode": "SM",
      "countryId": 587116,
      "countryCode": "AZ",
      "latitude": 40.59466,
      "longitude": 49.62799
    },
    {
      "id": 409420,
      "name": "Tartar District",
      "nativeName": "Tartar Rayon",
      "code": "AZ-TAR",
      "internalCode": "TAR",
      "countryId": 587116,
      "countryCode": "AZ",
      "latitude": 40.33054,
      "longitude": 46.94289
    },
    {
      "id": 584861,
      "name": "Tovuz District",
      "nativeName": "Tovuz Rayon",
      "code": "AZ-TOV",
      "internalCode": "TOV",
      "countryId": 587116,
      "countryCode": "AZ",
      "latitude": 41,
      "longitude": 45.75
    },
    {
      "id": 584783,
      "name": "Ujar Rayon",
      "nativeName": "Ujar Rayon",
      "code": "AZ-UCA",
      "internalCode": "UCA",
      "countryId": 587116,
      "countryCode": "AZ",
      "latitude": 40.41667,
      "longitude": 47.75
    },
    {
      "id": 409421,
      "name": "Xankandi Sahari",
      "nativeName": "Xankandi Sahari",
      "code": "AZ-XA",
      "internalCode": "XA",
      "countryId": 587116,
      "countryCode": "AZ",
      "latitude": 39.81744,
      "longitude": 46.75318
    },
    {
      "id": 148449,
      "name": "Xocalı Rayonu",
      "nativeName": "Xocalı Rayonu",
      "code": "AZ-XCI",
      "internalCode": "XCI",
      "countryId": 587116,
      "countryCode": "AZ",
      "latitude": 39.83333,
      "longitude": 46.75
    },
    {
      "id": 146962,
      "name": "Yardimli District",
      "nativeName": "Yardymli Rayon",
      "code": "AZ-YAR",
      "internalCode": "YAR",
      "countryId": 587116,
      "countryCode": "AZ",
      "latitude": 38.91667,
      "longitude": 48.25
    },
    {
      "id": 584650,
      "name": "Yevlakh Rayon",
      "nativeName": "Yevlakh Rayon",
      "code": "AZ-YEV",
      "internalCode": "YEV",
      "countryId": 587116,
      "countryCode": "AZ",
      "latitude": 40.66667,
      "longitude": 47
    },
    {
      "id": 828307,
      "name": "Yevlax City",
      "nativeName": "Yevlakh City",
      "code": "AZ-YE",
      "internalCode": "YE",
      "countryId": 587116,
      "countryCode": "AZ",
      "latitude": 40.58333,
      "longitude": 47.16667
    },
    {
      "id": 146900,
      "name": "Zangilan District",
      "nativeName": "Zangilan Rayon",
      "code": "AZ-ZAN",
      "internalCode": "ZAN",
      "countryId": 587116,
      "countryCode": "AZ",
      "latitude": 39.08333,
      "longitude": 46.66667
    },
    {
      "id": 584604,
      "name": "Zaqatala District",
      "nativeName": "Zaqatala Rayon",
      "code": "AZ-ZAQ",
      "internalCode": "ZAQ",
      "countryId": 587116,
      "countryCode": "AZ",
      "latitude": 41.58333,
      "longitude": 46.66667
    },
    {
      "id": 584583,
      "name": "Zardab Rayon",
      "nativeName": "Zardab Rayon",
      "code": "AZ-ZAR",
      "internalCode": "ZAR",
      "countryId": 587116,
      "countryCode": "AZ",
      "latitude": 40.25,
      "longitude": 47.75
    }
  ]
}