{
  "stateId": 4041552,
  "stateCode": "MP-S",
  "countryCode": "MP",
  "cities": [
    {
      "id": 7828758,
      "name": "Saipan",
      "nativeName": "Saipan",
      "code": "MP-S-7828758",
      "countryId": 4041468,
      "countryCode": "MP",
      "stateCode": "MP-S",
      "latitude": 15.21233,
      "longitude": 145.7545
    },
    {
      "id": 7838874,
      "name": "Achugao Hamlet",
      "nativeName": "Achugao Hamlet",
      "code": "MP-S-7838874",
      "countryId": 4041468,
      "countryCode": "MP",
      "stateCode": "MP-S",
      "latitude": 15.23165,
      "longitude": 145.76707
    },
    {
      "id": 7838875,
      "name": "As Lito Hamlet",
      "nativeName": "As Lito Hamlet",
      "code": "MP-S-7838875",
      "countryId": 4041468,
      "countryCode": "MP",
      "stateCode": "MP-S",
      "latitude": 15.12963,
      "longitude": 145.72377
    },
    {
      "id": 7838876,
      "name": "As Perdido Hamlet",
      "nativeName": "As Perdido Hamlet",
      "code": "MP-S-7838876",
      "countryId": 4041468,
      "countryCode": "MP",
      "stateCode": "MP-S",
      "latitude": 15.1339,
      "longitude": 145.7092
    },
    {
      "id": 7828768,
      "name": "Capitol Hill Village",
      "nativeName": "Capitol Hill Village",
      "code": "MP-S-7828768",
      "countryId": 4041468,
      "countryCode": "MP",
      "stateCode": "MP-S",
      "latitude": 15.20825,
      "longitude": 145.75313
    },
    {
      "id": 4041178,
      "name": "Chalan Kanoa Village",
      "nativeName": "Chalan Kanoa Village",
      "code": "MP-S-4041178",
      "countryId": 4041468,
      "countryCode": "MP",
      "stateCode": "MP-S",
      "latitude": 15.14636,
      "longitude": 145.70304
    },
    {
      "id": 7838877,
      "name": "Chalan Kiya Hamlet",
      "nativeName": "Chalan Kiya Hamlet",
      "code": "MP-S-7838877",
      "countryId": 4041468,
      "countryCode": "MP",
      "stateCode": "MP-S",
      "latitude": 15.16364,
      "longitude": 145.71909
    },
    {
      "id": 7267926,
      "name": "Dandan Village",
      "nativeName": "Dandan Village",
      "code": "MP-S-7267926",
      "countryId": 4041468,
      "countryCode": "MP",
      "stateCode": "MP-S",
      "latitude": 15.13511,
      "longitude": 145.73404
    },
    {
      "id": 7838878,
      "name": "Fina Sisu Hamlet",
      "nativeName": "Fina Sisu Hamlet",
      "code": "MP-S-7838878",
      "countryId": 4041468,
      "countryCode": "MP",
      "stateCode": "MP-S",
      "latitude": 15.14558,
      "longitude": 145.71927
    },
    {
      "id": 7267930,
      "name": "Garapan Village",
      "nativeName": "Garapan Village",
      "code": "MP-S-7267930",
      "countryId": 4041468,
      "countryCode": "MP",
      "stateCode": "MP-S",
      "latitude": 15.20545,
      "longitude": 145.72025
    },
    {
      "id": 7267932,
      "name": "Gualo Rai Village",
      "nativeName": "Gualo Rai Village",
      "code": "MP-S-7267932",
      "countryId": 4041468,
      "countryCode": "MP",
      "stateCode": "MP-S",
      "latitude": 15.19415,
      "longitude": 145.71682
    },
    {
      "id": 7838654,
      "name": "Kagman Village",
      "nativeName": "Kagman Village",
      "code": "MP-S-7838654",
      "countryId": 4041468,
      "countryCode": "MP",
      "stateCode": "MP-S",
      "latitude": 15.17354,
      "longitude": 145.78057
    },
    {
      "id": 4041348,
      "name": "Koblerville Village",
      "nativeName": "Koblerville Village",
      "code": "MP-S-4041348",
      "countryId": 4041468,
      "countryCode": "MP",
      "stateCode": "MP-S",
      "latitude": 15.12382,
      "longitude": 145.70228
    },
    {
      "id": 7838879,
      "name": "Matansa Hamlet",
      "nativeName": "Matansa Hamlet",
      "code": "MP-S-7838879",
      "countryId": 4041468,
      "countryCode": "MP",
      "stateCode": "MP-S",
      "latitude": 15.2509,
      "longitude": 145.78596
    },
    {
      "id": 4041462,
      "name": "Navy Hill Village",
      "nativeName": "Navy Hill Village",
      "code": "MP-S-4041462",
      "countryId": 4041468,
      "countryCode": "MP",
      "stateCode": "MP-S",
      "latitude": 15.21109,
      "longitude": 145.73394
    },
    {
      "id": 7838880,
      "name": "Papago Hamlet",
      "nativeName": "Papago Hamlet",
      "code": "MP-S-7838880",
      "countryId": 4041468,
      "countryCode": "MP",
      "stateCode": "MP-S",
      "latitude": 15.17358,
      "longitude": 145.74703
    },
    {
      "id": 7838658,
      "name": "Puerto Rico Village",
      "nativeName": "Puerto Rico Village",
      "code": "MP-S-7838658",
      "countryId": 4041468,
      "countryCode": "MP",
      "stateCode": "MP-S",
      "latitude": 15.2197,
      "longitude": 145.73296
    },
    {
      "id": 7267947,
      "name": "San Antonio Village",
      "nativeName": "San Antonio Village",
      "code": "MP-S-7267947",
      "countryId": 4041468,
      "countryCode": "MP",
      "stateCode": "MP-S",
      "latitude": 15.13299,
      "longitude": 145.69716
    },
    {
      "id": 7267948,
      "name": "San Jose Village",
      "nativeName": "San Jose Village",
      "code": "MP-S-7267948",
      "countryId": 4041468,
      "countryCode": "MP",
      "stateCode": "MP-S",
      "latitude": 15.16853,
      "longitude": 145.71016
    },
    {
      "id": 4041560,
      "name": "San Roque Village",
      "nativeName": "San Roque Village",
      "code": "MP-S-4041560",
      "countryId": 4041468,
      "countryCode": "MP",
      "stateCode": "MP-S",
      "latitude": 15.24889,
      "longitude": 145.77553
    },
    {
      "id": 4041561,
      "name": "San Vicente Village",
      "nativeName": "San Vicente Village",
      "code": "MP-S-4041561",
      "countryId": 4041468,
      "countryCode": "MP",
      "stateCode": "MP-S",
      "latitude": 15.15165,
      "longitude": 145.7376
    },
    {
      "id": 7267956,
      "name": "Susupe Village",
      "nativeName": "Susupe Village",
      "code": "MP-S-7267956",
      "countryId": 4041468,
      "countryCode": "MP",
      "stateCode": "MP-S",
      "latitude": 15.15634,
      "longitude": 145.70258
    },
    {
      "id": 4041619,
      "name": "Tanapag Village",
      "nativeName": "Tanapag Village",
      "code": "MP-S-4041619",
      "countryId": 4041468,
      "countryCode": "MP",
      "stateCode": "MP-S",
      "latitude": 15.24205,
      "longitude": 145.75626
    }
  ]
}