{
  "stateId": 3163480,
  "stateCode": "NO-02",
  "countryCode": "NO",
  "cities": [
    {
      "id": 3162656,
      "name": "Asker",
      "nativeName": "Asker",
      "code": "NO-02-3162656",
      "countryId": 3144096,
      "countryCode": "NO",
      "stateCode": "NO-02",
      "latitude": 59.83734,
      "longitude": 10.43595
    },
    {
      "id": 6453368,
      "name": "Aurskog-Høland",
      "nativeName": "Aurskog-Høland",
      "code": "NO-02-6453368",
      "countryId": 3144096,
      "countryCode": "NO",
      "stateCode": "NO-02",
      "latitude": 59.88321,
      "longitude": 11.56491
    },
    {
      "id": 3162212,
      "name": "Bærum",
      "nativeName": "Bærum",
      "code": "NO-02-3162212",
      "countryId": 3144096,
      "countryCode": "NO",
      "stateCode": "NO-02",
      "latitude": 59.88996,
      "longitude": 10.52649
    },
    {
      "id": 3158606,
      "name": "Eidsvoll",
      "nativeName": "Eidsvoll",
      "code": "NO-02-3158606",
      "countryId": 3144096,
      "countryCode": "NO",
      "stateCode": "NO-02",
      "latitude": 60.32893,
      "longitude": 11.26119
    },
    {
      "id": 3158260,
      "name": "Enebakk",
      "nativeName": "Enebakk",
      "code": "NO-02-3158260",
      "countryId": 3144096,
      "countryCode": "NO",
      "stateCode": "NO-02",
      "latitude": 59.76452,
      "longitude": 11.14492
    },
    {
      "id": 3156466,
      "name": "Frogn",
      "nativeName": "Frogn",
      "code": "NO-02-3156466",
      "countryId": 3144096,
      "countryCode": "NO",
      "stateCode": "NO-02",
      "latitude": 59.66665,
      "longitude": 10.63566
    },
    {
      "id": 3155709,
      "name": "Gjerdrum",
      "nativeName": "Gjerdrum",
      "code": "NO-02-3155709",
      "countryId": 3144096,
      "countryCode": "NO",
      "stateCode": "NO-02",
      "latitude": 60.07159,
      "longitude": 11.03597
    },
    {
      "id": 3151414,
      "name": "Hurdal",
      "nativeName": "Hurdal",
      "code": "NO-02-3151414",
      "countryId": 3144096,
      "countryCode": "NO",
      "stateCode": "NO-02",
      "latitude": 60.43518,
      "longitude": 11.06707
    },
    {
      "id": 3150840,
      "name": "Jevnaker",
      "nativeName": "Jevnaker",
      "code": "NO-02-3150840",
      "countryId": 3144096,
      "countryCode": "NO",
      "stateCode": "NO-02",
      "latitude": 60.2406,
      "longitude": 10.38587
    },
    {
      "id": 12110617,
      "name": "Lillestrøm",
      "nativeName": "Lillestrøm",
      "code": "NO-02-12110617",
      "countryId": 3144096,
      "countryCode": "NO",
      "stateCode": "NO-02",
      "latitude": 59.94842,
      "longitude": 11.20697
    },
    {
      "id": 3146759,
      "name": "Lunner",
      "nativeName": "Lunner",
      "code": "NO-02-3146759",
      "countryId": 3144096,
      "countryCode": "NO",
      "stateCode": "NO-02",
      "latitude": 60.29462,
      "longitude": 10.6086
    },
    {
      "id": 3146936,
      "name": "Lørenskog",
      "nativeName": "Lørenskog",
      "code": "NO-02-3146936",
      "countryId": 3144096,
      "countryCode": "NO",
      "stateCode": "NO-02",
      "latitude": 59.93209,
      "longitude": 10.96079
    },
    {
      "id": 3145014,
      "name": "Nannestad",
      "nativeName": "Nannestad",
      "code": "NO-02-3145014",
      "countryId": 3144096,
      "countryCode": "NO",
      "stateCode": "NO-02",
      "latitude": 60.21707,
      "longitude": 11.012
    },
    {
      "id": 6453364,
      "name": "Nes",
      "nativeName": "Nes",
      "code": "NO-02-6453364",
      "countryId": 3144096,
      "countryCode": "NO",
      "stateCode": "NO-02",
      "latitude": 60.12252,
      "longitude": 11.4657
    },
    {
      "id": 3144656,
      "name": "Nesodden",
      "nativeName": "Nesodden",
      "code": "NO-02-3144656",
      "countryId": 3144096,
      "countryCode": "NO",
      "stateCode": "NO-02",
      "latitude": 59.8422,
      "longitude": 10.6494
    },
    {
      "id": 3144549,
      "name": "Nittedal",
      "nativeName": "Nittedal",
      "code": "NO-02-3144549",
      "countryId": 3144096,
      "countryCode": "NO",
      "stateCode": "NO-02",
      "latitude": 60.04278,
      "longitude": 10.88167
    },
    {
      "id": 12110628,
      "name": "Nordre Follo",
      "nativeName": "Nordre Follo",
      "code": "NO-02-12110628",
      "countryId": 3144096,
      "countryCode": "NO",
      "stateCode": "NO-02",
      "latitude": 59.7413,
      "longitude": 10.87969
    },
    {
      "id": 3142561,
      "name": "Rælingen",
      "nativeName": "Rælingen",
      "code": "NO-02-3142561",
      "countryId": 3144096,
      "countryCode": "NO",
      "stateCode": "NO-02",
      "latitude": 59.92626,
      "longitude": 11.06527
    },
    {
      "id": 3133381,
      "name": "Ullensaker",
      "nativeName": "Ullensaker",
      "code": "NO-02-3133381",
      "countryId": 3144096,
      "countryCode": "NO",
      "stateCode": "NO-02",
      "latitude": 60.14401,
      "longitude": 11.17441
    },
    {
      "id": 3132050,
      "name": "Vestby",
      "nativeName": "Vestby",
      "code": "NO-02-3132050",
      "countryId": 3144096,
      "countryCode": "NO",
      "stateCode": "NO-02",
      "latitude": 59.60228,
      "longitude": 10.74807
    },
    {
      "id": 3162672,
      "name": "Ås",
      "nativeName": "Ås",
      "code": "NO-02-3162672",
      "countryId": 3144096,
      "countryCode": "NO",
      "stateCode": "NO-02",
      "latitude": 59.66366,
      "longitude": 10.79101
    }
  ]
}