{
  "stateId": 11862827,
  "stateCode": "NO-50",
  "countryCode": "NO",
  "cities": [
    {
      "id": 3157170,
      "name": "Flatanger",
      "nativeName": "Flatanger",
      "code": "NO-50-3157170",
      "countryId": 3144096,
      "countryCode": "NO",
      "stateCode": "NO-50",
      "latitude": 64.41282,
      "longitude": 11.03285
    },
    {
      "id": 3156441,
      "name": "Frosta",
      "nativeName": "Frosta",
      "code": "NO-50-3156441",
      "countryId": 3144096,
      "countryCode": "NO",
      "stateCode": "NO-50",
      "latitude": 63.5877,
      "longitude": 10.74135
    },
    {
      "id": 6453329,
      "name": "Frøya",
      "nativeName": "Frøya",
      "code": "NO-50-6453329",
      "countryId": 3144096,
      "countryCode": "NO",
      "stateCode": "NO-50",
      "latitude": 63.73005,
      "longitude": 8.82426
    },
    {
      "id": 3154905,
      "name": "Grong",
      "nativeName": "Grong",
      "code": "NO-50-3154905",
      "countryId": 3144096,
      "countryCode": "NO",
      "stateCode": "NO-50",
      "latitude": 64.46397,
      "longitude": 12.31114
    },
    {
      "id": 12110618,
      "name": "Heim",
      "nativeName": "Heim",
      "code": "NO-50-12110618",
      "countryId": 3144096,
      "countryCode": "NO",
      "stateCode": "NO-50",
      "latitude": 63.22124,
      "longitude": 8.87102
    },
    {
      "id": 3152623,
      "name": "Hitra",
      "nativeName": "Hitra",
      "code": "NO-50-3152623",
      "countryId": 3144096,
      "countryCode": "NO",
      "stateCode": "NO-50",
      "latitude": 63.54528,
      "longitude": 8.78029
    },
    {
      "id": 3154114,
      "name": "Holtålen",
      "nativeName": "Holtålen",
      "code": "NO-50-3154114",
      "countryId": 3144096,
      "countryCode": "NO",
      "stateCode": "NO-50",
      "latitude": 62.84318,
      "longitude": 11.29284
    },
    {
      "id": 7535697,
      "name": "Hopen",
      "nativeName": "Hopen",
      "code": "NO-50-7535697",
      "countryId": 3144096,
      "countryCode": "NO",
      "stateCode": "NO-50",
      "latitude": 76.57561,
      "longitude": 25.19714
    },
    {
      "id": 3151536,
      "name": "Høylandet",
      "nativeName": "Høylandet",
      "code": "NO-50-3151536",
      "countryId": 3144096,
      "countryCode": "NO",
      "stateCode": "NO-50",
      "latitude": 64.62759,
      "longitude": 12.30041
    },
    {
      "id": 3151158,
      "name": "Inderøy",
      "nativeName": "Inderøy",
      "code": "NO-50-3151158",
      "countryId": 3144096,
      "countryCode": "NO",
      "stateCode": "NO-50",
      "latitude": 63.87826,
      "longitude": 11.28424
    },
    {
      "id": 11862943,
      "name": "Indre Fosen",
      "nativeName": "Indre Fosen",
      "code": "NO-50-11862943",
      "countryId": 3144096,
      "countryCode": "NO",
      "stateCode": "NO-50",
      "latitude": 63.58897,
      "longitude": 9.95847
    },
    {
      "id": 3147796,
      "name": "Leka",
      "nativeName": "Leka",
      "code": "NO-50-3147796",
      "countryId": 3144096,
      "countryCode": "NO",
      "stateCode": "NO-50",
      "latitude": 65.09244,
      "longitude": 11.70513
    },
    {
      "id": 6453330,
      "name": "Levanger",
      "nativeName": "Levanger",
      "code": "NO-50-6453330",
      "countryId": 3144096,
      "countryCode": "NO",
      "stateCode": "NO-50",
      "latitude": 63.74585,
      "longitude": 11.29991
    },
    {
      "id": 6453327,
      "name": "Lierne",
      "nativeName": "Lierne",
      "code": "NO-50-6453327",
      "countryId": 3144096,
      "countryCode": "NO",
      "stateCode": "NO-50",
      "latitude": 64.46413,
      "longitude": 13.59249
    },
    {
      "id": 3146469,
      "name": "Malvik",
      "nativeName": "Malvik",
      "code": "NO-50-3146469",
      "countryId": 3144096,
      "countryCode": "NO",
      "stateCode": "NO-50",
      "latitude": 63.41057,
      "longitude": 10.79382
    },
    {
      "id": 3146123,
      "name": "Melhus",
      "nativeName": "Melhus",
      "code": "NO-50-3146123",
      "countryId": 3144096,
      "countryCode": "NO",
      "stateCode": "NO-50",
      "latitude": 63.28755,
      "longitude": 10.27686
    },
    {
      "id": 3146022,
      "name": "Meråker",
      "nativeName": "Meråker",
      "code": "NO-50-3146022",
      "countryId": 3144096,
      "countryCode": "NO",
      "stateCode": "NO-50",
      "latitude": 63.41423,
      "longitude": 11.74558
    },
    {
      "id": 6453335,
      "name": "Midtre Gauldal",
      "nativeName": "Midtre Gauldal",
      "code": "NO-50-6453335",
      "countryId": 3144096,
      "countryCode": "NO",
      "stateCode": "NO-50",
      "latitude": 63.03902,
      "longitude": 10.28701
    },
    {
      "id": 6453328,
      "name": "Namsos",
      "nativeName": "Namsos",
      "code": "NO-50-6453328",
      "countryId": 3144096,
      "countryCode": "NO",
      "stateCode": "NO-50",
      "latitude": 64.47842,
      "longitude": 11.54182
    },
    {
      "id": 3145020,
      "name": "Namsskogan",
      "nativeName": "Namsskogan",
      "code": "NO-50-3145020",
      "countryId": 3144096,
      "countryCode": "NO",
      "stateCode": "NO-50",
      "latitude": 64.92597,
      "longitude": 13.15932
    },
    {
      "id": 12110626,
      "name": "Nærøysund",
      "nativeName": "Nærøysund",
      "code": "NO-50-12110626",
      "countryId": 3144096,
      "countryCode": "NO",
      "stateCode": "NO-50",
      "latitude": 64.92788,
      "longitude": 11.78647
    },
    {
      "id": 3143508,
      "name": "Oppdal",
      "nativeName": "Oppdal",
      "code": "NO-50-3143508",
      "countryId": 3144096,
      "countryCode": "NO",
      "stateCode": "NO-50",
      "latitude": 62.59495,
      "longitude": 9.68761
    },
    {
      "id": 12110625,
      "name": "Orkland",
      "nativeName": "Orkland",
      "code": "NO-50-12110625",
      "countryId": 3144096,
      "countryCode": "NO",
      "stateCode": "NO-50",
      "latitude": 63.23018,
      "longitude": 9.69309
    },
    {
      "id": 3143262,
      "name": "Osen",
      "nativeName": "Osen",
      "code": "NO-50-3143262",
      "countryId": 3144096,
      "countryCode": "NO",
      "stateCode": "NO-50",
      "latitude": 64.29875,
      "longitude": 10.51284
    },
    {
      "id": 3143058,
      "name": "Overhalla",
      "nativeName": "Overhalla",
      "code": "NO-50-3143058",
      "countryId": 3144096,
      "countryCode": "NO",
      "stateCode": "NO-50",
      "latitude": 64.4938,
      "longitude": 11.94753
    },
    {
      "id": 3141967,
      "name": "Rennebu",
      "nativeName": "Rennebu",
      "code": "NO-50-3141967",
      "countryId": 3144096,
      "countryCode": "NO",
      "stateCode": "NO-50",
      "latitude": 62.82864,
      "longitude": 10.00487
    },
    {
      "id": 3141865,
      "name": "Rindal",
      "nativeName": "Rindal",
      "code": "NO-50-3141865",
      "countryId": 3144096,
      "countryCode": "NO",
      "stateCode": "NO-50",
      "latitude": 63.05511,
      "longitude": 9.21274
    },
    {
      "id": 6453339,
      "name": "Røros",
      "nativeName": "Røros",
      "code": "NO-50-6453339",
      "countryId": 3144096,
      "countryCode": "NO",
      "stateCode": "NO-50",
      "latitude": 62.57562,
      "longitude": 11.3873
    },
    {
      "id": 3141059,
      "name": "Røyrvik",
      "nativeName": "Raarvihke - Røyrvik",
      "code": "NO-50-3141059",
      "countryId": 3144096,
      "countryCode": "NO",
      "stateCode": "NO-50",
      "latitude": 64.8838,
      "longitude": 13.5631
    },
    {
      "id": 3139940,
      "name": "Selbu",
      "nativeName": "Selbu",
      "code": "NO-50-3139940",
      "countryId": 3144096,
      "countryCode": "NO",
      "stateCode": "NO-50",
      "latitude": 63.2177,
      "longitude": 11.03938
    },
    {
      "id": 3139147,
      "name": "Skaun",
      "nativeName": "Skaun",
      "code": "NO-50-3139147",
      "countryId": 3144096,
      "countryCode": "NO",
      "stateCode": "NO-50",
      "latitude": 63.32386,
      "longitude": 10.06745
    },
    {
      "id": 3138075,
      "name": "Snasa",
      "nativeName": "Snåase - Snåsa",
      "code": "NO-50-3138075",
      "countryId": 3144096,
      "countryCode": "NO",
      "stateCode": "NO-50",
      "latitude": 64.24606,
      "longitude": 12.38294
    },
    {
      "id": 3136944,
      "name": "Steinkjer",
      "nativeName": "Steinkjer",
      "code": "NO-50-3136944",
      "countryId": 3144096,
      "countryCode": "NO",
      "stateCode": "NO-50",
      "latitude": 64.19303,
      "longitude": 11.38505
    },
    {
      "id": 3136768,
      "name": "Stjørdal",
      "nativeName": "Stjørdal",
      "code": "NO-50-3136768",
      "countryId": 3144096,
      "countryCode": "NO",
      "stateCode": "NO-50",
      "latitude": 63.56699,
      "longitude": 11.0273
    },
    {
      "id": 3133881,
      "name": "Trondheim",
      "nativeName": "Trondheim",
      "code": "NO-50-3133881",
      "countryId": 3144096,
      "countryCode": "NO",
      "stateCode": "NO-50",
      "latitude": 63.42811,
      "longitude": 10.39687
    },
    {
      "id": 3133517,
      "name": "Tydal",
      "nativeName": "Tydal",
      "code": "NO-50-3133517",
      "countryId": 3144096,
      "countryCode": "NO",
      "stateCode": "NO-50",
      "latitude": 63.04477,
      "longitude": 11.65038
    },
    {
      "id": 3132178,
      "name": "Verdal",
      "nativeName": "Verdal",
      "code": "NO-50-3132178",
      "countryId": 3144096,
      "countryCode": "NO",
      "stateCode": "NO-50",
      "latitude": 63.90023,
      "longitude": 11.72724
    },
    {
      "id": 3163537,
      "name": "Åfjord",
      "nativeName": "Åfjord",
      "code": "NO-50-3163537",
      "countryId": 3144096,
      "countryCode": "NO",
      "stateCode": "NO-50",
      "latitude": 63.96196,
      "longitude": 10.22587
    },
    {
      "id": 3143410,
      "name": "Ørland",
      "nativeName": "Ørland",
      "code": "NO-50-3143410",
      "countryId": 3144096,
      "countryCode": "NO",
      "stateCode": "NO-50",
      "latitude": 63.68574,
      "longitude": 9.66633
    }
  ]
}