{
  "stateId": 3625035,
  "stateCode": "VE-V",
  "countryCode": "VE",
  "cities": [
    {
      "id": 8131511,
      "name": "Almirante Padilla Municipality",
      "nativeName": "Municipio Almirante Padilla",
      "code": "VE-V-8131511",
      "countryId": 3625428,
      "countryCode": "VE",
      "stateCode": "VE-V",
      "latitude": 10.954,
      "longitude": -71.64906
    },
    {
      "id": 3648586,
      "name": "Baralt Municipality",
      "nativeName": "Municipio Baralt",
      "code": "VE-V-3648586",
      "countryId": 3625428,
      "countryCode": "VE",
      "stateCode": "VE-V",
      "latitude": 9.83333,
      "longitude": -70.91667
    },
    {
      "id": 8129199,
      "name": "Cabimas Municipality",
      "nativeName": "Municipio Cabimas",
      "code": "VE-V-8129199",
      "countryId": 3625428,
      "countryCode": "VE",
      "stateCode": "VE-V",
      "latitude": 10.36667,
      "longitude": -71.4
    },
    {
      "id": 8129217,
      "name": "Catatumbo Municipality",
      "nativeName": "Municipio Catatumbo",
      "code": "VE-V-8129217",
      "countryId": 3625428,
      "countryCode": "VE",
      "stateCode": "VE-V",
      "latitude": 9.06085,
      "longitude": -72.23413
    },
    {
      "id": 3645361,
      "name": "Colón Municipality",
      "nativeName": "Municipio Colón",
      "code": "VE-V-3645361",
      "countryId": 3625428,
      "countryCode": "VE",
      "stateCode": "VE-V",
      "latitude": 9,
      "longitude": -72.08333
    },
    {
      "id": 8131512,
      "name": "Francisco Javier Pulgar Municipality",
      "nativeName": "Municipio Francisco Javier Pulgar",
      "code": "VE-V-8131512",
      "countryId": 3625428,
      "countryCode": "VE",
      "stateCode": "VE-V",
      "latitude": 8.9635,
      "longitude": -71.6173
    },
    {
      "id": 8131513,
      "name": "Jesús Enrique Lossada Municipality",
      "nativeName": "Municipio Jesús Enrique Lossada",
      "code": "VE-V-8131513",
      "countryId": 3625428,
      "countryCode": "VE",
      "stateCode": "VE-V",
      "latitude": 10.62062,
      "longitude": -71.83651
    },
    {
      "id": 8129265,
      "name": "Jesús María Semprún Municipality",
      "nativeName": "Municipio Jesús María Semprún",
      "code": "VE-V-8129265",
      "countryId": 3625428,
      "countryCode": "VE",
      "stateCode": "VE-V",
      "latitude": 8.74493,
      "longitude": -72.51967
    },
    {
      "id": 8129197,
      "name": "La Cañada de Urdaneta  Municipality",
      "nativeName": "Municipio La Cañada de Urdaneta",
      "code": "VE-V-8129197",
      "countryId": 3625428,
      "countryCode": "VE",
      "stateCode": "VE-V",
      "latitude": 10.478,
      "longitude": -71.99477
    },
    {
      "id": 8129209,
      "name": "Lagunillas Municipality",
      "nativeName": "Municipio Lagunillas",
      "code": "VE-V-8129209",
      "countryId": 3625428,
      "countryCode": "VE",
      "stateCode": "VE-V",
      "latitude": 10.19635,
      "longitude": -71.30818
    },
    {
      "id": 3633019,
      "name": "Mara Municipality",
      "nativeName": "Municipio Mara",
      "code": "VE-V-3633019",
      "countryId": 3625428,
      "countryCode": "VE",
      "stateCode": "VE-V",
      "latitude": 10.91667,
      "longitude": -72.08333
    },
    {
      "id": 3633006,
      "name": "Maracaibo Municipality",
      "nativeName": "Municipio Maracaibo",
      "code": "VE-V-3633006",
      "countryId": 3625428,
      "countryCode": "VE",
      "stateCode": "VE-V",
      "latitude": 10.74147,
      "longitude": -71.74232
    },
    {
      "id": 3632193,
      "name": "Miranda. Municipality",
      "nativeName": "Municipio Miranda",
      "code": "VE-V-3632193",
      "countryId": 3625428,
      "countryCode": "VE",
      "stateCode": "VE-V",
      "latitude": 10.75,
      "longitude": -71.25
    },
    {
      "id": 3631168,
      "name": "Municipio Guajira",
      "nativeName": "Municipio Guajira",
      "code": "VE-V-3631168",
      "countryId": 3625428,
      "countryCode": "VE",
      "stateCode": "VE-V",
      "latitude": 11.33333,
      "longitude": -72
    },
    {
      "id": 8129198,
      "name": "Municipio Machiques de Perijá",
      "nativeName": "Municipio Machiques de Perijá",
      "code": "VE-V-8129198",
      "countryId": 3625428,
      "countryCode": "VE",
      "stateCode": "VE-V",
      "latitude": 10.06444,
      "longitude": -72.545
    },
    {
      "id": 8131514,
      "name": "Rosario de Perijá Municipality",
      "nativeName": "Municipio Rosario de Perijá",
      "code": "VE-V-8131514",
      "countryId": 3625428,
      "countryCode": "VE",
      "stateCode": "VE-V",
      "latitude": 10.32573,
      "longitude": -72.31441
    },
    {
      "id": 8131515,
      "name": "San Francisco Municipality",
      "nativeName": "Municipio San Francisco",
      "code": "VE-V-8131515",
      "countryId": 3625428,
      "countryCode": "VE",
      "stateCode": "VE-V",
      "latitude": 10.55448,
      "longitude": -71.70605
    },
    {
      "id": 8131516,
      "name": "Santa Rita Municipality",
      "nativeName": "Municipio Santa Rita",
      "code": "VE-V-8131516",
      "countryId": 3625428,
      "countryCode": "VE",
      "stateCode": "VE-V",
      "latitude": 10.53473,
      "longitude": -71.50692
    },
    {
      "id": 8129196,
      "name": "Simón Bolívar Municipality",
      "nativeName": "Municipio Simón Bolívar",
      "code": "VE-V-8129196",
      "countryId": 3625428,
      "countryCode": "VE",
      "stateCode": "VE-V",
      "latitude": 10.25838,
      "longitude": -71.36865
    },
    {
      "id": 3626661,
      "name": "Sucrev Municipality",
      "nativeName": "Municipio Sucre",
      "code": "VE-V-3626661",
      "countryId": 3625428,
      "countryCode": "VE",
      "stateCode": "VE-V",
      "latitude": 9.08333,
      "longitude": -71.25
    },
    {
      "id": 8131517,
      "name": "Valmore Rodríguez",
      "nativeName": "Municipio Valmore Rodríguez",
      "code": "VE-V-8131517",
      "countryId": 3625428,
      "countryCode": "VE",
      "stateCode": "VE-V",
      "latitude": 9.9702,
      "longitude": -71.14729
    }
  ]
}