{
  "stateId": 1607530,
  "stateCode": "TH-14",
  "countryCode": "TH",
  "cities": [
    {
      "id": 1614107,
      "name": "Ban Phraek",
      "nativeName": "Amphoe Ban Phraek",
      "code": "TH-14-1614107",
      "countryId": 1605651,
      "countryCode": "TH",
      "stateCode": "TH-14",
      "latitude": 14.64381,
      "longitude": 100.54883
    },
    {
      "id": 1619615,
      "name": "Bang Ban",
      "nativeName": "Amphoe Bang Ban",
      "code": "TH-14-1619615",
      "countryId": 1605651,
      "countryCode": "TH",
      "stateCode": "TH-14",
      "latitude": 14.38333,
      "longitude": 100.46667
    },
    {
      "id": 1619368,
      "name": "Bang Pa-in",
      "nativeName": "Amphoe Bang Pa-in",
      "code": "TH-14-1619368",
      "countryId": 1605651,
      "countryCode": "TH",
      "stateCode": "TH-14",
      "latitude": 14.23482,
      "longitude": 100.5941
    },
    {
      "id": 1619370,
      "name": "Bang Pahan",
      "nativeName": "Amphoe Bang Pahan",
      "code": "TH-14-1619370",
      "countryId": 1605651,
      "countryCode": "TH",
      "stateCode": "TH-14",
      "latitude": 14.47174,
      "longitude": 100.54731
    },
    {
      "id": 11496463,
      "name": "Bang Sai (East)",
      "nativeName": "Amphoe Bang Sai",
      "code": "TH-14-11496463",
      "countryId": 1605651,
      "countryCode": "TH",
      "stateCode": "TH-14",
      "latitude": 14.21043,
      "longitude": 100.49422
    },
    {
      "id": 1619260,
      "name": "Bang Sai (West)",
      "nativeName": "Amphoe Bang Sai",
      "code": "TH-14-1619260",
      "countryId": 1605651,
      "countryCode": "TH",
      "stateCode": "TH-14",
      "latitude": 14.31719,
      "longitude": 100.29764
    },
    {
      "id": 1609140,
      "name": "Lat Bua Luang",
      "nativeName": "Amphoe Lat Bua Luang",
      "code": "TH-14-1609140",
      "countryId": 1605651,
      "countryCode": "TH",
      "stateCode": "TH-14",
      "latitude": 14.1681,
      "longitude": 100.34892
    },
    {
      "id": 1608901,
      "name": "Maha Rat",
      "nativeName": "Amphoe Maha Rat",
      "code": "TH-14-1608901",
      "countryId": 1605651,
      "countryCode": "TH",
      "stateCode": "TH-14",
      "latitude": 14.57064,
      "longitude": 100.54089
    },
    {
      "id": 1608540,
      "name": "Nakhon Luang",
      "nativeName": "Amphoe Nakhon Luang",
      "code": "TH-14-1608540",
      "countryId": 1605651,
      "countryCode": "TH",
      "stateCode": "TH-14",
      "latitude": 14.46703,
      "longitude": 100.62572
    },
    {
      "id": 1607957,
      "name": "Phachi",
      "nativeName": "Amphoe Phachi",
      "code": "TH-14-1607957",
      "countryId": 1605651,
      "countryCode": "TH",
      "stateCode": "TH-14",
      "latitude": 14.43795,
      "longitude": 100.7278
    },
    {
      "id": 1607864,
      "name": "Phak Hai",
      "nativeName": "Amphoe Phak Hai",
      "code": "TH-14-1607864",
      "countryId": 1605651,
      "countryCode": "TH",
      "stateCode": "TH-14",
      "latitude": 14.45073,
      "longitude": 100.33949
    },
    {
      "id": 1607531,
      "name": "Phra Nakhon Si Ayutthaya",
      "nativeName": "Amphoe Phra Nakhon Si Ayutthaya",
      "code": "TH-14-1607531",
      "countryId": 1605651,
      "countryCode": "TH",
      "stateCode": "TH-14",
      "latitude": 14.35172,
      "longitude": 100.56719
    },
    {
      "id": 1606335,
      "name": "Sena",
      "nativeName": "Amphoe Sena",
      "code": "TH-14-1606335",
      "countryId": 1605651,
      "countryCode": "TH",
      "stateCode": "TH-14",
      "latitude": 14.29605,
      "longitude": 100.37486
    },
    {
      "id": 1605508,
      "name": "Tha Ruea",
      "nativeName": "Amphoe Tha Ruea",
      "code": "TH-14-1605508",
      "countryId": 1605651,
      "countryCode": "TH",
      "stateCode": "TH-14",
      "latitude": 14.53587,
      "longitude": 100.71268
    },
    {
      "id": 1605222,
      "name": "Uthai",
      "nativeName": "Amphoe Uthai",
      "code": "TH-14-1605222",
      "countryId": 1605651,
      "countryCode": "TH",
      "stateCode": "TH-14",
      "latitude": 14.35321,
      "longitude": 100.69643
    },
    {
      "id": 1605117,
      "name": "Wang Noi",
      "nativeName": "Amphoe Wang Noi",
      "code": "TH-14-1605117",
      "countryId": 1605651,
      "countryCode": "TH",
      "stateCode": "TH-14",
      "latitude": 14.24348,
      "longitude": 100.725
    }
  ]
}