{
  "stateId": 1609031,
  "stateCode": "TH-16",
  "countryCode": "TH",
  "cities": [
    {
      "id": 1616664,
      "name": "Ban Mi",
      "nativeName": "Amphoe Ban Mi",
      "code": "TH-16-1616664",
      "countryId": 1605651,
      "countryCode": "TH",
      "stateCode": "TH-16",
      "latitude": 15.06154,
      "longitude": 100.552
    },
    {
      "id": 1611423,
      "name": "Chai Badan",
      "nativeName": "Amphoe Chai Badan",
      "code": "TH-16-1611423",
      "countryId": 1605651,
      "countryCode": "TH",
      "stateCode": "TH-16",
      "latitude": 15.18944,
      "longitude": 101.12682
    },
    {
      "id": 7510688,
      "name": "Khok Charoen",
      "nativeName": "Amphoe Khok Charoen",
      "code": "TH-16-7510688",
      "countryId": 1605651,
      "countryCode": "TH",
      "stateCode": "TH-16",
      "latitude": 15.40384,
      "longitude": 100.84968
    },
    {
      "id": 1609811,
      "name": "Khok Samrong",
      "nativeName": "Amphoe Khok Samrong",
      "code": "TH-16-1609811",
      "countryId": 1605651,
      "countryCode": "TH",
      "stateCode": "TH-16",
      "latitude": 15.04303,
      "longitude": 100.77151
    },
    {
      "id": 7510713,
      "name": "Lam Sonthi",
      "nativeName": "Amphoe Lam Sonthi",
      "code": "TH-16-7510713",
      "countryId": 1605651,
      "countryCode": "TH",
      "stateCode": "TH-16",
      "latitude": 15.32833,
      "longitude": 101.34783
    },
    {
      "id": 1608652,
      "name": "Mueang Lop Buri",
      "nativeName": "Muang Lop Buri District",
      "code": "TH-16-1608652",
      "countryId": 1605651,
      "countryCode": "TH",
      "stateCode": "TH-16",
      "latitude": 14.82334,
      "longitude": 100.67557
    },
    {
      "id": 7510690,
      "name": "Nong Muang",
      "nativeName": "Amphoe Nong Muang",
      "code": "TH-16-7510690",
      "countryId": 1605651,
      "countryCode": "TH",
      "stateCode": "TH-16",
      "latitude": 15.2774,
      "longitude": 100.70413
    },
    {
      "id": 1607777,
      "name": "Phatthana Nikhom",
      "nativeName": "Amphoe Phatthana Nikhom",
      "code": "TH-16-1607777",
      "countryId": 1605651,
      "countryCode": "TH",
      "stateCode": "TH-16",
      "latitude": 14.90917,
      "longitude": 101.02673
    },
    {
      "id": 7510689,
      "name": "Sa Bot",
      "nativeName": "Amphoe Sa Bot",
      "code": "TH-16-7510689",
      "countryId": 1605651,
      "countryCode": "TH",
      "stateCode": "TH-16",
      "latitude": 15.23832,
      "longitude": 100.88318
    },
    {
      "id": 7510714,
      "name": "Tha Luang",
      "nativeName": "Amphoe Tha Luang",
      "code": "TH-16-7510714",
      "countryId": 1605651,
      "countryCode": "TH",
      "stateCode": "TH-16",
      "latitude": 15.04786,
      "longitude": 101.19986
    },
    {
      "id": 1605468,
      "name": "Tha Wung",
      "nativeName": "Amphoe Tha Wung",
      "code": "TH-16-1605468",
      "countryId": 1605651,
      "countryCode": "TH",
      "stateCode": "TH-16",
      "latitude": 14.82506,
      "longitude": 100.50921
    }
  ]
}