{
  "stateId": 1611438,
  "stateCode": "TH-24",
  "countryCode": "TH",
  "cities": [
    {
      "id": 1614231,
      "name": "Ban Pho",
      "nativeName": "Amphoe Ban Pho",
      "code": "TH-24-1614231",
      "countryId": 1605651,
      "countryCode": "TH",
      "stateCode": "TH-24",
      "latitude": 13.61,
      "longitude": 101.07838
    },
    {
      "id": 1619497,
      "name": "Bang Khla",
      "nativeName": "Amphoe Bang Khla",
      "code": "TH-24-1619497",
      "countryId": 1605651,
      "countryCode": "TH",
      "stateCode": "TH-24",
      "latitude": 13.74186,
      "longitude": 101.20754
    },
    {
      "id": 1619390,
      "name": "Bang Nam Priao",
      "nativeName": "Amphoe Bang Nam Priao",
      "code": "TH-24-1619390",
      "countryId": 1605651,
      "countryCode": "TH",
      "stateCode": "TH-24",
      "latitude": 13.88034,
      "longitude": 101.03232
    },
    {
      "id": 1619362,
      "name": "Bang Pakong",
      "nativeName": "Amphoe Bang Pakong",
      "code": "TH-24-1619362",
      "countryId": 1605651,
      "countryCode": "TH",
      "stateCode": "TH-24",
      "latitude": 13.53241,
      "longitude": 100.96045
    },
    {
      "id": 7510709,
      "name": "Khlong Khuean",
      "nativeName": "Amphoe Khlong Khuean",
      "code": "TH-24-7510709",
      "countryId": 1605651,
      "countryCode": "TH",
      "stateCode": "TH-24",
      "latitude": 13.77961,
      "longitude": 101.15633
    },
    {
      "id": 1608663,
      "name": "Mueang Chachoengsao",
      "nativeName": "Amphoe Mueang Chachoengsao",
      "code": "TH-24-1608663",
      "countryId": 1605651,
      "countryCode": "TH",
      "stateCode": "TH-24",
      "latitude": 13.71758,
      "longitude": 101.02152
    },
    {
      "id": 1607800,
      "name": "Phanom Sarakham",
      "nativeName": "Amphoe Phanom Sarakham",
      "code": "TH-24-1607800",
      "countryId": 1605651,
      "countryCode": "TH",
      "stateCode": "TH-24",
      "latitude": 13.73806,
      "longitude": 101.41202
    },
    {
      "id": 7510708,
      "name": "Plaeng Yao",
      "nativeName": "Amphoe Plaeng Yao",
      "code": "TH-24-7510708",
      "countryId": 1605651,
      "countryCode": "TH",
      "stateCode": "TH-24",
      "latitude": 13.56381,
      "longitude": 101.33972
    },
    {
      "id": 7510707,
      "name": "Ratchasan",
      "nativeName": "Amphoe Ratchasan",
      "code": "TH-24-7510707",
      "countryId": 1605651,
      "countryCode": "TH",
      "stateCode": "TH-24",
      "latitude": 13.7866,
      "longitude": 101.28136
    },
    {
      "id": 1606569,
      "name": "Sanam Chai Khet",
      "nativeName": "Amphoe Sanam Chai Khet",
      "code": "TH-24-1606569",
      "countryId": 1605651,
      "countryCode": "TH",
      "stateCode": "TH-24",
      "latitude": 13.62612,
      "longitude": 101.65475
    },
    {
      "id": 7510724,
      "name": "Tha Takiap",
      "nativeName": "Amphoe Tha Takiap",
      "code": "TH-24-7510724",
      "countryId": 1605651,
      "countryCode": "TH",
      "stateCode": "TH-24",
      "latitude": 13.3951,
      "longitude": 101.73457
    }
  ]
}