{
  "stateId": 1153670,
  "stateCode": "TH-50",
  "countryCode": "TH",
  "cities": [
    {
      "id": 7505711,
      "name": "Chai Prakan",
      "nativeName": "Amphoe Chai Prakan",
      "code": "TH-50-7505711",
      "countryId": 1605651,
      "countryCode": "TH",
      "stateCode": "TH-50",
      "latitude": 19.674,
      "longitude": 99.17478
    },
    {
      "id": 1153672,
      "name": "Chiang Dao",
      "nativeName": "Amphoe Chiang Dao",
      "code": "TH-50-1153672",
      "countryId": 1605651,
      "countryCode": "TH",
      "stateCode": "TH-50",
      "latitude": 19.51279,
      "longitude": 98.9418
    },
    {
      "id": 1153633,
      "name": "Chom Thong",
      "nativeName": "Amphoe Chom Thong",
      "code": "TH-50-1153633",
      "countryId": 1605651,
      "countryCode": "TH",
      "stateCode": "TH-50",
      "latitude": 18.39242,
      "longitude": 98.59761
    },
    {
      "id": 7510616,
      "name": "Doi Lo",
      "nativeName": "Amphoe Doi Lo",
      "code": "TH-50-7510616",
      "countryId": 1605651,
      "countryCode": "TH",
      "stateCode": "TH-50",
      "latitude": 18.5333,
      "longitude": 98.76843
    },
    {
      "id": 1153468,
      "name": "Doi Saket",
      "nativeName": "Amphoe Doi Saket",
      "code": "TH-50-1153468",
      "countryId": 1605651,
      "countryCode": "TH",
      "stateCode": "TH-50",
      "latitude": 18.92372,
      "longitude": 99.21272
    },
    {
      "id": 7510615,
      "name": "Doi Tao",
      "nativeName": "Amphoe Doi Tao",
      "code": "TH-50-7510615",
      "countryId": 1605651,
      "countryCode": "TH",
      "stateCode": "TH-50",
      "latitude": 17.89703,
      "longitude": 98.66292
    },
    {
      "id": 1153426,
      "name": "Fang",
      "nativeName": "Amphoe Fang",
      "code": "TH-50-1153426",
      "countryId": 1605651,
      "countryCode": "TH",
      "stateCode": "TH-50",
      "latitude": 19.8755,
      "longitude": 99.16345
    },
    {
      "id": 7524616,
      "name": "Galyani Vadhana",
      "nativeName": "Amphoe Galyani Vadhana",
      "code": "TH-50-7524616",
      "countryId": 1605651,
      "countryCode": "TH",
      "stateCode": "TH-50",
      "latitude": 18.94439,
      "longitude": 98.30329
    },
    {
      "id": 1153385,
      "name": "Hang Dong",
      "nativeName": "Amphoe Hang Dong",
      "code": "TH-50-1153385",
      "countryId": 1605651,
      "countryCode": "TH",
      "stateCode": "TH-50",
      "latitude": 18.73869,
      "longitude": 98.88439
    },
    {
      "id": 1153277,
      "name": "Hot",
      "nativeName": "Amphoe Hot",
      "code": "TH-50-1153277",
      "countryId": 1605651,
      "countryCode": "TH",
      "stateCode": "TH-50",
      "latitude": 18.11581,
      "longitude": 98.46377
    },
    {
      "id": 1152233,
      "name": "Mae Ai",
      "nativeName": "Amphoe Mae Ai",
      "code": "TH-50-1152233",
      "countryId": 1605651,
      "countryCode": "TH",
      "stateCode": "TH-50",
      "latitude": 19.99136,
      "longitude": 99.33976
    },
    {
      "id": 1152229,
      "name": "Mae Chaem",
      "nativeName": "Amphoe Mae Chaem",
      "code": "TH-50-1152229",
      "countryId": 1605651,
      "countryCode": "TH",
      "stateCode": "TH-50",
      "latitude": 18.66694,
      "longitude": 98.3245
    },
    {
      "id": 7420875,
      "name": "Mae On",
      "nativeName": "Amphoe Mae On",
      "code": "TH-50-7420875",
      "countryId": 1605651,
      "countryCode": "TH",
      "stateCode": "TH-50",
      "latitude": 18.73496,
      "longitude": 99.30378
    },
    {
      "id": 1152195,
      "name": "Mae Rim",
      "nativeName": "Amphoe Mae Rim",
      "code": "TH-50-1152195",
      "countryId": 1605651,
      "countryCode": "TH",
      "stateCode": "TH-50",
      "latitude": 18.94139,
      "longitude": 98.88667
    },
    {
      "id": 1152182,
      "name": "Mae Taeng",
      "nativeName": "Amphoe Mae Taeng",
      "code": "TH-50-1152182",
      "countryId": 1605651,
      "countryCode": "TH",
      "stateCode": "TH-50",
      "latitude": 19.16667,
      "longitude": 98.83333
    },
    {
      "id": 7510635,
      "name": "Mae Wang",
      "nativeName": "Amphoe Mae Wang",
      "code": "TH-50-7510635",
      "countryId": 1605651,
      "countryCode": "TH",
      "stateCode": "TH-50",
      "latitude": 18.67457,
      "longitude": 98.68714
    },
    {
      "id": 1152000,
      "name": "Mueang Chiang Mai",
      "nativeName": "Amphoe Mueang Chiang Mai",
      "code": "TH-50-1152000",
      "countryId": 1605651,
      "countryCode": "TH",
      "stateCode": "TH-50",
      "latitude": 18.79008,
      "longitude": 98.96869
    },
    {
      "id": 1151633,
      "name": "Omkoi",
      "nativeName": "Amphoe Om Koi",
      "code": "TH-50-1151633",
      "countryId": 1605651,
      "countryCode": "TH",
      "stateCode": "TH-50",
      "latitude": 17.69842,
      "longitude": 98.35433
    },
    {
      "id": 1151302,
      "name": "Phrao",
      "nativeName": "Amphoe Phrao",
      "code": "TH-50-1151302",
      "countryId": 1605651,
      "countryCode": "TH",
      "stateCode": "TH-50",
      "latitude": 19.2846,
      "longitude": 99.22277
    },
    {
      "id": 1150782,
      "name": "Samoeng",
      "nativeName": "Amphoe Samoeng",
      "code": "TH-50-1150782",
      "countryId": 1605651,
      "countryCode": "TH",
      "stateCode": "TH-50",
      "latitude": 18.90027,
      "longitude": 98.6565
    },
    {
      "id": 1150731,
      "name": "San Kamphaeng",
      "nativeName": "Amphoe San Kamphaeng",
      "code": "TH-50-1150731",
      "countryId": 1605651,
      "countryCode": "TH",
      "stateCode": "TH-50",
      "latitude": 18.73497,
      "longitude": 99.18609
    },
    {
      "id": 1150727,
      "name": "San Pa Tong",
      "nativeName": "Amphoe San Pa Tong",
      "code": "TH-50-1150727",
      "countryId": 1605651,
      "countryCode": "TH",
      "stateCode": "TH-50",
      "latitude": 18.60567,
      "longitude": 98.88531
    },
    {
      "id": 1150725,
      "name": "San Sai",
      "nativeName": "Amphoe San Sai",
      "code": "TH-50-1150725",
      "countryId": 1605651,
      "countryCode": "TH",
      "stateCode": "TH-50",
      "latitude": 18.94101,
      "longitude": 99.04048
    },
    {
      "id": 1150699,
      "name": "Saraphi",
      "nativeName": "Amphoe Saraphi",
      "code": "TH-50-1150699",
      "countryId": 1605651,
      "countryCode": "TH",
      "stateCode": "TH-50",
      "latitude": 18.70511,
      "longitude": 99.02989
    },
    {
      "id": 7509793,
      "name": "Wiang Haeng",
      "nativeName": "Amphoe Wiang Haeng",
      "code": "TH-50-7509793",
      "countryId": 1605651,
      "countryCode": "TH",
      "stateCode": "TH-50",
      "latitude": 19.59188,
      "longitude": 98.65845
    }
  ]
}