{
  "stateId": 1152631,
  "stateCode": "TH-81",
  "countryCode": "TH",
  "cities": [
    {
      "id": 6957696,
      "name": "Ao Luek",
      "nativeName": "Amphoe Ao Luek",
      "code": "TH-81-6957696",
      "countryId": 1605651,
      "countryCode": "TH",
      "stateCode": "TH-81",
      "latitude": 8.38526,
      "longitude": 98.75378
    },
    {
      "id": 7511032,
      "name": "Khao Phanom",
      "nativeName": "Amphoe Khao Phanom",
      "code": "TH-81-7511032",
      "countryId": 1605651,
      "countryCode": "TH",
      "stateCode": "TH-81",
      "latitude": 8.26953,
      "longitude": 99.11813
    },
    {
      "id": 1152842,
      "name": "Khlong Thom",
      "nativeName": "Amphoe Khlong Thom",
      "code": "TH-81-1152842",
      "countryId": 1605651,
      "countryCode": "TH",
      "stateCode": "TH-81",
      "latitude": 7.9147,
      "longitude": 99.19935
    },
    {
      "id": 1152669,
      "name": "Ko Lanta",
      "nativeName": "Amphoe Ko Lanta",
      "code": "TH-81-1152669",
      "countryId": 1605651,
      "countryCode": "TH",
      "stateCode": "TH-81",
      "latitude": 7.71267,
      "longitude": 99.07813
    },
    {
      "id": 7510620,
      "name": "Lam Thap",
      "nativeName": "Amphoe Lam Thap",
      "code": "TH-81-7510620",
      "countryId": 1605651,
      "countryCode": "TH",
      "stateCode": "TH-81",
      "latitude": 8.04799,
      "longitude": 99.33543
    },
    {
      "id": 1151992,
      "name": "Mueang Krabi",
      "nativeName": "Amphoe Mueang Krabi",
      "code": "TH-81-1151992",
      "countryId": 1605651,
      "countryCode": "TH",
      "stateCode": "TH-81",
      "latitude": 8.15947,
      "longitude": 98.86661
    },
    {
      "id": 7511034,
      "name": "Nuea Khlong",
      "nativeName": "Amphoe Nuea Khlong",
      "code": "TH-81-7511034",
      "countryId": 1605651,
      "countryCode": "TH",
      "stateCode": "TH-81",
      "latitude": 8.06058,
      "longitude": 99.04039
    },
    {
      "id": 7510612,
      "name": "Plai Phraya",
      "nativeName": "Amphoe Plai Phraya",
      "code": "TH-81-7510612",
      "countryId": 1605651,
      "countryCode": "TH",
      "stateCode": "TH-81",
      "latitude": 8.54087,
      "longitude": 98.83671
    }
  ]
}