{
  "stateId": 3337515,
  "stateCode": "HR-04",
  "countryCode": "HR",
  "cities": [
    {
      "id": 11049267,
      "name": "Bosiljevo",
      "nativeName": "Općina Bosiljevo",
      "code": "HR-04-11049267",
      "countryId": 3202326,
      "countryCode": "HR",
      "stateCode": "HR-04",
      "latitude": 45.40239,
      "longitude": 15.28542
    },
    {
      "id": 11049266,
      "name": "Municipality of Barilović",
      "nativeName": "Barilović",
      "code": "HR-04-11049266",
      "countryId": 3202326,
      "countryCode": "HR",
      "stateCode": "HR-04",
      "latitude": 45.38241,
      "longitude": 15.54943
    },
    {
      "id": 11049268,
      "name": "Municipality of Cetingrad",
      "nativeName": "Cetingrad",
      "code": "HR-04-11049268",
      "countryId": 3202326,
      "countryCode": "HR",
      "stateCode": "HR-04",
      "latitude": 45.15909,
      "longitude": 15.73877
    },
    {
      "id": 11049269,
      "name": "Municipality of Draganić",
      "nativeName": "Draganić",
      "code": "HR-04-11049269",
      "countryId": 3202326,
      "countryCode": "HR",
      "stateCode": "HR-04",
      "latitude": 45.60088,
      "longitude": 15.59818
    },
    {
      "id": 11049270,
      "name": "Municipality of Generalski Stol",
      "nativeName": "Općina Generalski Stol",
      "code": "HR-04-11049270",
      "countryId": 3202326,
      "countryCode": "HR",
      "stateCode": "HR-04",
      "latitude": 45.34185,
      "longitude": 15.37554
    },
    {
      "id": 11049271,
      "name": "Municipality of Josipdol",
      "nativeName": "Općina Josipdol",
      "code": "HR-04-11049271",
      "countryId": 3202326,
      "countryCode": "HR",
      "stateCode": "HR-04",
      "latitude": 45.19391,
      "longitude": 15.28868
    },
    {
      "id": 11049272,
      "name": "Municipality of Kamanje",
      "nativeName": "Kamanje",
      "code": "HR-04-11049272",
      "countryId": 3202326,
      "countryCode": "HR",
      "stateCode": "HR-04",
      "latitude": 45.63395,
      "longitude": 15.39322
    },
    {
      "id": 11049273,
      "name": "Municipality of Krnjak",
      "nativeName": "Krnjak",
      "code": "HR-04-11049273",
      "countryId": 3202326,
      "countryCode": "HR",
      "stateCode": "HR-04",
      "latitude": 45.33591,
      "longitude": 15.59883
    },
    {
      "id": 11049275,
      "name": "Municipality of Lasinja",
      "nativeName": "Lasinja",
      "code": "HR-04-11049275",
      "countryId": 3202326,
      "countryCode": "HR",
      "stateCode": "HR-04",
      "latitude": 45.52814,
      "longitude": 15.85851
    },
    {
      "id": 11049276,
      "name": "Municipality of Netretić",
      "nativeName": "Netretić",
      "code": "HR-04-11049276",
      "countryId": 3202326,
      "countryCode": "HR",
      "stateCode": "HR-04",
      "latitude": 45.50862,
      "longitude": 15.41206
    },
    {
      "id": 11049278,
      "name": "Municipality of Rakovica",
      "nativeName": "Rakovica",
      "code": "HR-04-11049278",
      "countryId": 3202326,
      "countryCode": "HR",
      "stateCode": "HR-04",
      "latitude": 44.99323,
      "longitude": 15.6496
    },
    {
      "id": 11049279,
      "name": "Municipality of Ribnik",
      "nativeName": "Ribnik",
      "code": "HR-04-11049279",
      "countryId": 3202326,
      "countryCode": "HR",
      "stateCode": "HR-04",
      "latitude": 45.57712,
      "longitude": 15.35108
    },
    {
      "id": 11049280,
      "name": "Municipality of Saborsko",
      "nativeName": "Saborsko",
      "code": "HR-04-11049280",
      "countryId": 3202326,
      "countryCode": "HR",
      "stateCode": "HR-04",
      "latitude": 44.98349,
      "longitude": 15.47523
    },
    {
      "id": 11049281,
      "name": "Municipality of Tounj",
      "nativeName": "Općina Tounj",
      "code": "HR-04-11049281",
      "countryId": 3202326,
      "countryCode": "HR",
      "stateCode": "HR-04",
      "latitude": 45.25228,
      "longitude": 15.32614
    },
    {
      "id": 3187450,
      "name": "Municipality of Vojnić",
      "nativeName": "Općina Vojnić",
      "code": "HR-04-3187450",
      "countryId": 3202326,
      "countryCode": "HR",
      "stateCode": "HR-04",
      "latitude": 45.33333,
      "longitude": 15.7
    },
    {
      "id": 11049283,
      "name": "Municipality of Žakanje",
      "nativeName": "Žakanje",
      "code": "HR-04-11049283",
      "countryId": 3202326,
      "countryCode": "HR",
      "stateCode": "HR-04",
      "latitude": 45.60946,
      "longitude": 15.3379
    },
    {
      "id": 11049277,
      "name": "Plaški",
      "nativeName": "Općina Plaški",
      "code": "HR-04-11049277",
      "countryId": 3202326,
      "countryCode": "HR",
      "stateCode": "HR-04",
      "latitude": 45.07794,
      "longitude": 15.36824
    },
    {
      "id": 3201029,
      "name": "Town of Duga Resa",
      "nativeName": "Grad Duga Resa",
      "code": "HR-04-3201029",
      "countryId": 3202326,
      "countryCode": "HR",
      "stateCode": "HR-04",
      "latitude": 45.43333,
      "longitude": 15.5
    },
    {
      "id": 3198257,
      "name": "Town of Karlovac",
      "nativeName": "Grad Karlovac",
      "code": "HR-04-3198257",
      "countryId": 3202326,
      "countryCode": "HR",
      "stateCode": "HR-04",
      "latitude": 45.5,
      "longitude": 15.53333
    },
    {
      "id": 3194182,
      "name": "Town of Ogulin",
      "nativeName": "Grad Ogulin",
      "code": "HR-04-3194182",
      "countryId": 3202326,
      "countryCode": "HR",
      "stateCode": "HR-04",
      "latitude": 45.26667,
      "longitude": 15.23333
    },
    {
      "id": 3193753,
      "name": "Town of Ozalj",
      "nativeName": "Grad Ozalj",
      "code": "HR-04-3193753",
      "countryId": 3202326,
      "countryCode": "HR",
      "stateCode": "HR-04",
      "latitude": 45.61273,
      "longitude": 15.47708
    },
    {
      "id": 3190522,
      "name": "Town of Slunj",
      "nativeName": "Slunj",
      "code": "HR-04-3190522",
      "countryId": 3202326,
      "countryCode": "HR",
      "stateCode": "HR-04",
      "latitude": 45.11507,
      "longitude": 15.58334
    }
  ]
}