{
  "stateId": 3337511,
  "stateCode": "HR-07",
  "countryCode": "HR",
  "cities": [
    {
      "id": 11049398,
      "name": "Municipality of Berek",
      "nativeName": "Berek",
      "code": "HR-07-11049398",
      "countryId": 3202326,
      "countryCode": "HR",
      "stateCode": "HR-07",
      "latitude": 45.7366,
      "longitude": 16.82908
    },
    {
      "id": 11049399,
      "name": "Municipality of Dežanovac",
      "nativeName": "Dežanovac",
      "code": "HR-07-11049399",
      "countryId": 3202326,
      "countryCode": "HR",
      "stateCode": "HR-07",
      "latitude": 45.57301,
      "longitude": 17.08752
    },
    {
      "id": 11049403,
      "name": "Municipality of Hercegovac",
      "nativeName": "Hercegovac",
      "code": "HR-07-11049403",
      "countryId": 3202326,
      "countryCode": "HR",
      "stateCode": "HR-07",
      "latitude": 45.65664,
      "longitude": 17.01186
    },
    {
      "id": 11049406,
      "name": "Municipality of Ivanska",
      "nativeName": "Ivanska",
      "code": "HR-07-11049406",
      "countryId": 3202326,
      "countryCode": "HR",
      "stateCode": "HR-07",
      "latitude": 45.78173,
      "longitude": 16.80681
    },
    {
      "id": 11049413,
      "name": "Municipality of Kapela",
      "nativeName": "Kapela",
      "code": "HR-07-11049413",
      "countryId": 3202326,
      "countryCode": "HR",
      "stateCode": "HR-07",
      "latitude": 45.98543,
      "longitude": 16.85174
    },
    {
      "id": 11049414,
      "name": "Municipality of Končanica",
      "nativeName": "Končanica",
      "code": "HR-07-11049414",
      "countryId": 3202326,
      "countryCode": "HR",
      "stateCode": "HR-07",
      "latitude": 45.63807,
      "longitude": 17.16459
    },
    {
      "id": 11049415,
      "name": "Municipality of Nova Rača",
      "nativeName": "Nova Rača",
      "code": "HR-07-11049415",
      "countryId": 3202326,
      "countryCode": "HR",
      "stateCode": "HR-07",
      "latitude": 45.80052,
      "longitude": 16.95289
    },
    {
      "id": 11049416,
      "name": "Municipality of Rovišće",
      "nativeName": "Rovišće",
      "code": "HR-07-11049416",
      "countryId": 3202326,
      "countryCode": "HR",
      "stateCode": "HR-07",
      "latitude": 45.94472,
      "longitude": 16.73115
    },
    {
      "id": 11049417,
      "name": "Municipality of Severin",
      "nativeName": "Severin",
      "code": "HR-07-11049417",
      "countryId": 3202326,
      "countryCode": "HR",
      "stateCode": "HR-07",
      "latitude": 45.84152,
      "longitude": 16.9695
    },
    {
      "id": 11049418,
      "name": "Municipality of Sirač",
      "nativeName": "Sirač",
      "code": "HR-07-11049418",
      "countryId": 3202326,
      "countryCode": "HR",
      "stateCode": "HR-07",
      "latitude": 45.52579,
      "longitude": 17.25532
    },
    {
      "id": 11049421,
      "name": "Municipality of Velika Pisanica",
      "nativeName": "Velika Pisanica",
      "code": "HR-07-11049421",
      "countryId": 3202326,
      "countryCode": "HR",
      "stateCode": "HR-07",
      "latitude": 45.80018,
      "longitude": 17.06409
    },
    {
      "id": 11049422,
      "name": "Municipality of Velika Trnovitica",
      "nativeName": "Velika Trnovitica",
      "code": "HR-07-11049422",
      "countryId": 3202326,
      "countryCode": "HR",
      "stateCode": "HR-07",
      "latitude": 45.68621,
      "longitude": 16.95401
    },
    {
      "id": 11049424,
      "name": "Municipality of Veliki Grđevac",
      "nativeName": "Veliki Grđevac",
      "code": "HR-07-11049424",
      "countryId": 3202326,
      "countryCode": "HR",
      "stateCode": "HR-07",
      "latitude": 45.75473,
      "longitude": 17.04829
    },
    {
      "id": 11049426,
      "name": "Municipality of Veliko Trojstvo",
      "nativeName": "Veliko Trojstvo",
      "code": "HR-07-11049426",
      "countryId": 3202326,
      "countryCode": "HR",
      "stateCode": "HR-07",
      "latitude": 45.93359,
      "longitude": 16.93405
    },
    {
      "id": 11049428,
      "name": "Municipality of Zrinski Topolovac",
      "nativeName": "Zrinski Topolovac",
      "code": "HR-07-11049428",
      "countryId": 3202326,
      "countryCode": "HR",
      "stateCode": "HR-07",
      "latitude": 46.0212,
      "longitude": 16.75509
    },
    {
      "id": 11055019,
      "name": "Municipality of Đulovac",
      "nativeName": "Đulovac",
      "code": "HR-07-11055019",
      "countryId": 3202326,
      "countryCode": "HR",
      "stateCode": "HR-07",
      "latitude": 45.66588,
      "longitude": 17.42981
    },
    {
      "id": 11049419,
      "name": "Municipality of Šandrovac",
      "nativeName": "Šandrovac",
      "code": "HR-07-11049419",
      "countryId": 3202326,
      "countryCode": "HR",
      "stateCode": "HR-07",
      "latitude": 45.90407,
      "longitude": 17.02898
    },
    {
      "id": 11049420,
      "name": "Municipality of Štefanje",
      "nativeName": "Štefanje",
      "code": "HR-07-11049420",
      "countryId": 3202326,
      "countryCode": "HR",
      "stateCode": "HR-07",
      "latitude": 45.80222,
      "longitude": 16.71493
    },
    {
      "id": 3203981,
      "name": "Town of Bjelovar",
      "nativeName": "Grad Bjelovar",
      "code": "HR-07-3203981",
      "countryId": 3202326,
      "countryCode": "HR",
      "stateCode": "HR-07",
      "latitude": 45.90172,
      "longitude": 16.84522
    },
    {
      "id": 3202183,
      "name": "Town of Daruvar",
      "nativeName": "Grad Daruvar",
      "code": "HR-07-3202183",
      "countryId": 3202326,
      "countryCode": "HR",
      "stateCode": "HR-07",
      "latitude": 45.6,
      "longitude": 17.23333
    },
    {
      "id": 3200709,
      "name": "Town of Garešnica",
      "nativeName": "Grad Garešnica",
      "code": "HR-07-3200709",
      "countryId": 3202326,
      "countryCode": "HR",
      "stateCode": "HR-07",
      "latitude": 45.56667,
      "longitude": 16.93333
    },
    {
      "id": 3199514,
      "name": "Town of Grubišno Polje",
      "nativeName": "Grad Grubišno Polje",
      "code": "HR-07-3199514",
      "countryId": 3202326,
      "countryCode": "HR",
      "stateCode": "HR-07",
      "latitude": 45.7,
      "longitude": 17.16667
    },
    {
      "id": 3202819,
      "name": "Town of Čazma",
      "nativeName": "Grad Čazma",
      "code": "HR-07-3202819",
      "countryId": 3202326,
      "countryCode": "HR",
      "stateCode": "HR-07",
      "latitude": 45.75,
      "longitude": 16.61667
    }
  ]
}