{
  "stateId": 3337531,
  "stateCode": "HR-01",
  "countryCode": "HR",
  "cities": [
    {
      "id": 11048980,
      "name": "Municipality of Bedenica",
      "nativeName": "Bedenica",
      "code": "HR-01-11048980",
      "countryId": 3202326,
      "countryCode": "HR",
      "stateCode": "HR-01",
      "latitude": 46.03257,
      "longitude": 16.24947
    },
    {
      "id": 11054888,
      "name": "Municipality of Bistra",
      "nativeName": "Bistra",
      "code": "HR-01-11054888",
      "countryId": 3202326,
      "countryCode": "HR",
      "stateCode": "HR-01",
      "latitude": 45.90657,
      "longitude": 15.85087
    },
    {
      "id": 11048981,
      "name": "Municipality of Brckovljani",
      "nativeName": "Općina Brckovljani",
      "code": "HR-01-11048981",
      "countryId": 3202326,
      "countryCode": "HR",
      "stateCode": "HR-01",
      "latitude": 45.83597,
      "longitude": 16.29315
    },
    {
      "id": 11048982,
      "name": "Municipality of Brdovec",
      "nativeName": "Općina Brdovec",
      "code": "HR-01-11048982",
      "countryId": 3202326,
      "countryCode": "HR",
      "stateCode": "HR-01",
      "latitude": 45.87003,
      "longitude": 15.76409
    },
    {
      "id": 8260123,
      "name": "Municipality of Dubrava",
      "nativeName": "Općina Dubrava",
      "code": "HR-01-8260123",
      "countryId": 3202326,
      "countryCode": "HR",
      "stateCode": "HR-01",
      "latitude": 45.83759,
      "longitude": 16.53683
    },
    {
      "id": 11048984,
      "name": "Municipality of Dubravica",
      "nativeName": "Dubravica",
      "code": "HR-01-11048984",
      "countryId": 3202326,
      "countryCode": "HR",
      "stateCode": "HR-01",
      "latitude": 45.95728,
      "longitude": 15.73259
    },
    {
      "id": 11048983,
      "name": "Municipality of Farkaševac",
      "nativeName": "Farkaševac",
      "code": "HR-01-11048983",
      "countryId": 3202326,
      "countryCode": "HR",
      "stateCode": "HR-01",
      "latitude": 45.87899,
      "longitude": 16.63467
    },
    {
      "id": 11048985,
      "name": "Municipality of Gradec",
      "nativeName": "Gradec",
      "code": "HR-01-11048985",
      "countryId": 3202326,
      "countryCode": "HR",
      "stateCode": "HR-01",
      "latitude": 45.9132,
      "longitude": 16.48022
    },
    {
      "id": 11048986,
      "name": "Municipality of Jakovlje",
      "nativeName": "Jakovlje",
      "code": "HR-01-11048986",
      "countryId": 3202326,
      "countryCode": "HR",
      "stateCode": "HR-01",
      "latitude": 45.93603,
      "longitude": 15.85353
    },
    {
      "id": 11048987,
      "name": "Municipality of Klinča Sela",
      "nativeName": "Klinča Sela",
      "code": "HR-01-11048987",
      "countryId": 3202326,
      "countryCode": "HR",
      "stateCode": "HR-01",
      "latitude": 45.69121,
      "longitude": 15.74234
    },
    {
      "id": 11048989,
      "name": "Municipality of Kloštar Ivanić",
      "nativeName": "Općina Kloštar Ivanić",
      "code": "HR-01-11048989",
      "countryId": 3202326,
      "countryCode": "HR",
      "stateCode": "HR-01",
      "latitude": 45.7375,
      "longitude": 16.41297
    },
    {
      "id": 11048993,
      "name": "Municipality of Kravarsko",
      "nativeName": "Općina Kravarsko",
      "code": "HR-01-11048993",
      "countryId": 3202326,
      "countryCode": "HR",
      "stateCode": "HR-01",
      "latitude": 45.58561,
      "longitude": 16.04691
    },
    {
      "id": 11048992,
      "name": "Municipality of Krašić",
      "nativeName": "Krašić",
      "code": "HR-01-11048992",
      "countryId": 3202326,
      "countryCode": "HR",
      "stateCode": "HR-01",
      "latitude": 45.65343,
      "longitude": 15.51703
    },
    {
      "id": 11048994,
      "name": "Municipality of Križ",
      "nativeName": "Križ",
      "code": "HR-01-11048994",
      "countryId": 3202326,
      "countryCode": "HR",
      "stateCode": "HR-01",
      "latitude": 45.66396,
      "longitude": 16.51983
    },
    {
      "id": 11048995,
      "name": "Municipality of Luka",
      "nativeName": "Općina Luka",
      "code": "HR-01-11048995",
      "countryId": 3202326,
      "countryCode": "HR",
      "stateCode": "HR-01",
      "latitude": 45.95878,
      "longitude": 15.81975
    },
    {
      "id": 11048997,
      "name": "Municipality of Marija Gorica",
      "nativeName": "Marija Gorica",
      "code": "HR-01-11048997",
      "countryId": 3202326,
      "countryCode": "HR",
      "stateCode": "HR-01",
      "latitude": 45.91072,
      "longitude": 15.7256
    },
    {
      "id": 11048998,
      "name": "Municipality of Orle",
      "nativeName": "Općina Orle",
      "code": "HR-01-11048998",
      "countryId": 3202326,
      "countryCode": "HR",
      "stateCode": "HR-01",
      "latitude": 45.68474,
      "longitude": 16.2341
    },
    {
      "id": 11048999,
      "name": "Municipality of Pisarovina",
      "nativeName": "Pisarovina",
      "code": "HR-01-11048999",
      "countryId": 3202326,
      "countryCode": "HR",
      "stateCode": "HR-01",
      "latitude": 45.58824,
      "longitude": 15.85954
    },
    {
      "id": 11049000,
      "name": "Municipality of Pokupsko",
      "nativeName": "Općina Pokupsko",
      "code": "HR-01-11049000",
      "countryId": 3202326,
      "countryCode": "HR",
      "stateCode": "HR-01",
      "latitude": 45.48522,
      "longitude": 15.99197
    },
    {
      "id": 11049001,
      "name": "Municipality of Preseka",
      "nativeName": "Preseka",
      "code": "HR-01-11049001",
      "countryId": 3202326,
      "countryCode": "HR",
      "stateCode": "HR-01",
      "latitude": 45.97456,
      "longitude": 16.38697
    },
    {
      "id": 11049002,
      "name": "Municipality of Pušća",
      "nativeName": "Pušća",
      "code": "HR-01-11049002",
      "countryId": 3202326,
      "countryCode": "HR",
      "stateCode": "HR-01",
      "latitude": 45.91567,
      "longitude": 15.78049
    },
    {
      "id": 11049003,
      "name": "Municipality of Rakovec",
      "nativeName": "Rakovec",
      "code": "HR-01-11049003",
      "countryId": 3202326,
      "countryCode": "HR",
      "stateCode": "HR-01",
      "latitude": 45.93228,
      "longitude": 16.31457
    },
    {
      "id": 11049004,
      "name": "Municipality of Rugvica",
      "nativeName": "Općina Rugvica",
      "code": "HR-01-11049004",
      "countryId": 3202326,
      "countryCode": "HR",
      "stateCode": "HR-01",
      "latitude": 45.74146,
      "longitude": 16.22861
    },
    {
      "id": 11049005,
      "name": "Municipality of Stupnik",
      "nativeName": "Općina Stupnik",
      "code": "HR-01-11049005",
      "countryId": 3202326,
      "countryCode": "HR",
      "stateCode": "HR-01",
      "latitude": 45.75314,
      "longitude": 15.84078
    },
    {
      "id": 11049006,
      "name": "Municipality of Žumberak",
      "nativeName": "Žumberak",
      "code": "HR-01-11049006",
      "countryId": 3202326,
      "countryCode": "HR",
      "stateCode": "HR-01",
      "latitude": 45.76704,
      "longitude": 15.41545
    },
    {
      "id": 3201007,
      "name": "Town of Dugo Selo",
      "nativeName": "Grad Dugo Selo",
      "code": "HR-01-3201007",
      "countryId": 3202326,
      "countryCode": "HR",
      "stateCode": "HR-01",
      "latitude": 45.809,
      "longitude": 16.24123
    },
    {
      "id": 3199068,
      "name": "Town of Ivanić-Grad",
      "nativeName": "Grad Ivanić-Grad",
      "code": "HR-01-3199068",
      "countryId": 3202326,
      "countryCode": "HR",
      "stateCode": "HR-01",
      "latitude": 45.7,
      "longitude": 16.4
    },
    {
      "id": 3198798,
      "name": "Town of Jastrebarsko",
      "nativeName": "Grad Jastrebarsko",
      "code": "HR-01-3198798",
      "countryId": 3202326,
      "countryCode": "HR",
      "stateCode": "HR-01",
      "latitude": 45.66667,
      "longitude": 15.66667
    },
    {
      "id": 3191315,
      "name": "Town of Samobor",
      "nativeName": "Grad Samobor",
      "code": "HR-01-3191315",
      "countryId": 3202326,
      "countryCode": "HR",
      "stateCode": "HR-01",
      "latitude": 45.8,
      "longitude": 15.7
    },
    {
      "id": 11054889,
      "name": "Town of Sveta Nedelja",
      "nativeName": "Sveta Nedelja",
      "code": "HR-01-11054889",
      "countryId": 3202326,
      "countryCode": "HR",
      "stateCode": "HR-01",
      "latitude": 45.79617,
      "longitude": 15.77971
    },
    {
      "id": 3186602,
      "name": "Town of Sveti Ivan Zelina",
      "nativeName": "Grad Sveti Ivan Zelina",
      "code": "HR-01-3186602",
      "countryId": 3202326,
      "countryCode": "HR",
      "stateCode": "HR-01",
      "latitude": 45.96667,
      "longitude": 16.25
    },
    {
      "id": 3188243,
      "name": "Town of Velika Gorica",
      "nativeName": "Grad Velika Gorica",
      "code": "HR-01-3188243",
      "countryId": 3202326,
      "countryCode": "HR",
      "stateCode": "HR-01",
      "latitude": 45.7,
      "longitude": 16.08333
    },
    {
      "id": 3187264,
      "name": "Town of Vrbovec",
      "nativeName": "Grad Vrbovec",
      "code": "HR-01-3187264",
      "countryId": 3202326,
      "countryCode": "HR",
      "stateCode": "HR-01",
      "latitude": 45.88377,
      "longitude": 16.41428
    },
    {
      "id": 3186780,
      "name": "Town of Zaprešić",
      "nativeName": "Grad Zaprešić",
      "code": "HR-01-3186780",
      "countryId": 3202326,
      "countryCode": "HR",
      "stateCode": "HR-01",
      "latitude": 45.86667,
      "longitude": 15.8
    }
  ]
}