{
  "stateId": 3337514,
  "stateCode": "HR-18",
  "countryCode": "HR",
  "cities": [
    {
      "id": 11054801,
      "name": "Kanfanar",
      "nativeName": "Općina Kanfanar",
      "code": "HR-18-11054801",
      "countryId": 3202326,
      "countryCode": "HR",
      "stateCode": "HR-18",
      "latitude": 45.12243,
      "longitude": 13.83681
    },
    {
      "id": 11054807,
      "name": "Lupoglav",
      "nativeName": "Općina Lupoglav",
      "code": "HR-18-11054807",
      "countryId": 3202326,
      "countryCode": "HR",
      "stateCode": "HR-18",
      "latitude": 45.35204,
      "longitude": 14.10846
    },
    {
      "id": 11054745,
      "name": "Municipality of Bale - Valle",
      "nativeName": "Bale-Valle",
      "code": "HR-18-11054745",
      "countryId": 3202326,
      "countryCode": "HR",
      "stateCode": "HR-18",
      "latitude": 45.04089,
      "longitude": 13.78565
    },
    {
      "id": 11054746,
      "name": "Municipality of Barban",
      "nativeName": "Barban",
      "code": "HR-18-11054746",
      "countryId": 3202326,
      "countryCode": "HR",
      "stateCode": "HR-18",
      "latitude": 45.06393,
      "longitude": 14.01418
    },
    {
      "id": 11054747,
      "name": "Municipality of Brtonigla - Verteneglio",
      "nativeName": "Brtonigla-Verteneglio",
      "code": "HR-18-11054747",
      "countryId": 3202326,
      "countryCode": "HR",
      "stateCode": "HR-18",
      "latitude": 45.37918,
      "longitude": 13.62554
    },
    {
      "id": 11054749,
      "name": "Municipality of Cerovlje",
      "nativeName": "Cerovlje",
      "code": "HR-18-11054749",
      "countryId": 3202326,
      "countryCode": "HR",
      "stateCode": "HR-18",
      "latitude": 45.2765,
      "longitude": 14.0104
    },
    {
      "id": 11054750,
      "name": "Municipality of Fažana - Fasana",
      "nativeName": "Fažana-Fasana",
      "code": "HR-18-11054750",
      "countryId": 3202326,
      "countryCode": "HR",
      "stateCode": "HR-18",
      "latitude": 44.92822,
      "longitude": 13.80548
    },
    {
      "id": 11054751,
      "name": "Municipality of Funtana - Fontane",
      "nativeName": "Funtana-Fontane",
      "code": "HR-18-11054751",
      "countryId": 3202326,
      "countryCode": "HR",
      "stateCode": "HR-18",
      "latitude": 45.17483,
      "longitude": 13.60627
    },
    {
      "id": 11054790,
      "name": "Municipality of Gračišće",
      "nativeName": "Gračišće",
      "code": "HR-18-11054790",
      "countryId": 3202326,
      "countryCode": "HR",
      "stateCode": "HR-18",
      "latitude": 45.21741,
      "longitude": 14.00976
    },
    {
      "id": 11054800,
      "name": "Municipality of Grožnjan - Grisignana",
      "nativeName": "Grožnjan-Grisignana",
      "code": "HR-18-11054800",
      "countryId": 3202326,
      "countryCode": "HR",
      "stateCode": "HR-18",
      "latitude": 45.37728,
      "longitude": 13.72145
    },
    {
      "id": 11054804,
      "name": "Municipality of Karojba",
      "nativeName": "Karojba",
      "code": "HR-18-11054804",
      "countryId": 3202326,
      "countryCode": "HR",
      "stateCode": "HR-18",
      "latitude": 45.30293,
      "longitude": 13.82144
    },
    {
      "id": 11054952,
      "name": "Municipality of Kaštelir-Labinci - Castelliere-S. Domenica",
      "nativeName": "Kaštelir-Labinci",
      "code": "HR-18-11054952",
      "countryId": 3202326,
      "countryCode": "HR",
      "stateCode": "HR-18",
      "latitude": 45.30277,
      "longitude": 13.68841
    },
    {
      "id": 11054805,
      "name": "Municipality of Kršan",
      "nativeName": "Kršan",
      "code": "HR-18-11054805",
      "countryId": 3202326,
      "countryCode": "HR",
      "stateCode": "HR-18",
      "latitude": 45.17149,
      "longitude": 14.13597
    },
    {
      "id": 11129787,
      "name": "Municipality of Lanišće",
      "nativeName": "Općina Lanišće",
      "code": "HR-18-11129787",
      "countryId": 3202326,
      "countryCode": "HR",
      "stateCode": "HR-18",
      "latitude": 45.4352,
      "longitude": 14.08196
    },
    {
      "id": 11054806,
      "name": "Municipality of Ližnjan - Lisignano",
      "nativeName": "Ližnjan-Lisignano",
      "code": "HR-18-11054806",
      "countryId": 3202326,
      "countryCode": "HR",
      "stateCode": "HR-18",
      "latitude": 44.82765,
      "longitude": 13.96028
    },
    {
      "id": 11054808,
      "name": "Municipality of Marčana",
      "nativeName": "Marčana",
      "code": "HR-18-11054808",
      "countryId": 3202326,
      "countryCode": "HR",
      "stateCode": "HR-18",
      "latitude": 44.95647,
      "longitude": 13.95598
    },
    {
      "id": 11054809,
      "name": "Municipality of Medulin",
      "nativeName": "Medulin",
      "code": "HR-18-11054809",
      "countryId": 3202326,
      "countryCode": "HR",
      "stateCode": "HR-18",
      "latitude": 44.82144,
      "longitude": 13.9362
    },
    {
      "id": 11054810,
      "name": "Municipality of Motovun - Montona",
      "nativeName": "Motovun-Montona",
      "code": "HR-18-11054810",
      "countryId": 3202326,
      "countryCode": "HR",
      "stateCode": "HR-18",
      "latitude": 45.33633,
      "longitude": 13.82977
    },
    {
      "id": 11054812,
      "name": "Municipality of Oprtalj - Portole",
      "nativeName": "Oprtalj-Portole",
      "code": "HR-18-11054812",
      "countryId": 3202326,
      "countryCode": "HR",
      "stateCode": "HR-18",
      "latitude": 45.38226,
      "longitude": 13.82406
    },
    {
      "id": 11054813,
      "name": "Municipality of Pićan",
      "nativeName": "Pićan",
      "code": "HR-18-11054813",
      "countryId": 3202326,
      "countryCode": "HR",
      "stateCode": "HR-18",
      "latitude": 45.20276,
      "longitude": 14.04156
    },
    {
      "id": 11054816,
      "name": "Municipality of Raša",
      "nativeName": "Raša",
      "code": "HR-18-11054816",
      "countryId": 3202326,
      "countryCode": "HR",
      "stateCode": "HR-18",
      "latitude": 45.08003,
      "longitude": 14.08379
    },
    {
      "id": 11072234,
      "name": "Municipality of Sveta Nedelja",
      "nativeName": "Sveta Nedelja",
      "code": "HR-18-11072234",
      "countryId": 3202326,
      "countryCode": "HR",
      "stateCode": "HR-18",
      "latitude": 45.14932,
      "longitude": 14.09889
    },
    {
      "id": 11054818,
      "name": "Municipality of Sveti Lovreč",
      "nativeName": "Sveti Lovreč",
      "code": "HR-18-11054818",
      "countryId": 3202326,
      "countryCode": "HR",
      "stateCode": "HR-18",
      "latitude": 45.1777,
      "longitude": 13.74317
    },
    {
      "id": 11054819,
      "name": "Municipality of Sveti Petar u Šumi",
      "nativeName": "Sveti Petar u Šumi",
      "code": "HR-18-11054819",
      "countryId": 3202326,
      "countryCode": "HR",
      "stateCode": "HR-18",
      "latitude": 45.18348,
      "longitude": 13.8659
    },
    {
      "id": 11054820,
      "name": "Municipality of Svetvinčenat",
      "nativeName": "Svetvinčenat",
      "code": "HR-18-11054820",
      "countryId": 3202326,
      "countryCode": "HR",
      "stateCode": "HR-18",
      "latitude": 45.08641,
      "longitude": 13.88123
    },
    {
      "id": 11072413,
      "name": "Municipality of Tar-Vabriga - Torre-Abrega",
      "nativeName": "Tar-Vabriga-Torre Abrega",
      "code": "HR-18-11072413",
      "countryId": 3202326,
      "countryCode": "HR",
      "stateCode": "HR-18",
      "latitude": 45.29946,
      "longitude": 13.62489
    },
    {
      "id": 11054821,
      "name": "Municipality of Tinjan",
      "nativeName": "Tinjan",
      "code": "HR-18-11054821",
      "countryId": 3202326,
      "countryCode": "HR",
      "stateCode": "HR-18",
      "latitude": 45.21771,
      "longitude": 13.83775
    },
    {
      "id": 11054824,
      "name": "Municipality of Višnjan - Visignano",
      "nativeName": "Višnjan-Visignano",
      "code": "HR-18-11054824",
      "countryId": 3202326,
      "countryCode": "HR",
      "stateCode": "HR-18",
      "latitude": 45.27614,
      "longitude": 13.72128
    },
    {
      "id": 11054825,
      "name": "Municipality of Vižinada - Visinada",
      "nativeName": "Vižinada-Visinada",
      "code": "HR-18-11054825",
      "countryId": 3202326,
      "countryCode": "HR",
      "stateCode": "HR-18",
      "latitude": 45.33126,
      "longitude": 13.75943
    },
    {
      "id": 11054828,
      "name": "Municipality of Vrsar - Orsera",
      "nativeName": "Vrsar-Orsera",
      "code": "HR-18-11054828",
      "countryId": 3202326,
      "countryCode": "HR",
      "stateCode": "HR-18",
      "latitude": 45.15074,
      "longitude": 13.60558
    },
    {
      "id": 11054829,
      "name": "Municipality of Žminj",
      "nativeName": "Žminj",
      "code": "HR-18-11054829",
      "countryId": 3202326,
      "countryCode": "HR",
      "stateCode": "HR-18",
      "latitude": 45.1419,
      "longitude": 13.90822
    },
    {
      "id": 3192696,
      "name": "Poreč",
      "nativeName": "Grad Poreč",
      "code": "HR-18-3192696",
      "countryId": 3202326,
      "countryCode": "HR",
      "stateCode": "HR-18",
      "latitude": 45.25,
      "longitude": 13.66667
    },
    {
      "id": 3192222,
      "name": "Pula",
      "nativeName": "Grad Pula",
      "code": "HR-18-3192222",
      "countryId": 3202326,
      "countryCode": "HR",
      "stateCode": "HR-18",
      "latitude": 44.86667,
      "longitude": 13.86667
    },
    {
      "id": 3203088,
      "name": "Town of Buje - Buie",
      "nativeName": "Grad Buje",
      "code": "HR-18-3203088",
      "countryId": 3202326,
      "countryCode": "HR",
      "stateCode": "HR-18",
      "latitude": 45.41667,
      "longitude": 13.66667
    },
    {
      "id": 3202941,
      "name": "Town of Buzet",
      "nativeName": "Grad Buzet",
      "code": "HR-18-3202941",
      "countryId": 3202326,
      "countryCode": "HR",
      "stateCode": "HR-18",
      "latitude": 45.41667,
      "longitude": 13.96667
    },
    {
      "id": 3196833,
      "name": "Town of Labin",
      "nativeName": "Grad Labin",
      "code": "HR-18-3196833",
      "countryId": 3202326,
      "countryCode": "HR",
      "stateCode": "HR-18",
      "latitude": 45.08333,
      "longitude": 14.13333
    },
    {
      "id": 11054811,
      "name": "Town of Novigrad - Cittanova",
      "nativeName": "Novigrad-Cittanova",
      "code": "HR-18-11054811",
      "countryId": 3202326,
      "countryCode": "HR",
      "stateCode": "HR-18",
      "latitude": 45.31669,
      "longitude": 13.56155
    },
    {
      "id": 3193560,
      "name": "Town of Pazin",
      "nativeName": "Grad Pazin",
      "code": "HR-18-3193560",
      "countryId": 3202326,
      "countryCode": "HR",
      "stateCode": "HR-18",
      "latitude": 45.23333,
      "longitude": 13.93333
    },
    {
      "id": 3191516,
      "name": "Town of Rovinj - Rovigno",
      "nativeName": "Grad Rovinj",
      "code": "HR-18-3191516",
      "countryId": 3202326,
      "countryCode": "HR",
      "stateCode": "HR-18",
      "latitude": 45.08333,
      "longitude": 13.66667
    },
    {
      "id": 11054822,
      "name": "Town of Umag - Umago",
      "nativeName": "Umag-Umago",
      "code": "HR-18-11054822",
      "countryId": 3202326,
      "countryCode": "HR",
      "stateCode": "HR-18",
      "latitude": 45.43462,
      "longitude": 13.52589
    },
    {
      "id": 11054827,
      "name": "Town of Vodnjan - Dignano",
      "nativeName": "Vodnjan-Dignano",
      "code": "HR-18-11054827",
      "countryId": 3202326,
      "countryCode": "HR",
      "stateCode": "HR-18",
      "latitude": 44.96187,
      "longitude": 13.85041
    }
  ]
}