{
  "stateId": 3337530,
  "stateCode": "HR-13",
  "countryCode": "HR",
  "cities": [
    {
      "id": 11054319,
      "name": "Gračac",
      "nativeName": "Općina Gračac",
      "code": "HR-13-11054319",
      "countryId": 3202326,
      "countryCode": "HR",
      "stateCode": "HR-13",
      "latitude": 44.29952,
      "longitude": 15.84709
    },
    {
      "id": 11049513,
      "name": "Municipality of Bibinje",
      "nativeName": "Bibinje",
      "code": "HR-13-11049513",
      "countryId": 3202326,
      "countryCode": "HR",
      "stateCode": "HR-13",
      "latitude": 44.07324,
      "longitude": 15.28288
    },
    {
      "id": 11049514,
      "name": "Municipality of Galovac",
      "nativeName": "Galovac",
      "code": "HR-13-11049514",
      "countryId": 3202326,
      "countryCode": "HR",
      "stateCode": "HR-13",
      "latitude": 44.07324,
      "longitude": 15.39116
    },
    {
      "id": 11054321,
      "name": "Municipality of Jasenice",
      "nativeName": "Jasenice",
      "code": "HR-13-11054321",
      "countryId": 3202326,
      "countryCode": "HR",
      "stateCode": "HR-13",
      "latitude": 44.22969,
      "longitude": 15.57514
    },
    {
      "id": 11054322,
      "name": "Municipality of Kali",
      "nativeName": "Kali",
      "code": "HR-13-11054322",
      "countryId": 3202326,
      "countryCode": "HR",
      "stateCode": "HR-13",
      "latitude": 44.06235,
      "longitude": 15.20675
    },
    {
      "id": 11054323,
      "name": "Municipality of Kolan",
      "nativeName": "Kolan",
      "code": "HR-13-11054323",
      "countryId": 3202326,
      "countryCode": "HR",
      "stateCode": "HR-13",
      "latitude": 44.49625,
      "longitude": 14.95896
    },
    {
      "id": 11054325,
      "name": "Municipality of Kukljica",
      "nativeName": "Kukljica",
      "code": "HR-13-11054325",
      "countryId": 3202326,
      "countryCode": "HR",
      "stateCode": "HR-13",
      "latitude": 44.03432,
      "longitude": 15.24606
    },
    {
      "id": 11054326,
      "name": "Municipality of Lišane Ostrovičke",
      "nativeName": "Lišane Ostrovičke",
      "code": "HR-13-11054326",
      "countryId": 3202326,
      "countryCode": "HR",
      "stateCode": "HR-13",
      "latitude": 43.97254,
      "longitude": 15.75817
    },
    {
      "id": 9077071,
      "name": "Municipality of Novigrad",
      "nativeName": "Novigrad Općina",
      "code": "HR-13-9077071",
      "countryId": 3202326,
      "countryCode": "HR",
      "stateCode": "HR-13",
      "latitude": 44.19417,
      "longitude": 15.55667
    },
    {
      "id": 11054332,
      "name": "Municipality of Pakoštane",
      "nativeName": "Pakoštane",
      "code": "HR-13-11054332",
      "countryId": 3202326,
      "countryCode": "HR",
      "stateCode": "HR-13",
      "latitude": 43.90985,
      "longitude": 15.50948
    },
    {
      "id": 11054333,
      "name": "Municipality of Pašman",
      "nativeName": "Pašman",
      "code": "HR-13-11054333",
      "countryId": 3202326,
      "countryCode": "HR",
      "stateCode": "HR-13",
      "latitude": 43.95562,
      "longitude": 15.38567
    },
    {
      "id": 11054335,
      "name": "Municipality of Polača",
      "nativeName": "Polača",
      "code": "HR-13-11054335",
      "countryId": 3202326,
      "countryCode": "HR",
      "stateCode": "HR-13",
      "latitude": 44.01778,
      "longitude": 15.51857
    },
    {
      "id": 11054336,
      "name": "Municipality of Poličnik",
      "nativeName": "Poličnik",
      "code": "HR-13-11054336",
      "countryId": 3202326,
      "countryCode": "HR",
      "stateCode": "HR-13",
      "latitude": 44.17659,
      "longitude": 15.37592
    },
    {
      "id": 11054372,
      "name": "Municipality of Posedarje",
      "nativeName": "Posedarje",
      "code": "HR-13-11054372",
      "countryId": 3202326,
      "countryCode": "HR",
      "stateCode": "HR-13",
      "latitude": 44.21296,
      "longitude": 15.47862
    },
    {
      "id": 11054373,
      "name": "Municipality of Povljana",
      "nativeName": "Povljana",
      "code": "HR-13-11054373",
      "countryId": 3202326,
      "countryCode": "HR",
      "stateCode": "HR-13",
      "latitude": 44.34698,
      "longitude": 15.11174
    },
    {
      "id": 11054374,
      "name": "Municipality of Preko",
      "nativeName": "Preko",
      "code": "HR-13-11054374",
      "countryId": 3202326,
      "countryCode": "HR",
      "stateCode": "HR-13",
      "latitude": 44.08002,
      "longitude": 15.18589
    },
    {
      "id": 11054375,
      "name": "Municipality of Privlaka",
      "nativeName": "Privlaka",
      "code": "HR-13-11054375",
      "countryId": 3202326,
      "countryCode": "HR",
      "stateCode": "HR-13",
      "latitude": 44.2617,
      "longitude": 15.11843
    },
    {
      "id": 11054376,
      "name": "Municipality of Ražanac",
      "nativeName": "Ražanac",
      "code": "HR-13-11054376",
      "countryId": 3202326,
      "countryCode": "HR",
      "stateCode": "HR-13",
      "latitude": 44.28133,
      "longitude": 15.344
    },
    {
      "id": 11054377,
      "name": "Municipality of Sali",
      "nativeName": "Sali",
      "code": "HR-13-11054377",
      "countryId": 3202326,
      "countryCode": "HR",
      "stateCode": "HR-13",
      "latitude": 43.9368,
      "longitude": 15.16336
    },
    {
      "id": 11054378,
      "name": "Municipality of Stankovci",
      "nativeName": "Stankovci",
      "code": "HR-13-11054378",
      "countryId": 3202326,
      "countryCode": "HR",
      "stateCode": "HR-13",
      "latitude": 43.90591,
      "longitude": 15.69079
    },
    {
      "id": 11054379,
      "name": "Municipality of Starigrad",
      "nativeName": "Starigrad",
      "code": "HR-13-11054379",
      "countryId": 3202326,
      "countryCode": "HR",
      "stateCode": "HR-13",
      "latitude": 44.29672,
      "longitude": 15.43935
    },
    {
      "id": 11054380,
      "name": "Municipality of Sukošan",
      "nativeName": "Sukošan",
      "code": "HR-13-11054380",
      "countryId": 3202326,
      "countryCode": "HR",
      "stateCode": "HR-13",
      "latitude": 44.04696,
      "longitude": 15.31391
    },
    {
      "id": 11054381,
      "name": "Municipality of Sveti Filip i Jakov",
      "nativeName": "Sveti Filip i Jakov",
      "code": "HR-13-11054381",
      "countryId": 3202326,
      "countryCode": "HR",
      "stateCode": "HR-13",
      "latitude": 43.96158,
      "longitude": 15.42819
    },
    {
      "id": 11054384,
      "name": "Municipality of Tkon",
      "nativeName": "Tkon",
      "code": "HR-13-11054384",
      "countryId": 3202326,
      "countryCode": "HR",
      "stateCode": "HR-13",
      "latitude": 43.91996,
      "longitude": 15.41639
    },
    {
      "id": 11054386,
      "name": "Municipality of Vir",
      "nativeName": "Vir",
      "code": "HR-13-11054386",
      "countryId": 3202326,
      "countryCode": "HR",
      "stateCode": "HR-13",
      "latitude": 44.29995,
      "longitude": 15.08663
    },
    {
      "id": 11054387,
      "name": "Municipality of Vrsi",
      "nativeName": "Vrsi",
      "code": "HR-13-11054387",
      "countryId": 3202326,
      "countryCode": "HR",
      "stateCode": "HR-13",
      "latitude": 44.26372,
      "longitude": 15.23173
    },
    {
      "id": 11054389,
      "name": "Municipality of Zemunik Donji",
      "nativeName": "Zemunik Donji",
      "code": "HR-13-11054389",
      "countryId": 3202326,
      "countryCode": "HR",
      "stateCode": "HR-13",
      "latitude": 44.10557,
      "longitude": 15.37974
    },
    {
      "id": 11054383,
      "name": "Municipality of Škabrnja",
      "nativeName": "Škabrnja",
      "code": "HR-13-11054383",
      "countryId": 3202326,
      "countryCode": "HR",
      "stateCode": "HR-13",
      "latitude": 44.08949,
      "longitude": 15.45146
    },
    {
      "id": 11049512,
      "name": "Town of Benkovac",
      "nativeName": "Benkovac",
      "code": "HR-13-11049512",
      "countryId": 3202326,
      "countryCode": "HR",
      "stateCode": "HR-13",
      "latitude": 44.03296,
      "longitude": 15.61101
    },
    {
      "id": 3204122,
      "name": "Town of Biograd na Moru",
      "nativeName": "Grad Biograd na Moru",
      "code": "HR-13-3204122",
      "countryId": 3202326,
      "countryCode": "HR",
      "stateCode": "HR-13",
      "latitude": 43.93333,
      "longitude": 15.43333
    },
    {
      "id": 11054327,
      "name": "Town of Nin",
      "nativeName": "Nin",
      "code": "HR-13-11054327",
      "countryId": 3202326,
      "countryCode": "HR",
      "stateCode": "HR-13",
      "latitude": 44.24221,
      "longitude": 15.18396
    },
    {
      "id": 11054328,
      "name": "Town of Obrovac",
      "nativeName": "Obrovac",
      "code": "HR-13-11054328",
      "countryId": 3202326,
      "countryCode": "HR",
      "stateCode": "HR-13",
      "latitude": 44.20013,
      "longitude": 15.68247
    },
    {
      "id": 11054329,
      "name": "Town of Pag",
      "nativeName": "Pag",
      "code": "HR-13-11054329",
      "countryId": 3202326,
      "countryCode": "HR",
      "stateCode": "HR-13",
      "latitude": 44.44361,
      "longitude": 15.05754
    },
    {
      "id": 11055010,
      "name": "Town of Zadar",
      "nativeName": "Zadar",
      "code": "HR-13-11055010",
      "countryId": 3202326,
      "countryCode": "HR",
      "stateCode": "HR-13",
      "latitude": 44.12172,
      "longitude": 15.23018
    }
  ]
}