{
  "stateId": 3590964,
  "stateCode": "GT-QC",
  "countryCode": "GT",
  "cities": [
    {
      "id": 3599093,
      "name": "Municipio de Canillá",
      "nativeName": "Municipio de Canillá",
      "code": "GT-QC-3599093",
      "countryId": 3595528,
      "countryCode": "GT",
      "stateCode": "GT-QC",
      "latitude": 15.19546,
      "longitude": -90.8597
    },
    {
      "id": 3598803,
      "name": "Municipio de Chajul",
      "nativeName": "Municipio de Chajul",
      "code": "GT-QC-3598803",
      "countryId": 3595528,
      "countryCode": "GT",
      "stateCode": "GT-QC",
      "latitude": 15.4871,
      "longitude": -91.03786
    },
    {
      "id": 9166182,
      "name": "Municipio de Chicaman",
      "nativeName": "Municipio de Chicaman",
      "code": "GT-QC-9166182",
      "countryId": 3595528,
      "countryCode": "GT",
      "stateCode": "GT-QC",
      "latitude": 15.34833,
      "longitude": -90.79944
    },
    {
      "id": 3598654,
      "name": "Municipio de Chichicastenango",
      "nativeName": "Municipio de Chichicastenango",
      "code": "GT-QC-3598654",
      "countryId": 3595528,
      "countryCode": "GT",
      "stateCode": "GT-QC",
      "latitude": 14.89203,
      "longitude": -91.08808
    },
    {
      "id": 3598658,
      "name": "Municipio de Chiché",
      "nativeName": "Municipio de Chiché",
      "code": "GT-QC-3598658",
      "countryId": 3595528,
      "countryCode": "GT",
      "stateCode": "GT-QC",
      "latitude": 15.01196,
      "longitude": -91.03836
    },
    {
      "id": 3598512,
      "name": "Municipio de Chinique",
      "nativeName": "Municipio de Chinique",
      "code": "GT-QC-3598512",
      "countryId": 3595528,
      "countryCode": "GT",
      "stateCode": "GT-QC",
      "latitude": 15.06947,
      "longitude": -91.01803
    },
    {
      "id": 3597771,
      "name": "Municipio de Cunén",
      "nativeName": "Municipio de Cunén",
      "code": "GT-QC-3597771",
      "countryId": 3595528,
      "countryCode": "GT",
      "stateCode": "GT-QC",
      "latitude": 15.36312,
      "longitude": -91.01889
    },
    {
      "id": 9166161,
      "name": "Municipio de Ixcan",
      "nativeName": "Municipio de Ixcan",
      "code": "GT-QC-9166161",
      "countryId": 3595528,
      "countryCode": "GT",
      "stateCode": "GT-QC",
      "latitude": 15.98333,
      "longitude": -90.76667
    },
    {
      "id": 3595147,
      "name": "Municipio de Joyabaj",
      "nativeName": "Municipio de Joyabaj",
      "code": "GT-QC-3595147",
      "countryId": 3595528,
      "countryCode": "GT",
      "stateCode": "GT-QC",
      "latitude": 14.98073,
      "longitude": -90.82079
    },
    {
      "id": 3592236,
      "name": "Municipio de Nebaj",
      "nativeName": "Municipio de Nebaj",
      "code": "GT-QC-3592236",
      "countryId": 3595528,
      "countryCode": "GT",
      "stateCode": "GT-QC",
      "latitude": 15.56143,
      "longitude": -91.17326
    },
    {
      "id": 9253735,
      "name": "Municipio de Pachalum",
      "nativeName": "Municipio de Pachalum",
      "code": "GT-QC-9253735",
      "countryId": 3595528,
      "countryCode": "GT",
      "stateCode": "GT-QC",
      "latitude": 14.91798,
      "longitude": -90.65443
    },
    {
      "id": 3591516,
      "name": "Municipio de Patzité",
      "nativeName": "Municipio de Patzité",
      "code": "GT-QC-3591516",
      "countryId": 3595528,
      "countryCode": "GT",
      "stateCode": "GT-QC",
      "latitude": 14.97097,
      "longitude": -91.19722
    },
    {
      "id": 3590689,
      "name": "Municipio de Sacapulas",
      "nativeName": "Municipio de Sacapulas",
      "code": "GT-QC-3590689",
      "countryId": 3595528,
      "countryCode": "GT",
      "stateCode": "GT-QC",
      "latitude": 15.26318,
      "longitude": -91.11288
    },
    {
      "id": 3590525,
      "name": "Municipio de San Andrés Sajcabajá",
      "nativeName": "Municipio de San Andrés Sajcabajá",
      "code": "GT-QC-3590525",
      "countryId": 3595528,
      "countryCode": "GT",
      "stateCode": "GT-QC",
      "latitude": 15.22527,
      "longitude": -90.93018
    },
    {
      "id": 3590455,
      "name": "Municipio de San Antonio Ilotenango",
      "nativeName": "Municipio de San Antonio Ilotenango",
      "code": "GT-QC-3590455",
      "countryId": 3595528,
      "countryCode": "GT",
      "stateCode": "GT-QC",
      "latitude": 15.04898,
      "longitude": -91.20872
    },
    {
      "id": 3590394,
      "name": "Municipio de San Bartolomé Jocotenango",
      "nativeName": "Municipio de San Bartolomé Jocotenango",
      "code": "GT-QC-3590394",
      "countryId": 3595528,
      "countryCode": "GT",
      "stateCode": "GT-QC",
      "latitude": 15.18359,
      "longitude": -91.03361
    },
    {
      "id": 3589912,
      "name": "Municipio de San Juan Cotzal",
      "nativeName": "Municipio de San Juan Cotzal",
      "code": "GT-QC-3589912",
      "countryId": 3595528,
      "countryCode": "GT",
      "stateCode": "GT-QC",
      "latitude": 15.42699,
      "longitude": -91.02097
    },
    {
      "id": 3589639,
      "name": "Municipio de San Pedro Jocopilas",
      "nativeName": "Municipio de San Pedro Jocopilas",
      "code": "GT-QC-3589639",
      "countryId": 3595528,
      "countryCode": "GT",
      "stateCode": "GT-QC",
      "latitude": 15.15472,
      "longitude": -91.1561
    },
    {
      "id": 3589403,
      "name": "Municipio de Santa Cruz del Quiché",
      "nativeName": "Municipio de Santa Cruz del Quiché",
      "code": "GT-QC-3589403",
      "countryId": 3595528,
      "countryCode": "GT",
      "stateCode": "GT-QC",
      "latitude": 15.03722,
      "longitude": -91.12596
    },
    {
      "id": 3588042,
      "name": "Municipio de Uspantán",
      "nativeName": "Municipio de Uspantán",
      "code": "GT-QC-3588042",
      "countryId": 3595528,
      "countryCode": "GT",
      "stateCode": "GT-QC",
      "latitude": 15.44393,
      "longitude": -90.84398
    },
    {
      "id": 9253733,
      "name": "Municipio de Zacualpa",
      "nativeName": "Municipio de Zacualpa",
      "code": "GT-QC-9253733",
      "countryId": 3595528,
      "countryCode": "GT",
      "stateCode": "GT-QC",
      "latitude": 15.09239,
      "longitude": -90.88514
    }
  ]
}