{
  "stateId": 3588668,
  "stateCode": "GT-SU",
  "countryCode": "GT",
  "cities": [
    {
      "id": 9975225,
      "name": "La Máquina",
      "nativeName": "La Máquina",
      "code": "GT-SU-9975225",
      "countryId": 3595528,
      "countryCode": "GT",
      "stateCode": "GT-SU",
      "latitude": 14.28087,
      "longitude": -91.58038
    },
    {
      "id": 3598677,
      "name": "Municipio de Chicacao",
      "nativeName": "Municipio de Chicacao",
      "code": "GT-SU-3598677",
      "countryId": 3595528,
      "countryCode": "GT",
      "stateCode": "GT-SU",
      "latitude": 14.53382,
      "longitude": -91.30057
    },
    {
      "id": 3597749,
      "name": "Municipio de Cuyotenango",
      "nativeName": "Municipio de Cuyotenango",
      "code": "GT-SU-3597749",
      "countryId": 3595528,
      "countryCode": "GT",
      "stateCode": "GT-SU",
      "latitude": 14.49243,
      "longitude": -91.56627
    },
    {
      "id": 3592608,
      "name": "Municipio de Mazatenango",
      "nativeName": "Municipio de Mazatenango",
      "code": "GT-SU-3592608",
      "countryId": 3595528,
      "countryCode": "GT",
      "stateCode": "GT-SU",
      "latitude": 14.52727,
      "longitude": -91.52917
    },
    {
      "id": 3591540,
      "name": "Municipio de Patulul",
      "nativeName": "Municipio de Patulul",
      "code": "GT-SU-3591540",
      "countryId": 3595528,
      "countryCode": "GT",
      "stateCode": "GT-SU",
      "latitude": 14.37176,
      "longitude": -91.17605
    },
    {
      "id": 3591096,
      "name": "Municipio de Pueblo Nuevo",
      "nativeName": "Municipio de Pueblo Nuevo",
      "code": "GT-SU-3591096",
      "countryId": 3595528,
      "countryCode": "GT",
      "stateCode": "GT-SU",
      "latitude": 14.65683,
      "longitude": -91.53129
    },
    {
      "id": 3590802,
      "name": "Municipio de Río Bravo",
      "nativeName": "Municipio de Río Bravo",
      "code": "GT-SU-3590802",
      "countryId": 3595528,
      "countryCode": "GT",
      "stateCode": "GT-SU",
      "latitude": 14.4,
      "longitude": -91.32
    },
    {
      "id": 3590566,
      "name": "Municipio de Samayac",
      "nativeName": "Municipio de Samayac",
      "code": "GT-SU-3590566",
      "countryId": 3595528,
      "countryCode": "GT",
      "stateCode": "GT-SU",
      "latitude": 14.57438,
      "longitude": -91.4707
    },
    {
      "id": 3590411,
      "name": "Municipio de San Antonio Suchitepéquez",
      "nativeName": "Municipio de San Antonio Suchitepéquez",
      "code": "GT-SU-3590411",
      "countryId": 3595528,
      "countryCode": "GT",
      "stateCode": "GT-SU",
      "latitude": 14.51839,
      "longitude": -91.40438
    },
    {
      "id": 3590382,
      "name": "Municipio de San Bernardino",
      "nativeName": "Municipio de San Bernardino",
      "code": "GT-SU-3590382",
      "countryId": 3595528,
      "countryCode": "GT",
      "stateCode": "GT-SU",
      "latitude": 14.53078,
      "longitude": -91.45598
    },
    {
      "id": 3590196,
      "name": "Municipio de San Francisco Zapotitlán",
      "nativeName": "Municipio de San Francisco Zapotitlán",
      "code": "GT-SU-3590196",
      "countryId": 3595528,
      "countryCode": "GT",
      "stateCode": "GT-SU",
      "latitude": 14.60996,
      "longitude": -91.53058
    },
    {
      "id": 3590192,
      "name": "Municipio de San Gabriel",
      "nativeName": "Municipio de San Gabriel",
      "code": "GT-SU-3590192",
      "countryId": 3595528,
      "countryCode": "GT",
      "stateCode": "GT-SU",
      "latitude": 14.50664,
      "longitude": -91.51319
    },
    {
      "id": 3590028,
      "name": "Municipio de San José El Ídolo",
      "nativeName": "Municipio de San José El Ídolo",
      "code": "GT-SU-3590028",
      "countryId": 3595528,
      "countryCode": "GT",
      "stateCode": "GT-SU",
      "latitude": 14.3851,
      "longitude": -91.43345
    },
    {
      "id": 3589920,
      "name": "Municipio de San Juan Bautista",
      "nativeName": "Municipio de San Juan Bautista",
      "code": "GT-SU-3589920",
      "countryId": 3595528,
      "countryCode": "GT",
      "stateCode": "GT-SU",
      "latitude": 14.42608,
      "longitude": -91.19889
    },
    {
      "id": 3589861,
      "name": "Municipio de San Lorenzo",
      "nativeName": "Municipio de San Lorenzo",
      "code": "GT-SU-3589861",
      "countryId": 3595528,
      "countryCode": "GT",
      "stateCode": "GT-SU",
      "latitude": 14.25221,
      "longitude": -91.52555
    },
    {
      "id": 3589708,
      "name": "Municipio de San Miguel Panán",
      "nativeName": "Municipio de San Miguel Panán",
      "code": "GT-SU-3589708",
      "countryId": 3595528,
      "countryCode": "GT",
      "stateCode": "GT-SU",
      "latitude": 14.50525,
      "longitude": -91.35956
    },
    {
      "id": 3589670,
      "name": "Municipio de San Pablo Jocopilas",
      "nativeName": "Municipio de San Pablo Jocopilas",
      "code": "GT-SU-3589670",
      "countryId": 3595528,
      "countryCode": "GT",
      "stateCode": "GT-SU",
      "latitude": 14.58966,
      "longitude": -91.42849
    },
    {
      "id": 3589465,
      "name": "Municipio de Santa Bárbara",
      "nativeName": "Municipio de Santa Bárbara",
      "code": "GT-SU-3589465",
      "countryId": 3595528,
      "countryCode": "GT",
      "stateCode": "GT-SU",
      "latitude": 14.47317,
      "longitude": -91.24688
    },
    {
      "id": 3589073,
      "name": "Municipio de Santo Domingo Suchitepéquez",
      "nativeName": "Municipio de Santo Domingo Suchitepéquez",
      "code": "GT-SU-3589073",
      "countryId": 3595528,
      "countryCode": "GT",
      "stateCode": "GT-SU",
      "latitude": 14.30003,
      "longitude": -91.50032
    },
    {
      "id": 3589061,
      "name": "Municipio de Santo Tomás La Unión",
      "nativeName": "Municipio de Santo Tomás La Unión",
      "code": "GT-SU-3589061",
      "countryId": 3595528,
      "countryCode": "GT",
      "stateCode": "GT-SU",
      "latitude": 14.62273,
      "longitude": -91.41209
    },
    {
      "id": 3587505,
      "name": "Municipio de Zunilito",
      "nativeName": "Municipio de Zunilito",
      "code": "GT-SU-3587505",
      "countryId": 3595528,
      "countryCode": "GT",
      "stateCode": "GT-SU",
      "latitude": 14.63028,
      "longitude": -91.49863
    }
  ]
}