{
  "stateId": 2473495,
  "stateCode": "TN-52",
  "countryCode": "TN",
  "cities": [
    {
      "id": 11104954,
      "name": "Bekalta",
      "nativeName": "Bekalta",
      "code": "TN-52-11104954",
      "countryId": 2464461,
      "countryCode": "TN",
      "stateCode": "TN-52",
      "latitude": 35.60086,
      "longitude": 11.00856
    },
    {
      "id": 11104966,
      "name": "Bembla",
      "nativeName": "Bembla",
      "code": "TN-52-11104966",
      "countryId": 2464461,
      "countryCode": "TN",
      "stateCode": "TN-52",
      "latitude": 35.68147,
      "longitude": 10.76045
    },
    {
      "id": 11104968,
      "name": "Beni Hassen",
      "nativeName": "Beni Hassen",
      "code": "TN-52-11104968",
      "countryId": 2464461,
      "countryCode": "TN",
      "stateCode": "TN-52",
      "latitude": 35.51946,
      "longitude": 10.75757
    },
    {
      "id": 2470190,
      "name": "Jammel",
      "nativeName": "Jemmal",
      "code": "TN-52-2470190",
      "countryId": 2464461,
      "countryCode": "TN",
      "stateCode": "TN-52",
      "latitude": 35.63918,
      "longitude": 10.71573
    },
    {
      "id": 11104963,
      "name": "Ksar Helal",
      "nativeName": "Ksar Helal",
      "code": "TN-52-11104963",
      "countryId": 2464461,
      "countryCode": "TN",
      "stateCode": "TN-52",
      "latitude": 35.64116,
      "longitude": 10.862
    },
    {
      "id": 11104933,
      "name": "Ksibet El Mediouni",
      "nativeName": "Ksibet El Mediouni",
      "code": "TN-52-11104933",
      "countryId": 2464461,
      "countryCode": "TN",
      "stateCode": "TN-52",
      "latitude": 35.64901,
      "longitude": 10.81332
    },
    {
      "id": 2468701,
      "name": "Moknine",
      "nativeName": "Moknine",
      "code": "TN-52-2468701",
      "countryId": 2464461,
      "countryCode": "TN",
      "stateCode": "TN-52",
      "latitude": 35.5298,
      "longitude": 10.84983
    },
    {
      "id": 2473494,
      "name": "Monastir",
      "nativeName": "Monastir",
      "code": "TN-52-2473494",
      "countryId": 2464461,
      "countryCode": "TN",
      "stateCode": "TN-52",
      "latitude": 35.75606,
      "longitude": 10.79343
    },
    {
      "id": 11104965,
      "name": "Ouerdanine",
      "nativeName": "Ouerdanine",
      "code": "TN-52-11104965",
      "countryId": 2464461,
      "countryCode": "TN",
      "stateCode": "TN-52",
      "latitude": 35.69429,
      "longitude": 10.67199
    },
    {
      "id": 11104964,
      "name": "Sahline",
      "nativeName": "Sahline",
      "code": "TN-52-11104964",
      "countryId": 2464461,
      "countryCode": "TN",
      "stateCode": "TN-52",
      "latitude": 35.73407,
      "longitude": 10.70968
    },
    {
      "id": 11104956,
      "name": "Sayada-Lamta Bou-Hjar",
      "nativeName": "Sayada Lamta Bouhjar",
      "code": "TN-52-11104956",
      "countryId": 2464461,
      "countryCode": "TN",
      "stateCode": "TN-52",
      "latitude": 35.66681,
      "longitude": 10.89079
    },
    {
      "id": 11104955,
      "name": "Teboulba",
      "nativeName": "Délégation de Téboulba",
      "code": "TN-52-11104955",
      "countryId": 2464461,
      "countryCode": "TN",
      "stateCode": "TN-52",
      "latitude": 35.64012,
      "longitude": 10.95151
    },
    {
      "id": 11104967,
      "name": "Zermadine",
      "nativeName": "Zeramdine",
      "code": "TN-52-11104967",
      "countryId": 2464461,
      "countryCode": "TN",
      "stateCode": "TN-52",
      "latitude": 35.53412,
      "longitude": 10.60839
    }
  ]
}