{
  "stateId": 12095451,
  "stateCode": "NP-P5",
  "countryCode": "NP",
  "cities": [
    {
      "id": 12095506,
      "name": "Arghakhanchi",
      "nativeName": "Arghakhanchi",
      "code": "NP-P5-12095506",
      "countryId": 1282988,
      "countryCode": "NP",
      "stateCode": "NP-P5",
      "latitude": 27.93212,
      "longitude": 83.14584
    },
    {
      "id": 12095456,
      "name": "Banke",
      "nativeName": "Banke",
      "code": "NP-P5-12095456",
      "countryId": 1282988,
      "countryCode": "NP",
      "stateCode": "NP-P5",
      "latitude": 28.0958,
      "longitude": 81.77324
    },
    {
      "id": 12095458,
      "name": "Bardiya",
      "nativeName": "Bardiya",
      "code": "NP-P5-12095458",
      "countryId": 1282988,
      "countryCode": "NP",
      "stateCode": "NP-P5",
      "latitude": 28.37182,
      "longitude": 81.45028
    },
    {
      "id": 12095464,
      "name": "Dang",
      "nativeName": "Dang",
      "code": "NP-P5-12095464",
      "countryId": 1282988,
      "countryCode": "NP",
      "stateCode": "NP-P5",
      "latitude": 27.96774,
      "longitude": 82.47822
    },
    {
      "id": 12095473,
      "name": "Gulmi",
      "nativeName": "Gulmi",
      "code": "NP-P5-12095473",
      "countryId": 1282988,
      "countryCode": "NP",
      "stateCode": "NP-P5",
      "latitude": 28.09581,
      "longitude": 83.32932
    },
    {
      "id": 12095482,
      "name": "Kapilbastu",
      "nativeName": "Kapilbastu",
      "code": "NP-P5-12095482",
      "countryId": 1282988,
      "countryCode": "NP",
      "stateCode": "NP-P5",
      "latitude": 27.61916,
      "longitude": 82.98174
    },
    {
      "id": 12095531,
      "name": "Nawalparasi",
      "nativeName": "Nawalparasi",
      "code": "NP-P5-12095531",
      "countryId": 1282988,
      "countryCode": "NP",
      "stateCode": "NP-P5",
      "latitude": 27.52,
      "longitude": 83.738
    },
    {
      "id": 12095499,
      "name": "Palpa",
      "nativeName": "Palpa",
      "code": "NP-P5-12095499",
      "countryId": 1282988,
      "countryCode": "NP",
      "stateCode": "NP-P5",
      "latitude": 27.81057,
      "longitude": 83.63051
    },
    {
      "id": 12095503,
      "name": "Pyuthan",
      "nativeName": "Pyuthan",
      "code": "NP-P5-12095503",
      "countryId": 1282988,
      "countryCode": "NP",
      "stateCode": "NP-P5",
      "latitude": 28.12018,
      "longitude": 82.83005
    },
    {
      "id": 12095513,
      "name": "Rolpa",
      "nativeName": "Rolpa",
      "code": "NP-P5-12095513",
      "countryId": 1282988,
      "countryCode": "NP",
      "stateCode": "NP-P5",
      "latitude": 28.32542,
      "longitude": 82.64442
    },
    {
      "id": 12095514,
      "name": "Rukum",
      "nativeName": "Rukum",
      "code": "NP-P5-12095514",
      "countryId": 1282988,
      "countryCode": "NP",
      "stateCode": "NP-P5",
      "latitude": 28.67241,
      "longitude": 82.86001
    },
    {
      "id": 12095515,
      "name": "Rupandehi",
      "nativeName": "Rupandehi",
      "code": "NP-P5-12095515",
      "countryId": 1282988,
      "countryCode": "NP",
      "stateCode": "NP-P5",
      "latitude": 27.54922,
      "longitude": 83.40335
    }
  ]
}