{
  "stateId": 408661,
  "stateCode": "SD-KS",
  "countryCode": "SD",
  "cities": [
    {
      "id": 373141,
      "name": "Kaduqli",
      "nativeName": "Kadugli",
      "code": "SD-KS-373141",
      "countryId": 366755,
      "countryCode": "SD",
      "stateCode": "SD-KS",
      "latitude": 11.01111,
      "longitude": 29.71833
    },
    {
      "id": 380757,
      "name": "Abu Jibeha",
      "nativeName": "Abu Jibeha",
      "code": "SD-KS-380757",
      "countryId": 366755,
      "countryCode": "SD",
      "stateCode": "SD-KS",
      "latitude": 11.4562,
      "longitude": 31.2285
    },
    {
      "id": 380626,
      "name": "Abu Jires",
      "nativeName": "Abu Jires",
      "code": "SD-KS-380626",
      "countryId": 366755,
      "countryCode": "SD",
      "stateCode": "SD-KS",
      "latitude": 11.76445,
      "longitude": 31.60384
    },
    {
      "id": 380659,
      "name": "Abu Nuweira",
      "nativeName": "Abu Nuweira",
      "code": "SD-KS-380659",
      "countryId": 366755,
      "countryCode": "SD",
      "stateCode": "SD-KS",
      "latitude": 11.188,
      "longitude": 31.5202
    },
    {
      "id": 434475,
      "name": "Abu Seba",
      "nativeName": "Abu Seba",
      "code": "SD-KS-434475",
      "countryId": 366755,
      "countryCode": "SD",
      "stateCode": "SD-KS",
      "latitude": 11.9822,
      "longitude": 29.6188
    },
    {
      "id": 380746,
      "name": "Abū Kershola",
      "nativeName": "Abū Kershola",
      "code": "SD-KS-380746",
      "countryId": 366755,
      "countryCode": "SD",
      "stateCode": "SD-KS",
      "latitude": 12.15,
      "longitude": 30.8
    },
    {
      "id": 380854,
      "name": "Abū Ḩamīrah",
      "nativeName": "Abū Ḩamīrah",
      "code": "SD-KS-380854",
      "countryId": 366755,
      "countryCode": "SD",
      "stateCode": "SD-KS",
      "latitude": 11.25,
      "longitude": 31.18333
    },
    {
      "id": 381006,
      "name": "Abū ‘Awjā’",
      "nativeName": "Abū ‘Awjā’",
      "code": "SD-KS-381006",
      "countryId": 366755,
      "countryCode": "SD",
      "stateCode": "SD-KS",
      "latitude": 12.05,
      "longitude": 31.05
    },
    {
      "id": 380183,
      "name": "Ad Dabkir",
      "nativeName": "Ad Dabkir",
      "code": "SD-KS-380183",
      "countryId": 366755,
      "countryCode": "SD",
      "stateCode": "SD-KS",
      "latitude": 12.01667,
      "longitude": 31.51667
    },
    {
      "id": 380134,
      "name": "Ad Dulayb",
      "nativeName": "Ad Dulayb",
      "code": "SD-KS-380134",
      "countryId": 366755,
      "countryCode": "SD",
      "stateCode": "SD-KS",
      "latitude": 11.9,
      "longitude": 31.63333
    },
    {
      "id": 379624,
      "name": "Al Bardāb",
      "nativeName": "Al Bardāb",
      "code": "SD-KS-379624",
      "countryId": 366755,
      "countryCode": "SD",
      "stateCode": "SD-KS",
      "latitude": 11.2,
      "longitude": 29.63278
    },
    {
      "id": 379621,
      "name": "Al Biri",
      "nativeName": "Al Biri",
      "code": "SD-KS-379621",
      "countryId": 366755,
      "countryCode": "SD",
      "stateCode": "SD-KS",
      "latitude": 11.11667,
      "longitude": 30.3
    },
    {
      "id": 379608,
      "name": "Al Budayrīyah",
      "nativeName": "Al Budayrīyah",
      "code": "SD-KS-379608",
      "countryId": 366755,
      "countryCode": "SD",
      "stateCode": "SD-KS",
      "latitude": 12.13333,
      "longitude": 31.26667
    },
    {
      "id": 379587,
      "name": "Al Byeara",
      "nativeName": "Al Byeara",
      "code": "SD-KS-379587",
      "countryId": 366755,
      "countryCode": "SD",
      "stateCode": "SD-KS",
      "latitude": 11.05,
      "longitude": 30.13333
    },
    {
      "id": 368311,
      "name": "Al Cardud",
      "nativeName": "Al Cardud",
      "code": "SD-KS-368311",
      "countryId": 366755,
      "countryCode": "SD",
      "stateCode": "SD-KS",
      "latitude": 11.9527,
      "longitude": 30.4602
    },
    {
      "id": 379548,
      "name": "Al Fayḑ",
      "nativeName": "Al Fayḑ",
      "code": "SD-KS-379548",
      "countryId": 366755,
      "countryCode": "SD",
      "stateCode": "SD-KS",
      "latitude": 11.71667,
      "longitude": 30.83333
    },
    {
      "id": 379549,
      "name": "Al Fayḑ",
      "nativeName": "Al Fayḑ",
      "code": "SD-KS-379549",
      "countryId": 366755,
      "countryCode": "SD",
      "stateCode": "SD-KS",
      "latitude": 11.51667,
      "longitude": 31.13333
    },
    {
      "id": 379535,
      "name": "Al Fūlah",
      "nativeName": "Al Fūlah",
      "code": "SD-KS-379535",
      "countryId": 366755,
      "countryCode": "SD",
      "stateCode": "SD-KS",
      "latitude": 11.73292,
      "longitude": 28.35786
    },
    {
      "id": 379439,
      "name": "Al Hamra",
      "nativeName": "Al Ḩamrā’",
      "code": "SD-KS-379439",
      "countryId": 366755,
      "countryCode": "SD",
      "stateCode": "SD-KS",
      "latitude": 12.41667,
      "longitude": 30.05
    },
    {
      "id": 379400,
      "name": "Al Hoi",
      "nativeName": "Al Hoi",
      "code": "SD-KS-379400",
      "countryId": 366755,
      "countryCode": "SD",
      "stateCode": "SD-KS",
      "latitude": 12.1,
      "longitude": 31.25
    },
    {
      "id": 379308,
      "name": "Al Jummayzah",
      "nativeName": "Al Jummayzah",
      "code": "SD-KS-379308",
      "countryId": 366755,
      "countryCode": "SD",
      "stateCode": "SD-KS",
      "latitude": 11.78333,
      "longitude": 30.68333
    },
    {
      "id": 434445,
      "name": "Al Kiwēk",
      "nativeName": "Al Kiwēk",
      "code": "SD-KS-434445",
      "countryId": 366755,
      "countryCode": "SD",
      "stateCode": "SD-KS",
      "latitude": 11.30111,
      "longitude": 29.65972
    },
    {
      "id": 379213,
      "name": "Al Kūr",
      "nativeName": "Al Kūr",
      "code": "SD-KS-379213",
      "countryId": 366755,
      "countryCode": "SD",
      "stateCode": "SD-KS",
      "latitude": 11.91667,
      "longitude": 30.66667
    },
    {
      "id": 379161,
      "name": "Al Mahalabi",
      "nativeName": "Al Mahalabi",
      "code": "SD-KS-379161",
      "countryId": 366755,
      "countryCode": "SD",
      "stateCode": "SD-KS",
      "latitude": 12.3,
      "longitude": 31.33333
    },
    {
      "id": 379106,
      "name": "Al Messin",
      "nativeName": "Al Messin",
      "code": "SD-KS-379106",
      "countryId": 366755,
      "countryCode": "SD",
      "stateCode": "SD-KS",
      "latitude": 12.2,
      "longitude": 31.33333
    },
    {
      "id": 379101,
      "name": "Al Milḩ",
      "nativeName": "Al Milḩ",
      "code": "SD-KS-379101",
      "countryId": 366755,
      "countryCode": "SD",
      "stateCode": "SD-KS",
      "latitude": 12.48333,
      "longitude": 30.03333
    },
    {
      "id": 379073,
      "name": "Al Oddaiya",
      "nativeName": "Al Oddaiya",
      "code": "SD-KS-379073",
      "countryId": 366755,
      "countryCode": "SD",
      "stateCode": "SD-KS",
      "latitude": 12.45,
      "longitude": 30.03333
    },
    {
      "id": 378962,
      "name": "Al Uzayriq",
      "nativeName": "Al Uzayriq",
      "code": "SD-KS-378962",
      "countryId": 366755,
      "countryCode": "SD",
      "stateCode": "SD-KS",
      "latitude": 11.96667,
      "longitude": 31.43333
    },
    {
      "id": 379758,
      "name": "Al ‘Abbāsiyya",
      "nativeName": "Al ‘Abbāsiyya",
      "code": "SD-KS-379758",
      "countryId": 366755,
      "countryCode": "SD",
      "stateCode": "SD-KS",
      "latitude": 12.1648,
      "longitude": 31.303
    },
    {
      "id": 378987,
      "name": "Al ‘Ufaynah",
      "nativeName": "Al ‘Ufaynah",
      "code": "SD-KS-378987",
      "countryId": 366755,
      "countryCode": "SD",
      "stateCode": "SD-KS",
      "latitude": 11.78333,
      "longitude": 31.33333
    },
    {
      "id": 12492703,
      "name": "Alfarshaya",
      "nativeName": "Alfarshaya",
      "code": "SD-KS-12492703",
      "countryId": 366755,
      "countryCode": "SD",
      "stateCode": "SD-KS",
      "latitude": 13.21449,
      "longitude": 29.88871
    },
    {
      "id": 12492708,
      "name": "Algooz",
      "nativeName": "Algooz",
      "code": "SD-KS-12492708",
      "countryId": 366755,
      "countryCode": "SD",
      "stateCode": "SD-KS",
      "latitude": 13.12054,
      "longitude": 29.25283
    },
    {
      "id": 379176,
      "name": "Alleira Lauti",
      "nativeName": "Alleira Lauti",
      "code": "SD-KS-379176",
      "countryId": 366755,
      "countryCode": "SD",
      "stateCode": "SD-KS",
      "latitude": 11.38333,
      "longitude": 30.5
    },
    {
      "id": 367617,
      "name": "Alsiragiya",
      "nativeName": "Saragia",
      "code": "SD-KS-367617",
      "countryId": 366755,
      "countryCode": "SD",
      "stateCode": "SD-KS",
      "latitude": 11.28333,
      "longitude": 31.65
    },
    {
      "id": 12492710,
      "name": "Alsunut",
      "nativeName": "Alsunut",
      "code": "SD-KS-12492710",
      "countryId": 366755,
      "countryCode": "SD",
      "stateCode": "SD-KS",
      "latitude": 9.81704,
      "longitude": 28.74102
    },
    {
      "id": 364448,
      "name": "An Dassēna",
      "nativeName": "An Dassēna",
      "code": "SD-KS-364448",
      "countryId": 366755,
      "countryCode": "SD",
      "stateCode": "SD-KS",
      "latitude": 12.1743,
      "longitude": 31.5629
    },
    {
      "id": 378802,
      "name": "Andona",
      "nativeName": "Andona",
      "code": "SD-KS-378802",
      "countryId": 366755,
      "countryCode": "SD",
      "stateCode": "SD-KS",
      "latitude": 11.6408,
      "longitude": 30.3642
    },
    {
      "id": 378268,
      "name": "As Sulayk",
      "nativeName": "As Sulayk",
      "code": "SD-KS-378268",
      "countryId": 366755,
      "countryCode": "SD",
      "stateCode": "SD-KS",
      "latitude": 12.58333,
      "longitude": 29.83333
    },
    {
      "id": 378102,
      "name": "Awaiat",
      "nativeName": "Awaiat",
      "code": "SD-KS-378102",
      "countryId": 366755,
      "countryCode": "SD",
      "stateCode": "SD-KS",
      "latitude": 11.81667,
      "longitude": 31.11667
    },
    {
      "id": 378302,
      "name": "Aş Şarrārah",
      "nativeName": "Aş Şarrārah",
      "code": "SD-KS-378302",
      "countryId": 366755,
      "countryCode": "SD",
      "stateCode": "SD-KS",
      "latitude": 11.7,
      "longitude": 31.4
    },
    {
      "id": 377707,
      "name": "Barakīyah",
      "nativeName": "Barakīyah",
      "code": "SD-KS-377707",
      "countryId": 366755,
      "countryCode": "SD",
      "stateCode": "SD-KS",
      "latitude": 12.41667,
      "longitude": 31.2
    },
    {
      "id": 377604,
      "name": "Bashāmah",
      "nativeName": "Bashāmah",
      "code": "SD-KS-377604",
      "countryId": 366755,
      "countryCode": "SD",
      "stateCode": "SD-KS",
      "latitude": 12.51667,
      "longitude": 30.3
    },
    {
      "id": 377379,
      "name": "Bint Ghabat",
      "nativeName": "Bint Ghabat",
      "code": "SD-KS-377379",
      "countryId": 366755,
      "countryCode": "SD",
      "stateCode": "SD-KS",
      "latitude": 10.93926,
      "longitude": 31.14533
    },
    {
      "id": 377380,
      "name": "Bint el Kelb",
      "nativeName": "Bint el Kelb",
      "code": "SD-KS-377380",
      "countryId": 366755,
      "countryCode": "SD",
      "stateCode": "SD-KS",
      "latitude": 10.79165,
      "longitude": 30.91904
    },
    {
      "id": 377010,
      "name": "Buwayḑah",
      "nativeName": "Buwayḑah",
      "code": "SD-KS-377010",
      "countryId": 366755,
      "countryCode": "SD",
      "stateCode": "SD-KS",
      "latitude": 12.11667,
      "longitude": 30.86667
    },
    {
      "id": 376903,
      "name": "Dabbat al Bukhas",
      "nativeName": "Dabbat al Bukhas",
      "code": "SD-KS-376903",
      "countryId": 366755,
      "countryCode": "SD",
      "stateCode": "SD-KS",
      "latitude": 11.38333,
      "longitude": 31.35
    },
    {
      "id": 376901,
      "name": "Dabbat ‘Ubayd",
      "nativeName": "Dabbat ‘Ubayd",
      "code": "SD-KS-376901",
      "countryId": 366755,
      "countryCode": "SD",
      "stateCode": "SD-KS",
      "latitude": 11.35,
      "longitude": 28.85
    },
    {
      "id": 376830,
      "name": "Dallami",
      "nativeName": "Dallami",
      "code": "SD-KS-376830",
      "countryId": 366755,
      "countryCode": "SD",
      "stateCode": "SD-KS",
      "latitude": 11.8597,
      "longitude": 30.462
    },
    {
      "id": 376652,
      "name": "Deira",
      "nativeName": "Deira",
      "code": "SD-KS-376652",
      "countryId": 366755,
      "countryCode": "SD",
      "stateCode": "SD-KS",
      "latitude": 11.6069,
      "longitude": 30.4439
    },
    {
      "id": 376450,
      "name": "Dilling",
      "nativeName": "Dilling",
      "code": "SD-KS-376450",
      "countryId": 366755,
      "countryCode": "SD",
      "stateCode": "SD-KS",
      "latitude": 12.05,
      "longitude": 29.65
    },
    {
      "id": 376156,
      "name": "Dulaybah",
      "nativeName": "Dulaybah",
      "code": "SD-KS-376156",
      "countryId": 366755,
      "countryCode": "SD",
      "stateCode": "SD-KS",
      "latitude": 11,
      "longitude": 31.65
    },
    {
      "id": 434463,
      "name": "Duleba",
      "nativeName": "Duleba",
      "code": "SD-KS-434463",
      "countryId": 366755,
      "countryCode": "SD",
      "stateCode": "SD-KS",
      "latitude": 11.8269,
      "longitude": 29.6652
    },
    {
      "id": 376053,
      "name": "Duwayr",
      "nativeName": "Duwayr",
      "code": "SD-KS-376053",
      "countryId": 366755,
      "countryCode": "SD",
      "stateCode": "SD-KS",
      "latitude": 11.05,
      "longitude": 30.48333
    },
    {
      "id": 380188,
      "name": "Ed Debba",
      "nativeName": "Ed Debba",
      "code": "SD-KS-380188",
      "countryId": 366755,
      "countryCode": "SD",
      "stateCode": "SD-KS",
      "latitude": 10.96743,
      "longitude": 31.65835
    },
    {
      "id": 380184,
      "name": "Ed Debkar",
      "nativeName": "Ed Debkar",
      "code": "SD-KS-380184",
      "countryId": 366755,
      "countryCode": "SD",
      "stateCode": "SD-KS",
      "latitude": 10.6425,
      "longitude": 29.69549
    },
    {
      "id": 380136,
      "name": "Ed Dikeidik",
      "nativeName": "Ed Dikeidik",
      "code": "SD-KS-380136",
      "countryId": 366755,
      "countryCode": "SD",
      "stateCode": "SD-KS",
      "latitude": 10.86849,
      "longitude": 32.07681
    },
    {
      "id": 380154,
      "name": "Ed Dikeri",
      "nativeName": "Ed Dikeri",
      "code": "SD-KS-380154",
      "countryId": 366755,
      "countryCode": "SD",
      "stateCode": "SD-KS",
      "latitude": 10.53775,
      "longitude": 30.28317
    },
    {
      "id": 375943,
      "name": "Eiri",
      "nativeName": "Eiri",
      "code": "SD-KS-375943",
      "countryId": 366755,
      "countryCode": "SD",
      "stateCode": "SD-KS",
      "latitude": 11.06667,
      "longitude": 30.31667
    },
    {
      "id": 379626,
      "name": "El Beiri",
      "nativeName": "El Beiri",
      "code": "SD-KS-379626",
      "countryId": 366755,
      "countryCode": "SD",
      "stateCode": "SD-KS",
      "latitude": 10.52132,
      "longitude": 30.30157
    },
    {
      "id": 379550,
      "name": "El Feid",
      "nativeName": "El Feid",
      "code": "SD-KS-379550",
      "countryId": 366755,
      "countryCode": "SD",
      "stateCode": "SD-KS",
      "latitude": 10.45628,
      "longitude": 31.24889
    },
    {
      "id": 379332,
      "name": "El Gohara",
      "nativeName": "El Gohara",
      "code": "SD-KS-379332",
      "countryId": 366755,
      "countryCode": "SD",
      "stateCode": "SD-KS",
      "latitude": 10.34921,
      "longitude": 30.71607
    },
    {
      "id": 379430,
      "name": "El Hariqa",
      "nativeName": "El Hariqa",
      "code": "SD-KS-379430",
      "countryId": 366755,
      "countryCode": "SD",
      "stateCode": "SD-KS",
      "latitude": 11.83333,
      "longitude": 31.66667
    },
    {
      "id": 379316,
      "name": "El Joghub",
      "nativeName": "El Joghub",
      "code": "SD-KS-379316",
      "countryId": 366755,
      "countryCode": "SD",
      "stateCode": "SD-KS",
      "latitude": 10.26518,
      "longitude": 30.69945
    },
    {
      "id": 379277,
      "name": "El Karkarai",
      "nativeName": "El Karkarai",
      "code": "SD-KS-379277",
      "countryId": 366755,
      "countryCode": "SD",
      "stateCode": "SD-KS",
      "latitude": 10.35422,
      "longitude": 30.6871
    },
    {
      "id": 379289,
      "name": "El Kedada",
      "nativeName": "El Kedada",
      "code": "SD-KS-379289",
      "countryId": 366755,
      "countryCode": "SD",
      "stateCode": "SD-KS",
      "latitude": 11.81667,
      "longitude": 31.46667
    },
    {
      "id": 379017,
      "name": "El Qardud",
      "nativeName": "El Qardud",
      "code": "SD-KS-379017",
      "countryId": 366755,
      "countryCode": "SD",
      "stateCode": "SD-KS",
      "latitude": 11,
      "longitude": 31.7
    },
    {
      "id": 379567,
      "name": "Fakārīn",
      "nativeName": "Fakārīn",
      "code": "SD-KS-379567",
      "countryId": 366755,
      "countryCode": "SD",
      "stateCode": "SD-KS",
      "latitude": 12.5884,
      "longitude": 31.2791
    },
    {
      "id": 379564,
      "name": "Fallata",
      "nativeName": "Fallata",
      "code": "SD-KS-379564",
      "countryId": 366755,
      "countryCode": "SD",
      "stateCode": "SD-KS",
      "latitude": 10.06333,
      "longitude": 30.73698
    },
    {
      "id": 375416,
      "name": "Fayḑ aţ Ţayr",
      "nativeName": "Fayḑ aţ Ţayr",
      "code": "SD-KS-375416",
      "countryId": 366755,
      "countryCode": "SD",
      "stateCode": "SD-KS",
      "latitude": 11.55,
      "longitude": 30.75
    },
    {
      "id": 12492707,
      "name": "Gadeer",
      "nativeName": "Gadeer",
      "code": "SD-KS-12492707",
      "countryId": 366755,
      "countryCode": "SD",
      "stateCode": "SD-KS",
      "latitude": 13.10179,
      "longitude": 29.22603
    },
    {
      "id": 7029451,
      "name": "Gardud el Badry",
      "nativeName": "Gardud el Badry",
      "code": "SD-KS-7029451",
      "countryId": 366755,
      "countryCode": "SD",
      "stateCode": "SD-KS",
      "latitude": 12.05825,
      "longitude": 31.14848
    },
    {
      "id": 12492704,
      "name": "Garid",
      "nativeName": "Garid",
      "code": "SD-KS-12492704",
      "countryId": 366755,
      "countryCode": "SD",
      "stateCode": "SD-KS",
      "latitude": 13.53193,
      "longitude": 25.10272
    },
    {
      "id": 373293,
      "name": "Gedeid",
      "nativeName": "Gedeid",
      "code": "SD-KS-373293",
      "countryId": 366755,
      "countryCode": "SD",
      "stateCode": "SD-KS",
      "latitude": 11.00502,
      "longitude": 31.77137
    },
    {
      "id": 368336,
      "name": "Gereid",
      "nativeName": "Gereid",
      "code": "SD-KS-368336",
      "countryId": 366755,
      "countryCode": "SD",
      "stateCode": "SD-KS",
      "latitude": 10.78212,
      "longitude": 31.77931
    },
    {
      "id": 368341,
      "name": "Girada",
      "nativeName": "Girada",
      "code": "SD-KS-368341",
      "countryId": 366755,
      "countryCode": "SD",
      "stateCode": "SD-KS",
      "latitude": 10.90722,
      "longitude": 31.14177
    },
    {
      "id": 374459,
      "name": "Habis el Humar",
      "nativeName": "Habis el Humar",
      "code": "SD-KS-374459",
      "countryId": 366755,
      "countryCode": "SD",
      "stateCode": "SD-KS",
      "latitude": 10.97652,
      "longitude": 31.22237
    },
    {
      "id": 378486,
      "name": "Hajar ar Rakuba",
      "nativeName": "Hajar ar Rakuba",
      "code": "SD-KS-378486",
      "countryId": 366755,
      "countryCode": "SD",
      "stateCode": "SD-KS",
      "latitude": 11.5187,
      "longitude": 30.2639
    },
    {
      "id": 374155,
      "name": "Hamra",
      "nativeName": "Hamra",
      "code": "SD-KS-374155",
      "countryId": 366755,
      "countryCode": "SD",
      "stateCode": "SD-KS",
      "latitude": 10.89567,
      "longitude": 29.89308
    },
    {
      "id": 373902,
      "name": "Haybān",
      "nativeName": "Haybān",
      "code": "SD-KS-373902",
      "countryId": 366755,
      "countryCode": "SD",
      "stateCode": "SD-KS",
      "latitude": 11.21861,
      "longitude": 30.51722
    },
    {
      "id": 371012,
      "name": "Higar",
      "nativeName": "Higar",
      "code": "SD-KS-371012",
      "countryId": 366755,
      "countryCode": "SD",
      "stateCode": "SD-KS",
      "latitude": 11.93333,
      "longitude": 30.65
    },
    {
      "id": 373755,
      "name": "Hugier el Farag",
      "nativeName": "Hugier el Farag",
      "code": "SD-KS-373755",
      "countryId": 366755,
      "countryCode": "SD",
      "stateCode": "SD-KS",
      "latitude": 10.97333,
      "longitude": 31.18516
    },
    {
      "id": 373637,
      "name": "Ibrāhīm al Fūţah",
      "nativeName": "Ibrāhīm al Fūţah",
      "code": "SD-KS-373637",
      "countryId": 366755,
      "countryCode": "SD",
      "stateCode": "SD-KS",
      "latitude": 12.18333,
      "longitude": 30.66667
    },
    {
      "id": 373616,
      "name": "Id en Nakhi",
      "nativeName": "Id en Nakhi",
      "code": "SD-KS-373616",
      "countryId": 366755,
      "countryCode": "SD",
      "stateCode": "SD-KS",
      "latitude": 11.2,
      "longitude": 31.53333
    },
    {
      "id": 373547,
      "name": "Indasseina",
      "nativeName": "Indasseina",
      "code": "SD-KS-373547",
      "countryId": 366755,
      "countryCode": "SD",
      "stateCode": "SD-KS",
      "latitude": 12.21667,
      "longitude": 31.06667
    },
    {
      "id": 373446,
      "name": "Jabrīn",
      "nativeName": "Jabrīn",
      "code": "SD-KS-373446",
      "countryId": 366755,
      "countryCode": "SD",
      "stateCode": "SD-KS",
      "latitude": 12.15,
      "longitude": 30.26667
    },
    {
      "id": 373334,
      "name": "Jirbān",
      "nativeName": "Jirbān",
      "code": "SD-KS-373334",
      "countryId": 366755,
      "countryCode": "SD",
      "stateCode": "SD-KS",
      "latitude": 11.05,
      "longitude": 30.6
    },
    {
      "id": 373298,
      "name": "Jubaylāt",
      "nativeName": "Jubaylāt",
      "code": "SD-KS-373298",
      "countryId": 366755,
      "countryCode": "SD",
      "stateCode": "SD-KS",
      "latitude": 11.5,
      "longitude": 31.41667
    },
    {
      "id": 373300,
      "name": "Jubeil",
      "nativeName": "Jubeil",
      "code": "SD-KS-373300",
      "countryId": 366755,
      "countryCode": "SD",
      "stateCode": "SD-KS",
      "latitude": 10.20364,
      "longitude": 30.74764
    },
    {
      "id": 373299,
      "name": "Jubeilat",
      "nativeName": "Jubeilat",
      "code": "SD-KS-373299",
      "countryId": 366755,
      "countryCode": "SD",
      "stateCode": "SD-KS",
      "latitude": 10.92891,
      "longitude": 30.97473
    },
    {
      "id": 373277,
      "name": "Juluia",
      "nativeName": "Juluia",
      "code": "SD-KS-373277",
      "countryId": 366755,
      "countryCode": "SD",
      "stateCode": "SD-KS",
      "latitude": 12.13333,
      "longitude": 31.21667
    },
    {
      "id": 373212,
      "name": "Kabra",
      "nativeName": "Kabra",
      "code": "SD-KS-373212",
      "countryId": 366755,
      "countryCode": "SD",
      "stateCode": "SD-KS",
      "latitude": 11.6532,
      "longitude": 31.032
    },
    {
      "id": 373020,
      "name": "Kalendo",
      "nativeName": "Kalendo",
      "code": "SD-KS-373020",
      "countryId": 366755,
      "countryCode": "SD",
      "stateCode": "SD-KS",
      "latitude": 10.66732,
      "longitude": 30.02929
    },
    {
      "id": 373002,
      "name": "Kallo Ghubsh",
      "nativeName": "Kallo Ghubsh",
      "code": "SD-KS-373002",
      "countryId": 366755,
      "countryCode": "SD",
      "stateCode": "SD-KS",
      "latitude": 11.31667,
      "longitude": 30.6
    },
    {
      "id": 372991,
      "name": "Kalogi",
      "nativeName": "Kaloqi",
      "code": "SD-KS-372991",
      "countryId": 366755,
      "countryCode": "SD",
      "stateCode": "SD-KS",
      "latitude": 10.85776,
      "longitude": 30.98409
    },
    {
      "id": 372939,
      "name": "Kamrogia",
      "nativeName": "Kamrogia",
      "code": "SD-KS-372939",
      "countryId": 366755,
      "countryCode": "SD",
      "stateCode": "SD-KS",
      "latitude": 12.05,
      "longitude": 31.26667
    },
    {
      "id": 372936,
      "name": "Kamsōr",
      "nativeName": "Kamsōr",
      "code": "SD-KS-372936",
      "countryId": 366755,
      "countryCode": "SD",
      "stateCode": "SD-KS",
      "latitude": 12.352,
      "longitude": 31.1822
    },
    {
      "id": 372891,
      "name": "Kanyuro",
      "nativeName": "Kanyuro",
      "code": "SD-KS-372891",
      "countryId": 366755,
      "countryCode": "SD",
      "stateCode": "SD-KS",
      "latitude": 11.1,
      "longitude": 30.65
    },
    {
      "id": 371739,
      "name": "Kara",
      "nativeName": "Kara",
      "code": "SD-KS-371739",
      "countryId": 366755,
      "countryCode": "SD",
      "stateCode": "SD-KS",
      "latitude": 11.6701,
      "longitude": 29.5514
    },
    {
      "id": 372836,
      "name": "Kardilla",
      "nativeName": "Kardilla",
      "code": "SD-KS-372836",
      "countryId": 366755,
      "countryCode": "SD",
      "stateCode": "SD-KS",
      "latitude": 11.01667,
      "longitude": 30.63333
    },
    {
      "id": 372802,
      "name": "Karling",
      "nativeName": "Karling",
      "code": "SD-KS-372802",
      "countryId": 366755,
      "countryCode": "SD",
      "stateCode": "SD-KS",
      "latitude": 12.3,
      "longitude": 30.9
    },
    {
      "id": 372798,
      "name": "Karnak",
      "nativeName": "Karnak",
      "code": "SD-KS-372798",
      "countryId": 366755,
      "countryCode": "SD",
      "stateCode": "SD-KS",
      "latitude": 12.05,
      "longitude": 31.53333
    },
    {
      "id": 372715,
      "name": "Katla",
      "nativeName": "Katla",
      "code": "SD-KS-372715",
      "countryId": 366755,
      "countryCode": "SD",
      "stateCode": "SD-KS",
      "latitude": 11.75,
      "longitude": 29.31667
    },
    {
      "id": 372713,
      "name": "Kato",
      "nativeName": "Kato",
      "code": "SD-KS-372713",
      "countryId": 366755,
      "countryCode": "SD",
      "stateCode": "SD-KS",
      "latitude": 11.31667,
      "longitude": 30.5
    },
    {
      "id": 372707,
      "name": "Kau",
      "nativeName": "Kau",
      "code": "SD-KS-372707",
      "countryId": 366755,
      "countryCode": "SD",
      "stateCode": "SD-KS",
      "latitude": 10.61619,
      "longitude": 31.47089
    },
    {
      "id": 372698,
      "name": "Kauda",
      "nativeName": "Kauda",
      "code": "SD-KS-372698",
      "countryId": 366755,
      "countryCode": "SD",
      "stateCode": "SD-KS",
      "latitude": 11.1,
      "longitude": 30.51667
    },
    {
      "id": 372690,
      "name": "Keilan",
      "nativeName": "Keilan",
      "code": "SD-KS-372690",
      "countryId": 366755,
      "countryCode": "SD",
      "stateCode": "SD-KS",
      "latitude": 11.93333,
      "longitude": 31.68333
    },
    {
      "id": 372529,
      "name": "Khash Khashaia",
      "nativeName": "Khash Khashaia",
      "code": "SD-KS-372529",
      "countryId": 366755,
      "countryCode": "SD",
      "stateCode": "SD-KS",
      "latitude": 10.32338,
      "longitude": 30.62092
    },
    {
      "id": 372501,
      "name": "Khawr Koshi",
      "nativeName": "Khawr Koshi",
      "code": "SD-KS-372501",
      "countryId": 366755,
      "countryCode": "SD",
      "stateCode": "SD-KS",
      "latitude": 11.85,
      "longitude": 31.18333
    },
    {
      "id": 372518,
      "name": "Khor",
      "nativeName": "Khor",
      "code": "SD-KS-372518",
      "countryId": 366755,
      "countryCode": "SD",
      "stateCode": "SD-KS",
      "latitude": 10.23356,
      "longitude": 30.7436
    },
    {
      "id": 372435,
      "name": "Kiddu",
      "nativeName": "Kiddu",
      "code": "SD-KS-372435",
      "countryId": 366755,
      "countryCode": "SD",
      "stateCode": "SD-KS",
      "latitude": 11.78333,
      "longitude": 29.33333
    },
    {
      "id": 372335,
      "name": "Kitrah",
      "nativeName": "Kitrah",
      "code": "SD-KS-372335",
      "countryId": 366755,
      "countryCode": "SD",
      "stateCode": "SD-KS",
      "latitude": 12.36667,
      "longitude": 31.26667
    },
    {
      "id": 372336,
      "name": "Kitrah",
      "nativeName": "Kitrah",
      "code": "SD-KS-372336",
      "countryId": 366755,
      "countryCode": "SD",
      "stateCode": "SD-KS",
      "latitude": 11.46667,
      "longitude": 31.43333
    },
    {
      "id": 372277,
      "name": "Kokai",
      "nativeName": "Kokai",
      "code": "SD-KS-372277",
      "countryId": 366755,
      "countryCode": "SD",
      "stateCode": "SD-KS",
      "latitude": 10.34858,
      "longitude": 30.63961
    },
    {
      "id": 372239,
      "name": "Kolobo",
      "nativeName": "Kolobo",
      "code": "SD-KS-372239",
      "countryId": 366755,
      "countryCode": "SD",
      "stateCode": "SD-KS",
      "latitude": 11.78333,
      "longitude": 30.95
    },
    {
      "id": 372116,
      "name": "Kortala",
      "nativeName": "Kortala",
      "code": "SD-KS-372116",
      "countryId": 366755,
      "countryCode": "SD",
      "stateCode": "SD-KS",
      "latitude": 12.08333,
      "longitude": 30.3
    },
    {
      "id": 372060,
      "name": "Kuarday",
      "nativeName": "Kuarday",
      "code": "SD-KS-372060",
      "countryId": 366755,
      "countryCode": "SD",
      "stateCode": "SD-KS",
      "latitude": 11.03333,
      "longitude": 30.48333
    },
    {
      "id": 372059,
      "name": "Kuartal",
      "nativeName": "Kuartal",
      "code": "SD-KS-372059",
      "countryId": 366755,
      "countryCode": "SD",
      "stateCode": "SD-KS",
      "latitude": 11.1,
      "longitude": 30.5
    },
    {
      "id": 372030,
      "name": "Kudba",
      "nativeName": "Kudba",
      "code": "SD-KS-372030",
      "countryId": 366755,
      "countryCode": "SD",
      "stateCode": "SD-KS",
      "latitude": 11.83333,
      "longitude": 30.53333
    },
    {
      "id": 366140,
      "name": "Kukay",
      "nativeName": "Kukay",
      "code": "SD-KS-366140",
      "countryId": 366755,
      "countryCode": "SD",
      "stateCode": "SD-KS",
      "latitude": 11.894,
      "longitude": 30.3754
    },
    {
      "id": 371965,
      "name": "Kuli",
      "nativeName": "Kuli",
      "code": "SD-KS-371965",
      "countryId": 366755,
      "countryCode": "SD",
      "stateCode": "SD-KS",
      "latitude": 11.6,
      "longitude": 29.71667
    },
    {
      "id": 371942,
      "name": "Kulonong",
      "nativeName": "Kulonong",
      "code": "SD-KS-371942",
      "countryId": 366755,
      "countryCode": "SD",
      "stateCode": "SD-KS",
      "latitude": 11.08333,
      "longitude": 30.48333
    },
    {
      "id": 371915,
      "name": "Kumbar",
      "nativeName": "Kumbar",
      "code": "SD-KS-371915",
      "countryId": 366755,
      "countryCode": "SD",
      "stateCode": "SD-KS",
      "latitude": 12.05,
      "longitude": 30.26667
    },
    {
      "id": 371743,
      "name": "Kuturi",
      "nativeName": "Kuturi",
      "code": "SD-KS-371743",
      "countryId": 366755,
      "countryCode": "SD",
      "stateCode": "SD-KS",
      "latitude": 12.16667,
      "longitude": 31.33333
    },
    {
      "id": 366423,
      "name": "Kāndik",
      "nativeName": "Kāndik",
      "code": "SD-KS-366423",
      "countryId": 366755,
      "countryCode": "SD",
      "stateCode": "SD-KS",
      "latitude": 11.678,
      "longitude": 31.0345
    },
    {
      "id": 371263,
      "name": "Lokola",
      "nativeName": "Lokola",
      "code": "SD-KS-371263",
      "countryId": 366755,
      "countryCode": "SD",
      "stateCode": "SD-KS",
      "latitude": 10.17275,
      "longitude": 30.75684
    },
    {
      "id": 371109,
      "name": "Lubāna",
      "nativeName": "Lubāna",
      "code": "SD-KS-371109",
      "countryId": 366755,
      "countryCode": "SD",
      "stateCode": "SD-KS",
      "latitude": 12.3818,
      "longitude": 31.0971
    },
    {
      "id": 371028,
      "name": "Luyūnah",
      "nativeName": "Luyūnah",
      "code": "SD-KS-371028",
      "countryId": 366755,
      "countryCode": "SD",
      "stateCode": "SD-KS",
      "latitude": 12.31667,
      "longitude": 30.25
    },
    {
      "id": 370729,
      "name": "Malamm al Kār",
      "nativeName": "Malamm al Kār",
      "code": "SD-KS-370729",
      "countryId": 366755,
      "countryCode": "SD",
      "stateCode": "SD-KS",
      "latitude": 11.5,
      "longitude": 31.18333
    },
    {
      "id": 370625,
      "name": "Managir",
      "nativeName": "Managir",
      "code": "SD-KS-370625",
      "countryId": 366755,
      "countryCode": "SD",
      "stateCode": "SD-KS",
      "latitude": 11.91667,
      "longitude": 31.75
    },
    {
      "id": 369598,
      "name": "Masheifat",
      "nativeName": "Masheifat",
      "code": "SD-KS-369598",
      "countryId": 366755,
      "countryCode": "SD",
      "stateCode": "SD-KS",
      "latitude": 11.9659,
      "longitude": 31.7189
    },
    {
      "id": 370379,
      "name": "Mashīshah",
      "nativeName": "Mashīshah",
      "code": "SD-KS-370379",
      "countryId": 366755,
      "countryCode": "SD",
      "stateCode": "SD-KS",
      "latitude": 12.41667,
      "longitude": 29.96667
    },
    {
      "id": 8066902,
      "name": "May‘a ed Dubeiba",
      "nativeName": "Maya ed Dubeyba",
      "code": "SD-KS-8066902",
      "countryId": 366755,
      "countryCode": "SD",
      "stateCode": "SD-KS",
      "latitude": 10.99513,
      "longitude": 31.52155
    },
    {
      "id": 364836,
      "name": "Miref‘īb",
      "nativeName": "Miref‘īb",
      "code": "SD-KS-364836",
      "countryId": 366755,
      "countryCode": "SD",
      "stateCode": "SD-KS",
      "latitude": 11.2579,
      "longitude": 31.1056
    },
    {
      "id": 369561,
      "name": "Muwayliḩ",
      "nativeName": "Muwayliḩ",
      "code": "SD-KS-369561",
      "countryId": 366755,
      "countryCode": "SD",
      "stateCode": "SD-KS",
      "latitude": 11.36667,
      "longitude": 31.01667
    },
    {
      "id": 370019,
      "name": "Mīrī Barrā",
      "nativeName": "Mīrī Barrā",
      "code": "SD-KS-370019",
      "countryId": 366755,
      "countryCode": "SD",
      "stateCode": "SD-KS",
      "latitude": 11.06639,
      "longitude": 29.5825
    },
    {
      "id": 369165,
      "name": "Nīlat Sulaymān",
      "nativeName": "Nīlat Sulaymān",
      "code": "SD-KS-369165",
      "countryId": 366755,
      "countryCode": "SD",
      "stateCode": "SD-KS",
      "latitude": 11.7,
      "longitude": 31.16667
    },
    {
      "id": 368493,
      "name": "Qadd al Habūb",
      "nativeName": "Qadd al Habūb",
      "code": "SD-KS-368493",
      "countryId": 366755,
      "countryCode": "SD",
      "stateCode": "SD-KS",
      "latitude": 11.53333,
      "longitude": 31.11667
    },
    {
      "id": 368394,
      "name": "Qandil",
      "nativeName": "Qandil",
      "code": "SD-KS-368394",
      "countryId": 366755,
      "countryCode": "SD",
      "stateCode": "SD-KS",
      "latitude": 11.56667,
      "longitude": 31.66667
    },
    {
      "id": 368417,
      "name": "Qawz Gangar",
      "nativeName": "Qawz Gangar",
      "code": "SD-KS-368417",
      "countryId": 366755,
      "countryCode": "SD",
      "stateCode": "SD-KS",
      "latitude": 12.15,
      "longitude": 31.61667
    },
    {
      "id": 368431,
      "name": "Qawz al Kulum",
      "nativeName": "Qawz al Kulum",
      "code": "SD-KS-368431",
      "countryId": 366755,
      "countryCode": "SD",
      "stateCode": "SD-KS",
      "latitude": 11.5,
      "longitude": 31.25
    },
    {
      "id": 368348,
      "name": "Qunburāyah",
      "nativeName": "Qunburāyah",
      "code": "SD-KS-368348",
      "countryId": 366755,
      "countryCode": "SD",
      "stateCode": "SD-KS",
      "latitude": 12.08333,
      "longitude": 31.25
    },
    {
      "id": 368312,
      "name": "Qurdūd",
      "nativeName": "Qurdūd",
      "code": "SD-KS-368312",
      "countryId": 366755,
      "countryCode": "SD",
      "stateCode": "SD-KS",
      "latitude": 11.86667,
      "longitude": 30.68333
    },
    {
      "id": 368313,
      "name": "Qurdūd",
      "nativeName": "Qurdūd",
      "code": "SD-KS-368313",
      "countryId": 366755,
      "countryCode": "SD",
      "stateCode": "SD-KS",
      "latitude": 11.48333,
      "longitude": 31.25
    },
    {
      "id": 368306,
      "name": "Qurdūd Nyama",
      "nativeName": "Qurdūd Nyama",
      "code": "SD-KS-368306",
      "countryId": 366755,
      "countryCode": "SD",
      "stateCode": "SD-KS",
      "latitude": 12.41667,
      "longitude": 31.05
    },
    {
      "id": 368308,
      "name": "Qurdūd al Khaymah",
      "nativeName": "Qurdūd al Khaymah",
      "code": "SD-KS-368308",
      "countryId": 366755,
      "countryCode": "SD",
      "stateCode": "SD-KS",
      "latitude": 11.98333,
      "longitude": 30.68333
    },
    {
      "id": 368201,
      "name": "Rakūbah",
      "nativeName": "Rakūbah",
      "code": "SD-KS-368201",
      "countryId": 366755,
      "countryCode": "SD",
      "stateCode": "SD-KS",
      "latitude": 11.8,
      "longitude": 31.43333
    },
    {
      "id": 368150,
      "name": "Rasrasa",
      "nativeName": "Rasrasa",
      "code": "SD-KS-368150",
      "countryId": 366755,
      "countryCode": "SD",
      "stateCode": "SD-KS",
      "latitude": 11.81667,
      "longitude": 31.6
    },
    {
      "id": 368151,
      "name": "Rasrasa",
      "nativeName": "Rasrasa",
      "code": "SD-KS-368151",
      "countryId": 366755,
      "countryCode": "SD",
      "stateCode": "SD-KS",
      "latitude": 11.53333,
      "longitude": 31.46667
    },
    {
      "id": 367649,
      "name": "Sania",
      "nativeName": "Sania",
      "code": "SD-KS-367649",
      "countryId": 366755,
      "countryCode": "SD",
      "stateCode": "SD-KS",
      "latitude": 10.83145,
      "longitude": 31.07924
    },
    {
      "id": 367624,
      "name": "Sarafāyah",
      "nativeName": "Sarafāyah",
      "code": "SD-KS-367624",
      "countryId": 366755,
      "countryCode": "SD",
      "stateCode": "SD-KS",
      "latitude": 11.58333,
      "longitude": 29.6
    },
    {
      "id": 367294,
      "name": "Shaqq",
      "nativeName": "Shaqq",
      "code": "SD-KS-367294",
      "countryId": 366755,
      "countryCode": "SD",
      "stateCode": "SD-KS",
      "latitude": 10.2978,
      "longitude": 30.74277
    },
    {
      "id": 367102,
      "name": "Shenanab",
      "nativeName": "Shenanab",
      "code": "SD-KS-367102",
      "countryId": 366755,
      "countryCode": "SD",
      "stateCode": "SD-KS",
      "latitude": 11.2817,
      "longitude": 31.6734
    },
    {
      "id": 366943,
      "name": "Shuţaybah",
      "nativeName": "Shuţaybah",
      "code": "SD-KS-366943",
      "countryId": 366755,
      "countryCode": "SD",
      "stateCode": "SD-KS",
      "latitude": 11.95,
      "longitude": 31.41667
    },
    {
      "id": 366662,
      "name": "Sunjikāy",
      "nativeName": "Sunjikāy",
      "code": "SD-KS-366662",
      "countryId": 366755,
      "countryCode": "SD",
      "stateCode": "SD-KS",
      "latitude": 12.33333,
      "longitude": 29.76667
    },
    {
      "id": 367517,
      "name": "Sēsabān",
      "nativeName": "Sēsabān",
      "code": "SD-KS-367517",
      "countryId": 366755,
      "countryCode": "SD",
      "stateCode": "SD-KS",
      "latitude": 11.5237,
      "longitude": 31.0322
    },
    {
      "id": 366546,
      "name": "Tagelbo",
      "nativeName": "Tagelbo",
      "code": "SD-KS-366546",
      "countryId": 366755,
      "countryCode": "SD",
      "stateCode": "SD-KS",
      "latitude": 12,
      "longitude": 31.03333
    },
    {
      "id": 366269,
      "name": "Tajmala",
      "nativeName": "Tajmala",
      "code": "SD-KS-366269",
      "countryId": 366755,
      "countryCode": "SD",
      "stateCode": "SD-KS",
      "latitude": 11.5975,
      "longitude": 31.0975
    },
    {
      "id": 366487,
      "name": "Talodi",
      "nativeName": "Talodi",
      "code": "SD-KS-366487",
      "countryId": 366755,
      "countryCode": "SD",
      "stateCode": "SD-KS",
      "latitude": 10.63246,
      "longitude": 30.3797
    },
    {
      "id": 366395,
      "name": "Taqali",
      "nativeName": "Taqali",
      "code": "SD-KS-366395",
      "countryId": 366755,
      "countryCode": "SD",
      "stateCode": "SD-KS",
      "latitude": 12.11667,
      "longitude": 31.23333
    },
    {
      "id": 378161,
      "name": "Tartar",
      "nativeName": "Tartar",
      "code": "SD-KS-378161",
      "countryId": 366755,
      "countryCode": "SD",
      "stateCode": "SD-KS",
      "latitude": 11.9226,
      "longitude": 31.7211
    },
    {
      "id": 366141,
      "name": "Tartar",
      "nativeName": "Tartar",
      "code": "SD-KS-366141",
      "countryId": 366755,
      "countryCode": "SD",
      "stateCode": "SD-KS",
      "latitude": 11.8936,
      "longitude": 30.3958
    },
    {
      "id": 366358,
      "name": "Tarwan",
      "nativeName": "Tarwan",
      "code": "SD-KS-366358",
      "countryId": 366755,
      "countryCode": "SD",
      "stateCode": "SD-KS",
      "latitude": 11.96667,
      "longitude": 31.08333
    },
    {
      "id": 365705,
      "name": "Tosi",
      "nativeName": "Tozi",
      "code": "SD-KS-365705",
      "countryId": 366755,
      "countryCode": "SD",
      "stateCode": "SD-KS",
      "latitude": 10.8548,
      "longitude": 30.83779
    },
    {
      "id": 365724,
      "name": "Tosomi",
      "nativeName": "Tosomi",
      "code": "SD-KS-365724",
      "countryId": 366755,
      "countryCode": "SD",
      "stateCode": "SD-KS",
      "latitude": 11.76667,
      "longitude": 31.08333
    },
    {
      "id": 365665,
      "name": "Tukaylāt",
      "nativeName": "Tukaylāt",
      "code": "SD-KS-365665",
      "countryId": 366755,
      "countryCode": "SD",
      "stateCode": "SD-KS",
      "latitude": 11.73333,
      "longitude": 31.18333
    },
    {
      "id": 365660,
      "name": "Tukswana",
      "nativeName": "Tukswana",
      "code": "SD-KS-365660",
      "countryId": 366755,
      "countryCode": "SD",
      "stateCode": "SD-KS",
      "latitude": 11.1391,
      "longitude": 29.8094
    },
    {
      "id": 365600,
      "name": "Tungaru",
      "nativeName": "Tungaru",
      "code": "SD-KS-365600",
      "countryId": 366755,
      "countryCode": "SD",
      "stateCode": "SD-KS",
      "latitude": 10.23279,
      "longitude": 30.69252
    },
    {
      "id": 366315,
      "name": "Tāsē ‘Abd Assalām",
      "nativeName": "Tāsē ‘Abd Assalām",
      "code": "SD-KS-366315",
      "countryId": 366755,
      "countryCode": "SD",
      "stateCode": "SD-KS",
      "latitude": 11.11778,
      "longitude": 29.76472
    },
    {
      "id": 365877,
      "name": "Tūfīn",
      "nativeName": "Tūfīn",
      "code": "SD-KS-365877",
      "countryId": 366755,
      "countryCode": "SD",
      "stateCode": "SD-KS",
      "latitude": 12.2289,
      "longitude": 31.233
    },
    {
      "id": 365461,
      "name": "Ugheibish",
      "nativeName": "Ugheibish",
      "code": "SD-KS-365461",
      "countryId": 366755,
      "countryCode": "SD",
      "stateCode": "SD-KS",
      "latitude": 10.84745,
      "longitude": 31.08502
    },
    {
      "id": 365270,
      "name": "Um Bayuḑ",
      "nativeName": "Um Bayuḑ",
      "code": "SD-KS-365270",
      "countryId": 366755,
      "countryCode": "SD",
      "stateCode": "SD-KS",
      "latitude": 12.0715,
      "longitude": 31.6804
    },
    {
      "id": 380826,
      "name": "Um Hashīma",
      "nativeName": "Um Hashīma",
      "code": "SD-KS-380826",
      "countryId": 366755,
      "countryCode": "SD",
      "stateCode": "SD-KS",
      "latitude": 11.3548,
      "longitude": 31.4021
    },
    {
      "id": 364802,
      "name": "Um Qad",
      "nativeName": "Um Qad",
      "code": "SD-KS-364802",
      "countryId": 366755,
      "countryCode": "SD",
      "stateCode": "SD-KS",
      "latitude": 11.5729,
      "longitude": 31.1168
    },
    {
      "id": 365227,
      "name": "Umm Bateih",
      "nativeName": "Umm Bateih",
      "code": "SD-KS-365227",
      "countryId": 366755,
      "countryCode": "SD",
      "stateCode": "SD-KS",
      "latitude": 11.534,
      "longitude": 31.5973
    },
    {
      "id": 365139,
      "name": "Umm Durmān",
      "nativeName": "Umm Durmān",
      "code": "SD-KS-365139",
      "countryId": 366755,
      "countryCode": "SD",
      "stateCode": "SD-KS",
      "latitude": 11.78333,
      "longitude": 30.91667
    },
    {
      "id": 434462,
      "name": "Umm Garku",
      "nativeName": "Umm Garku",
      "code": "SD-KS-434462",
      "countryId": 366755,
      "countryCode": "SD",
      "stateCode": "SD-KS",
      "latitude": 11.8927,
      "longitude": 29.7088
    },
    {
      "id": 364939,
      "name": "Umm Jurays",
      "nativeName": "Umm Jurays",
      "code": "SD-KS-364939",
      "countryId": 366755,
      "countryCode": "SD",
      "stateCode": "SD-KS",
      "latitude": 11.86667,
      "longitude": 31.63333
    },
    {
      "id": 364783,
      "name": "Umm Quḩayfāt",
      "nativeName": "Umm Quḩayfāt",
      "code": "SD-KS-364783",
      "countryId": 366755,
      "countryCode": "SD",
      "stateCode": "SD-KS",
      "latitude": 12.23333,
      "longitude": 30.61667
    },
    {
      "id": 364647,
      "name": "Umm Serdebba",
      "nativeName": "Umm Serdebba",
      "code": "SD-KS-364647",
      "countryId": 366755,
      "countryCode": "SD",
      "stateCode": "SD-KS",
      "latitude": 11.00072,
      "longitude": 30.01664
    },
    {
      "id": 364623,
      "name": "Umm Shatta",
      "nativeName": "Umm Shatta",
      "code": "SD-KS-364623",
      "countryId": 366755,
      "countryCode": "SD",
      "stateCode": "SD-KS",
      "latitude": 10.28028,
      "longitude": 30.74609
    },
    {
      "id": 364608,
      "name": "Umm Shuḩayţah",
      "nativeName": "Umm Shuḩayţah",
      "code": "SD-KS-364608",
      "countryId": 366755,
      "countryCode": "SD",
      "stateCode": "SD-KS",
      "latitude": 11.2,
      "longitude": 29.98333
    },
    {
      "id": 364584,
      "name": "Umm Sikkina",
      "nativeName": "Umm Sikkina",
      "code": "SD-KS-364584",
      "countryId": 366755,
      "countryCode": "SD",
      "stateCode": "SD-KS",
      "latitude": 10.4824,
      "longitude": 30.31317
    },
    {
      "id": 364470,
      "name": "Umm Zawjah",
      "nativeName": "Umm Zawjah",
      "code": "SD-KS-364470",
      "countryId": 366755,
      "countryCode": "SD",
      "stateCode": "SD-KS",
      "latitude": 11.36667,
      "longitude": 31.46667
    },
    {
      "id": 365361,
      "name": "Umm en Nar",
      "nativeName": "Umm en Nar",
      "code": "SD-KS-365361",
      "countryId": 366755,
      "countryCode": "SD",
      "stateCode": "SD-KS",
      "latitude": 12,
      "longitude": 31.48333
    },
    {
      "id": 365341,
      "name": "Umm esh Sheikh",
      "nativeName": "Umm esh Sheikh",
      "code": "SD-KS-365341",
      "countryId": 366755,
      "countryCode": "SD",
      "stateCode": "SD-KS",
      "latitude": 10.87202,
      "longitude": 31.11883
    },
    {
      "id": 364988,
      "name": "Umm Ḩīţān",
      "nativeName": "Umm Ḩīţān",
      "code": "SD-KS-364988",
      "countryId": 366755,
      "countryCode": "SD",
      "stateCode": "SD-KS",
      "latitude": 11.48333,
      "longitude": 30.06667
    },
    {
      "id": 365384,
      "name": "Umm ‘Abd Allāh",
      "nativeName": "Umm ‘Abd Allāh",
      "code": "SD-KS-365384",
      "countryId": 366755,
      "countryCode": "SD",
      "stateCode": "SD-KS",
      "latitude": 11.73333,
      "longitude": 30.8
    },
    {
      "id": 364044,
      "name": "Wad Tauli",
      "nativeName": "Wad Tauli",
      "code": "SD-KS-364044",
      "countryId": 366755,
      "countryCode": "SD",
      "stateCode": "SD-KS",
      "latitude": 11.08333,
      "longitude": 31.6
    },
    {
      "id": 364268,
      "name": "Wad al Kū‘",
      "nativeName": "Wad al Kū‘",
      "code": "SD-KS-364268",
      "countryId": 366755,
      "countryCode": "SD",
      "stateCode": "SD-KS",
      "latitude": 12.31667,
      "longitude": 30.9
    },
    {
      "id": 363951,
      "name": "Wa‘r",
      "nativeName": "Wa‘r",
      "code": "SD-KS-363951",
      "countryId": 366755,
      "countryCode": "SD",
      "stateCode": "SD-KS",
      "latitude": 12.15,
      "longitude": 31.51667
    },
    {
      "id": 363917,
      "name": "Werni",
      "nativeName": "Werni",
      "code": "SD-KS-363917",
      "countryId": 366755,
      "countryCode": "SD",
      "stateCode": "SD-KS",
      "latitude": 10.3974,
      "longitude": 31.17315
    },
    {
      "id": 363534,
      "name": "Zalatay",
      "nativeName": "Zalatay",
      "code": "SD-KS-363534",
      "countryId": 366755,
      "countryCode": "SD",
      "stateCode": "SD-KS",
      "latitude": 11.9068,
      "longitude": 30.416
    },
    {
      "id": 363497,
      "name": "Zayd",
      "nativeName": "Zayd",
      "code": "SD-KS-363497",
      "countryId": 366755,
      "countryCode": "SD",
      "stateCode": "SD-KS",
      "latitude": 11.15,
      "longitude": 30.53333
    },
    {
      "id": 363492,
      "name": "Zeifat",
      "nativeName": "Zeifat",
      "code": "SD-KS-363492",
      "countryId": 366755,
      "countryCode": "SD",
      "stateCode": "SD-KS",
      "latitude": 11.65,
      "longitude": 31.66667
    },
    {
      "id": 366692,
      "name": "Şulb al Khawr",
      "nativeName": "Şulb al Khawr",
      "code": "SD-KS-366692",
      "countryId": 366755,
      "countryCode": "SD",
      "stateCode": "SD-KS",
      "latitude": 11.9,
      "longitude": 31.36667
    },
    {
      "id": 373907,
      "name": "Ḩawţah",
      "nativeName": "Ḩawţah",
      "code": "SD-KS-373907",
      "countryId": 366755,
      "countryCode": "SD",
      "stateCode": "SD-KS",
      "latitude": 11.71667,
      "longitude": 31.26667
    },
    {
      "id": 378454,
      "name": "‘Arsh al Yoi",
      "nativeName": "‘Arsh al Yoi",
      "code": "SD-KS-378454",
      "countryId": 366755,
      "countryCode": "SD",
      "stateCode": "SD-KS",
      "latitude": 12.58333,
      "longitude": 31.11667
    },
    {
      "id": 373628,
      "name": "‘Idd ed Dam",
      "nativeName": "‘Idd ed Dam",
      "code": "SD-KS-373628",
      "countryId": 366755,
      "countryCode": "SD",
      "stateCode": "SD-KS",
      "latitude": 10.91311,
      "longitude": 31.63862
    },
    {
      "id": 373623,
      "name": "‘Idd el Halluf",
      "nativeName": "‘Idd el Halluf",
      "code": "SD-KS-373623",
      "countryId": 366755,
      "countryCode": "SD",
      "stateCode": "SD-KS",
      "latitude": 10.81662,
      "longitude": 32.14741
    },
    {
      "id": 380704,
      "name": "Abu Leila",
      "nativeName": "Abu Leila",
      "code": "SD-KS-380704",
      "countryId": 366755,
      "countryCode": "SD",
      "stateCode": "SD-KS",
      "latitude": 10.86787,
      "longitude": 30.12567
    }
  ]
}