{
  "stateId": 3239059,
  "stateCode": "SI-066",
  "countryCode": "SI",
  "cities": [
    {
      "id": 3199268,
      "name": "Hrib-Loški Potok",
      "nativeName": "Hrib-Loški Potok",
      "code": "SI-066-3199268",
      "countryId": 3190538,
      "countryCode": "SI",
      "stateCode": "SI-066",
      "latitude": 45.70688,
      "longitude": 14.61674
    },
    {
      "id": 3218695,
      "name": "Bela Voda",
      "nativeName": "Bela Voda",
      "code": "SI-066-3218695",
      "countryId": 3190538,
      "countryCode": "SI",
      "stateCode": "SI-066",
      "latitude": 45.69528,
      "longitude": 14.60806
    },
    {
      "id": 3201331,
      "name": "Draga",
      "nativeName": "Draga",
      "code": "SI-066-3201331",
      "countryId": 3190538,
      "countryCode": "SI",
      "stateCode": "SI-066",
      "latitude": 45.63361,
      "longitude": 14.65472
    },
    {
      "id": 3200607,
      "name": "Glažuta",
      "nativeName": "Glažuta",
      "code": "SI-066-3200607",
      "countryId": 3190538,
      "countryCode": "SI",
      "stateCode": "SI-066",
      "latitude": 45.6625,
      "longitude": 14.68417
    },
    {
      "id": 3196729,
      "name": "Lazec",
      "nativeName": "Lazec",
      "code": "SI-066-3196729",
      "countryId": 3190538,
      "countryCode": "SI",
      "stateCode": "SI-066",
      "latitude": 45.65,
      "longitude": 14.63306
    },
    {
      "id": 3195675,
      "name": "Mali Log",
      "nativeName": "Mali Log",
      "code": "SI-066-3195675",
      "countryId": 3190538,
      "countryCode": "SI",
      "stateCode": "SI-066",
      "latitude": 45.72222,
      "longitude": 14.58389
    },
    {
      "id": 3194370,
      "name": "Novi Kot",
      "nativeName": "Novi Kot",
      "code": "SI-066-3194370",
      "countryId": 3190538,
      "countryCode": "SI",
      "stateCode": "SI-066",
      "latitude": 45.62682,
      "longitude": 14.60632
    },
    {
      "id": 8988816,
      "name": "Podplanina",
      "nativeName": "Podplanina",
      "code": "SI-066-8988816",
      "countryId": 3190538,
      "countryCode": "SI",
      "stateCode": "SI-066",
      "latitude": 45.60028,
      "longitude": 14.65092
    },
    {
      "id": 3192938,
      "name": "Podpreska",
      "nativeName": "Podpreska",
      "code": "SI-066-3192938",
      "countryId": 3190538,
      "countryCode": "SI",
      "stateCode": "SI-066",
      "latitude": 45.64806,
      "longitude": 14.64083
    },
    {
      "id": 8989259,
      "name": "Pungert",
      "nativeName": "Pungert",
      "code": "SI-066-8989259",
      "countryId": 3190538,
      "countryCode": "SI",
      "stateCode": "SI-066",
      "latitude": 45.59456,
      "longitude": 14.67772
    },
    {
      "id": 3191705,
      "name": "Retje",
      "nativeName": "Retje",
      "code": "SI-066-3191705",
      "countryId": 3190538,
      "countryCode": "SI",
      "stateCode": "SI-066",
      "latitude": 45.70556,
      "longitude": 14.58333
    },
    {
      "id": 8988220,
      "name": "Srednja Vas-Loški Potok",
      "nativeName": "Srednja Vas-Loški Potok",
      "code": "SI-066-8988220",
      "countryId": 3190538,
      "countryCode": "SI",
      "stateCode": "SI-066",
      "latitude": 45.69193,
      "longitude": 14.58891
    },
    {
      "id": 3190133,
      "name": "Srednja vas pri Dragi",
      "nativeName": "Srednja Vas pri Dragi",
      "code": "SI-066-3190133",
      "countryId": 3190538,
      "countryCode": "SI",
      "stateCode": "SI-066",
      "latitude": 45.61667,
      "longitude": 14.66306
    },
    {
      "id": 3189958,
      "name": "Stari Kot",
      "nativeName": "Stari Kot",
      "code": "SI-066-3189958",
      "countryId": 3190538,
      "countryCode": "SI",
      "stateCode": "SI-066",
      "latitude": 45.61639,
      "longitude": 14.63417
    },
    {
      "id": 3188927,
      "name": "Trava",
      "nativeName": "Trava",
      "code": "SI-066-3188927",
      "countryId": 3190538,
      "countryCode": "SI",
      "stateCode": "SI-066",
      "latitude": 45.60389,
      "longitude": 14.67222
    },
    {
      "id": 3188923,
      "name": "Travnik",
      "nativeName": "Travnik",
      "code": "SI-066-3188923",
      "countryId": 3190538,
      "countryCode": "SI",
      "stateCode": "SI-066",
      "latitude": 45.68406,
      "longitude": 14.61989
    },
    {
      "id": 8987706,
      "name": "Šegova Vas",
      "nativeName": "Šegova Vas",
      "code": "SI-066-8987706",
      "countryId": 3190538,
      "countryCode": "SI",
      "stateCode": "SI-066",
      "latitude": 45.68777,
      "longitude": 14.57235
    },
    {
      "id": 10942278,
      "name": "Hrib",
      "nativeName": "Hrib",
      "code": "SI-066-10942278",
      "countryId": 3190538,
      "countryCode": "SI",
      "stateCode": "SI-066",
      "latitude": 45.61077,
      "longitude": 14.63508
    },
    {
      "id": 10942277,
      "name": "Medvedjek",
      "nativeName": "Medvedjek",
      "code": "SI-066-10942277",
      "countryId": 3190538,
      "countryCode": "SI",
      "stateCode": "SI-066",
      "latitude": 45.60637,
      "longitude": 14.71399
    },
    {
      "id": 10942279,
      "name": "Preska",
      "nativeName": "Preska",
      "code": "SI-066-10942279",
      "countryId": 3190538,
      "countryCode": "SI",
      "stateCode": "SI-066",
      "latitude": 45.61713,
      "longitude": 14.62763
    },
    {
      "id": 10942281,
      "name": "Vice",
      "nativeName": "Vice",
      "code": "SI-066-10942281",
      "countryId": 3190538,
      "countryCode": "SI",
      "stateCode": "SI-066",
      "latitude": 45.59081,
      "longitude": 14.66296
    },
    {
      "id": 10942280,
      "name": "Šafarje",
      "nativeName": "Šafarje",
      "code": "SI-066-10942280",
      "countryId": 3190538,
      "countryCode": "SI",
      "stateCode": "SI-066",
      "latitude": 45.6173,
      "longitude": 14.66125
    },
    {
      "id": 3196192,
      "name": "Loški Potok",
      "nativeName": "Loški Potok",
      "code": "SI-066-3196192",
      "countryId": 3190538,
      "countryCode": "SI",
      "stateCode": "SI-066",
      "latitude": 45.70139,
      "longitude": 14.58028
    }
  ]
}