{
  "stateId": 3344916,
  "stateCode": "SI-093",
  "countryCode": "SI",
  "cities": [
    {
      "id": 3192899,
      "name": "Podvelka",
      "nativeName": "Podvelka",
      "code": "SI-093-3192899",
      "countryId": 3190538,
      "countryCode": "SI",
      "stateCode": "SI-093",
      "latitude": 46.58694,
      "longitude": 15.33056
    },
    {
      "id": 3203366,
      "name": "Brezno",
      "nativeName": "Brezno",
      "code": "SI-093-3203366",
      "countryId": 3190538,
      "countryCode": "SI",
      "stateCode": "SI-093",
      "latitude": 46.59556,
      "longitude": 15.32
    },
    {
      "id": 3198787,
      "name": "Javnik",
      "nativeName": "Javnik",
      "code": "SI-093-3198787",
      "countryId": 3190538,
      "countryCode": "SI",
      "stateCode": "SI-093",
      "latitude": 46.6,
      "longitude": 15.36667
    },
    {
      "id": 8988235,
      "name": "Kozji Vrh",
      "nativeName": "Kozji Vrh",
      "code": "SI-093-8988235",
      "countryId": 3190538,
      "countryCode": "SI",
      "stateCode": "SI-093",
      "latitude": 46.59617,
      "longitude": 15.29512
    },
    {
      "id": 3196698,
      "name": "Lehen na Pohorju",
      "nativeName": "Lehen na Pohorju",
      "code": "SI-093-3196698",
      "countryId": 3190538,
      "countryCode": "SI",
      "stateCode": "SI-093",
      "latitude": 46.55,
      "longitude": 15.31667
    },
    {
      "id": 3218283,
      "name": "Narad",
      "nativeName": "Narad",
      "code": "SI-093-3218283",
      "countryId": 3190538,
      "countryCode": "SI",
      "stateCode": "SI-093",
      "latitude": 46.62167,
      "longitude": 15.35278
    },
    {
      "id": 3193751,
      "name": "Ožbalt",
      "nativeName": "Ožbalt",
      "code": "SI-093-3193751",
      "countryId": 3190538,
      "countryCode": "SI",
      "stateCode": "SI-093",
      "latitude": 46.58694,
      "longitude": 15.39889
    },
    {
      "id": 3191770,
      "name": "Rdeči Breg",
      "nativeName": "Rdeči Breg",
      "code": "SI-093-3191770",
      "countryId": 3190538,
      "countryCode": "SI",
      "stateCode": "SI-093",
      "latitude": 46.56667,
      "longitude": 15.36667
    },
    {
      "id": 3218284,
      "name": "Robnik",
      "nativeName": "Robnik",
      "code": "SI-093-3218284",
      "countryId": 3190538,
      "countryCode": "SI",
      "stateCode": "SI-093",
      "latitude": 46.60917,
      "longitude": 15.37083
    },
    {
      "id": 3190246,
      "name": "Spodnja Kapla",
      "nativeName": "Spodnja Kapla",
      "code": "SI-093-3190246",
      "countryId": 3190538,
      "countryCode": "SI",
      "stateCode": "SI-093",
      "latitude": 46.62975,
      "longitude": 15.39382
    },
    {
      "id": 3187024,
      "name": "Vurmat",
      "nativeName": "Vurmat",
      "code": "SI-093-3187024",
      "countryId": 3190538,
      "countryCode": "SI",
      "stateCode": "SI-093",
      "latitude": 46.6,
      "longitude": 15.41667
    },
    {
      "id": 3186540,
      "name": "Zgornja Kapla",
      "nativeName": "Zgornja Kapla",
      "code": "SI-093-3186540",
      "countryId": 3190538,
      "countryCode": "SI",
      "stateCode": "SI-093",
      "latitude": 46.63889,
      "longitude": 15.3775
    },
    {
      "id": 3198873,
      "name": "Janževski Vrh",
      "nativeName": "Janževski Vrh",
      "code": "SI-093-3198873",
      "countryId": 3190538,
      "countryCode": "SI",
      "stateCode": "SI-093",
      "latitude": 46.56806,
      "longitude": 15.30472
    }
  ]
}