{
  "stateId": 3193340,
  "stateCode": "SI-090",
  "countryCode": "SI",
  "cities": [
    {
      "id": 3193341,
      "name": "Piran",
      "nativeName": "Piran",
      "code": "SI-090-3193341",
      "countryId": 3190538,
      "countryCode": "SI",
      "stateCode": "SI-090",
      "latitude": 45.52778,
      "longitude": 13.57056
    },
    {
      "id": 3343509,
      "name": "Dragonja",
      "nativeName": "Dragonja",
      "code": "SI-090-3343509",
      "countryId": 3190538,
      "countryCode": "SI",
      "stateCode": "SI-090",
      "latitude": 45.46056,
      "longitude": 13.66
    },
    {
      "id": 3200849,
      "name": "Fjesa",
      "nativeName": "Fjesa",
      "code": "SI-090-3200849",
      "countryId": 3190538,
      "countryCode": "SI",
      "stateCode": "SI-090",
      "latitude": 45.52444,
      "longitude": 13.58167
    },
    {
      "id": 3343512,
      "name": "Lucija",
      "nativeName": "Lucija",
      "code": "SI-090-3343512",
      "countryId": 3190538,
      "countryCode": "SI",
      "stateCode": "SI-090",
      "latitude": 45.50526,
      "longitude": 13.6024
    },
    {
      "id": 3194400,
      "name": "Nova Vas nad Dragonjo",
      "nativeName": "Nova Vas nad Dragonjo",
      "code": "SI-090-3194400",
      "countryId": 3190538,
      "countryCode": "SI",
      "stateCode": "SI-090",
      "latitude": 45.47944,
      "longitude": 13.69583
    },
    {
      "id": 3193727,
      "name": "Padna",
      "nativeName": "Padna",
      "code": "SI-090-3193727",
      "countryId": 3190538,
      "countryCode": "SI",
      "stateCode": "SI-090",
      "latitude": 45.49389,
      "longitude": 13.68472
    },
    {
      "id": 8986865,
      "name": "Parecag",
      "nativeName": "Parecag",
      "code": "SI-090-8986865",
      "countryId": 3190538,
      "countryCode": "SI",
      "stateCode": "SI-090",
      "latitude": 45.48202,
      "longitude": 13.61305
    },
    {
      "id": 11748131,
      "name": "Piran city",
      "nativeName": "Piran city",
      "code": "SI-090-11748131",
      "countryId": 3190538,
      "countryCode": "SI",
      "stateCode": "SI-090",
      "latitude": 45.52891,
      "longitude": 13.56728
    },
    {
      "id": 3192682,
      "name": "Portorož",
      "nativeName": "Portorož",
      "code": "SI-090-3192682",
      "countryId": 3190538,
      "countryCode": "SI",
      "stateCode": "SI-090",
      "latitude": 45.51429,
      "longitude": 13.59206
    },
    {
      "id": 8986862,
      "name": "Seča",
      "nativeName": "Seča",
      "code": "SI-090-8986862",
      "countryId": 3190538,
      "countryCode": "SI",
      "stateCode": "SI-090",
      "latitude": 45.49584,
      "longitude": 13.61466
    },
    {
      "id": 3191184,
      "name": "Sečovlje",
      "nativeName": "Sečovlje",
      "code": "SI-090-3191184",
      "countryId": 3190538,
      "countryCode": "SI",
      "stateCode": "SI-090",
      "latitude": 45.47667,
      "longitude": 13.62333
    },
    {
      "id": 3189668,
      "name": "Strunjan",
      "nativeName": "Strunjan",
      "code": "SI-090-3189668",
      "countryId": 3190538,
      "countryCode": "SI",
      "stateCode": "SI-090",
      "latitude": 45.525,
      "longitude": 13.60556
    },
    {
      "id": 3216109,
      "name": "Sv. Peter",
      "nativeName": "Sv. Peter",
      "code": "SI-090-3216109",
      "countryId": 3190538,
      "countryCode": "SI",
      "stateCode": "SI-090",
      "latitude": 45.47194,
      "longitude": 13.68139
    }
  ]
}