{
  "stateId": 3239080,
  "stateCode": "SI-075",
  "countryCode": "SI",
  "cities": [
    {
      "id": 3195054,
      "name": "Miren",
      "nativeName": "Miren",
      "code": "SI-075-3195054",
      "countryId": 3190538,
      "countryCode": "SI",
      "stateCode": "SI-075",
      "latitude": 45.89556,
      "longitude": 13.6075
    },
    {
      "id": 3204144,
      "name": "Bilje",
      "nativeName": "Bilje",
      "code": "SI-075-3204144",
      "countryId": 3190538,
      "countryCode": "SI",
      "stateCode": "SI-075",
      "latitude": 45.89444,
      "longitude": 13.63222
    },
    {
      "id": 10858840,
      "name": "Frnaža",
      "nativeName": "Frnaža",
      "code": "SI-075-10858840",
      "countryId": 3190538,
      "countryCode": "SI",
      "stateCode": "SI-075",
      "latitude": 45.89676,
      "longitude": 13.64798
    },
    {
      "id": 3199220,
      "name": "Hudi Log",
      "nativeName": "Hudi Log",
      "code": "SI-075-3199220",
      "countryId": 3190538,
      "countryCode": "SI",
      "stateCode": "SI-075",
      "latitude": 45.84139,
      "longitude": 13.60917
    },
    {
      "id": 8989869,
      "name": "Korita na Krasu",
      "nativeName": "Korita na Krasu",
      "code": "SI-075-8989869",
      "countryId": 3190538,
      "countryCode": "SI",
      "stateCode": "SI-075",
      "latitude": 45.83406,
      "longitude": 13.61383
    },
    {
      "id": 3197582,
      "name": "Kostanjevica na Krasu",
      "nativeName": "Kostanjevica na Krasu",
      "code": "SI-075-3197582",
      "countryId": 3190538,
      "countryCode": "SI",
      "stateCode": "SI-075",
      "latitude": 45.845,
      "longitude": 13.64167
    },
    {
      "id": 3196545,
      "name": "Lipa",
      "nativeName": "Lipa",
      "code": "SI-075-3196545",
      "countryId": 3190538,
      "countryCode": "SI",
      "stateCode": "SI-075",
      "latitude": 45.84972,
      "longitude": 13.70333
    },
    {
      "id": 3196247,
      "name": "Lokvica",
      "nativeName": "Lokvica",
      "code": "SI-075-3196247",
      "countryId": 3190538,
      "countryCode": "SI",
      "stateCode": "SI-075",
      "latitude": 45.86056,
      "longitude": 13.60278
    },
    {
      "id": 10858850,
      "name": "Nad Otokom",
      "nativeName": "Nad Otokom",
      "code": "SI-075-10858850",
      "countryId": 3190538,
      "countryCode": "SI",
      "stateCode": "SI-075",
      "latitude": 45.89538,
      "longitude": 13.61592
    },
    {
      "id": 3194402,
      "name": "Nova vas",
      "nativeName": "Nova Vas",
      "code": "SI-075-3194402",
      "countryId": 3190538,
      "countryCode": "SI",
      "stateCode": "SI-075",
      "latitude": 45.84194,
      "longitude": 13.58306
    },
    {
      "id": 8988328,
      "name": "Novelo",
      "nativeName": "Novelo",
      "code": "SI-075-8988328",
      "countryId": 3190538,
      "countryCode": "SI",
      "stateCode": "SI-075",
      "latitude": 45.84674,
      "longitude": 13.66256
    },
    {
      "id": 3194094,
      "name": "Opatje Selo",
      "nativeName": "Opatje Selo",
      "code": "SI-075-3194094",
      "countryId": 3190538,
      "countryCode": "SI",
      "stateCode": "SI-075",
      "latitude": 45.85083,
      "longitude": 13.58361
    },
    {
      "id": 3343550,
      "name": "Orehovlje",
      "nativeName": "Orehovlje",
      "code": "SI-075-3343550",
      "countryId": 3190538,
      "countryCode": "SI",
      "stateCode": "SI-075",
      "latitude": 45.88833,
      "longitude": 13.61083
    },
    {
      "id": 10858849,
      "name": "Pod Otokom",
      "nativeName": "Pod Otokom",
      "code": "SI-075-10858849",
      "countryId": 3190538,
      "countryCode": "SI",
      "stateCode": "SI-075",
      "latitude": 45.89344,
      "longitude": 13.61552
    },
    {
      "id": 10858841,
      "name": "Počivala",
      "nativeName": "Počivala",
      "code": "SI-075-10858841",
      "countryId": 3190538,
      "countryCode": "SI",
      "stateCode": "SI-075",
      "latitude": 45.89168,
      "longitude": 13.64373
    },
    {
      "id": 3191144,
      "name": "Sela na Krasu",
      "nativeName": "Sela na Krasu",
      "code": "SI-075-3191144",
      "countryId": 3190538,
      "countryCode": "SI",
      "stateCode": "SI-075",
      "latitude": 45.82139,
      "longitude": 13.61639
    },
    {
      "id": 3189163,
      "name": "Temnica",
      "nativeName": "Temnica",
      "code": "SI-075-3189163",
      "countryId": 3190538,
      "countryCode": "SI",
      "stateCode": "SI-075",
      "latitude": 45.84667,
      "longitude": 13.6775
    },
    {
      "id": 3187443,
      "name": "Vojščica",
      "nativeName": "Vojščica",
      "code": "SI-075-3187443",
      "countryId": 3190538,
      "countryCode": "SI",
      "stateCode": "SI-075",
      "latitude": 45.82861,
      "longitude": 13.67167
    },
    {
      "id": 10858848,
      "name": "Vrtojbica",
      "nativeName": "Vrtojbica",
      "code": "SI-075-10858848",
      "countryId": 3190538,
      "countryCode": "SI",
      "stateCode": "SI-075",
      "latitude": 45.89831,
      "longitude": 13.61687
    },
    {
      "id": 3187124,
      "name": "Vrtoče",
      "nativeName": "Vrtoče",
      "code": "SI-075-3187124",
      "countryId": 3190538,
      "countryCode": "SI",
      "stateCode": "SI-075",
      "latitude": 45.8825,
      "longitude": 13.61639
    },
    {
      "id": 10858847,
      "name": "Breg",
      "nativeName": "Breg",
      "code": "SI-075-10858847",
      "countryId": 3190538,
      "countryCode": "SI",
      "stateCode": "SI-075",
      "latitude": 45.89111,
      "longitude": 13.60886
    },
    {
      "id": 10858846,
      "name": "Britof",
      "nativeName": "Britof",
      "code": "SI-075-10858846",
      "countryId": 3190538,
      "countryCode": "SI",
      "stateCode": "SI-075",
      "latitude": 45.89323,
      "longitude": 13.63888
    },
    {
      "id": 10858907,
      "name": "Konec",
      "nativeName": "Konec",
      "code": "SI-075-10858907",
      "countryId": 3190538,
      "countryCode": "SI",
      "stateCode": "SI-075",
      "latitude": 45.89303,
      "longitude": 13.60519
    },
    {
      "id": 10858845,
      "name": "Laz",
      "nativeName": "Laz",
      "code": "SI-075-10858845",
      "countryId": 3190538,
      "countryCode": "SI",
      "stateCode": "SI-075",
      "latitude": 45.89186,
      "longitude": 13.63127
    },
    {
      "id": 10858905,
      "name": "Na Potoku",
      "nativeName": "Na Potoku",
      "code": "SI-075-10858905",
      "countryId": 3190538,
      "countryCode": "SI",
      "stateCode": "SI-075",
      "latitude": 45.88454,
      "longitude": 13.59438
    },
    {
      "id": 10859131,
      "name": "Segeti",
      "nativeName": "Segeti",
      "code": "SI-075-10859131",
      "countryId": 3190538,
      "countryCode": "SI",
      "stateCode": "SI-075",
      "latitude": 45.85796,
      "longitude": 13.60912
    }
  ]
}