{
  "stateId": 3198364,
  "stateCode": "SI-043",
  "countryCode": "SI",
  "cities": [
    {
      "id": 3198365,
      "name": "Kamnik",
      "nativeName": "Kamnik",
      "code": "SI-043-3198365",
      "countryId": 3190538,
      "countryCode": "SI",
      "stateCode": "SI-043",
      "latitude": 46.22587,
      "longitude": 14.61207
    },
    {
      "id": 3204351,
      "name": "Bela",
      "nativeName": "Bela",
      "code": "SI-043-3204351",
      "countryId": 3190538,
      "countryCode": "SI",
      "stateCode": "SI-043",
      "latitude": 46.23333,
      "longitude": 14.86667
    },
    {
      "id": 8988986,
      "name": "Bela Peč",
      "nativeName": "Bela Peč",
      "code": "SI-043-8988986",
      "countryId": 3190538,
      "countryCode": "SI",
      "stateCode": "SI-043",
      "latitude": 46.2487,
      "longitude": 14.71781
    },
    {
      "id": 3204039,
      "name": "Bistričica",
      "nativeName": "Bistričica",
      "code": "SI-043-3204039",
      "countryId": 3190538,
      "countryCode": "SI",
      "stateCode": "SI-043",
      "latitude": 46.26803,
      "longitude": 14.58469
    },
    {
      "id": 8987665,
      "name": "Brezje nad Kamnikom",
      "nativeName": "Brezje nad Kamnikom",
      "code": "SI-043-8987665",
      "countryId": 3190538,
      "countryCode": "SI",
      "stateCode": "SI-043",
      "latitude": 46.26159,
      "longitude": 14.62519
    },
    {
      "id": 8988752,
      "name": "Briše",
      "nativeName": "Briše",
      "code": "SI-043-8988752",
      "countryId": 3190538,
      "countryCode": "SI",
      "stateCode": "SI-043",
      "latitude": 46.24353,
      "longitude": 14.64365
    },
    {
      "id": 3203168,
      "name": "Buč",
      "nativeName": "Buč",
      "code": "SI-043-3203168",
      "countryId": 3190538,
      "countryCode": "SI",
      "stateCode": "SI-043",
      "latitude": 46.21918,
      "longitude": 14.71953
    },
    {
      "id": 8988102,
      "name": "Cirkuše v Tuhinju",
      "nativeName": "Cirkuše v Tuhinju",
      "code": "SI-043-8988102",
      "countryId": 3190538,
      "countryCode": "SI",
      "stateCode": "SI-043",
      "latitude": 46.21839,
      "longitude": 14.78608
    },
    {
      "id": 3217566,
      "name": "Dol",
      "nativeName": "Dol",
      "code": "SI-043-3217566",
      "countryId": 3190538,
      "countryCode": "SI",
      "stateCode": "SI-043",
      "latitude": 46.31944,
      "longitude": 14.63417
    },
    {
      "id": 3215839,
      "name": "Duplica",
      "nativeName": "Duplica",
      "code": "SI-043-3215839",
      "countryId": 3190538,
      "countryCode": "SI",
      "stateCode": "SI-043",
      "latitude": 46.20417,
      "longitude": 14.59833
    },
    {
      "id": 3216067,
      "name": "Gabrovnica",
      "nativeName": "Gabrovnica",
      "code": "SI-043-3216067",
      "countryId": 3190538,
      "countryCode": "SI",
      "stateCode": "SI-043",
      "latitude": 46.19556,
      "longitude": 14.75972
    },
    {
      "id": 3200526,
      "name": "Godič",
      "nativeName": "Godič",
      "code": "SI-043-3200526",
      "countryId": 3190538,
      "countryCode": "SI",
      "stateCode": "SI-043",
      "latitude": 46.25684,
      "longitude": 14.60969
    },
    {
      "id": 8987522,
      "name": "Golice",
      "nativeName": "Golice",
      "code": "SI-043-8987522",
      "countryId": 3190538,
      "countryCode": "SI",
      "stateCode": "SI-043",
      "latitude": 46.23667,
      "longitude": 14.79603
    },
    {
      "id": 3199849,
      "name": "Gozd",
      "nativeName": "Gozd",
      "code": "SI-043-3199849",
      "countryId": 3190538,
      "countryCode": "SI",
      "stateCode": "SI-043",
      "latitude": 46.25,
      "longitude": 14.66667
    },
    {
      "id": 8988263,
      "name": "Gradišče v Tuhinju",
      "nativeName": "Gradišče v Tuhinju",
      "code": "SI-043-8988263",
      "countryId": 3190538,
      "countryCode": "SI",
      "stateCode": "SI-043",
      "latitude": 46.23148,
      "longitude": 14.73828
    },
    {
      "id": 3199266,
      "name": "Hrib pri Kamniku",
      "nativeName": "Hrib pri Kamniku",
      "code": "SI-043-3199266",
      "countryId": 3190538,
      "countryCode": "SI",
      "stateCode": "SI-043",
      "latitude": 46.23972,
      "longitude": 14.65415
    },
    {
      "id": 3199248,
      "name": "Hruševka",
      "nativeName": "Hruševka",
      "code": "SI-043-3199248",
      "countryId": 3190538,
      "countryCode": "SI",
      "stateCode": "SI-043",
      "latitude": 46.2281,
      "longitude": 14.72048
    },
    {
      "id": 8987882,
      "name": "Jeranovo",
      "nativeName": "Jeranovo",
      "code": "SI-043-8987882",
      "countryId": 3190538,
      "countryCode": "SI",
      "stateCode": "SI-043",
      "latitude": 46.23981,
      "longitude": 14.60777
    },
    {
      "id": 3198447,
      "name": "Kališe",
      "nativeName": "Kališe",
      "code": "SI-043-3198447",
      "countryId": 3190538,
      "countryCode": "SI",
      "stateCode": "SI-043",
      "latitude": 46.26667,
      "longitude": 14.68333
    },
    {
      "id": 3198362,
      "name": "Kamniška Bistrica",
      "nativeName": "Kamniška Bistrica",
      "code": "SI-043-3198362",
      "countryId": 3190538,
      "countryCode": "SI",
      "stateCode": "SI-043",
      "latitude": 46.33333,
      "longitude": 14.6
    },
    {
      "id": 3217571,
      "name": "Klemenčevo",
      "nativeName": "Klemenčevo",
      "code": "SI-043-3217571",
      "countryId": 3190538,
      "countryCode": "SI",
      "stateCode": "SI-043",
      "latitude": 46.27694,
      "longitude": 14.56778
    },
    {
      "id": 3197873,
      "name": "Kolovec",
      "nativeName": "Kolovec",
      "code": "SI-043-3197873",
      "countryId": 3190538,
      "countryCode": "SI",
      "stateCode": "SI-043",
      "latitude": 46.19572,
      "longitude": 14.65498
    },
    {
      "id": 3197589,
      "name": "Kostanj",
      "nativeName": "Kostanj",
      "code": "SI-043-3197589",
      "countryId": 3190538,
      "countryCode": "SI",
      "stateCode": "SI-043",
      "latitude": 46.22404,
      "longitude": 14.74386
    },
    {
      "id": 8987333,
      "name": "Košiše",
      "nativeName": "Košiše",
      "code": "SI-043-8987333",
      "countryId": 3190538,
      "countryCode": "SI",
      "stateCode": "SI-043",
      "latitude": 46.23912,
      "longitude": 14.59379
    },
    {
      "id": 8987566,
      "name": "Kregarjevo",
      "nativeName": "Kregarjevo",
      "code": "SI-043-8987566",
      "countryId": 3190538,
      "countryCode": "SI",
      "stateCode": "SI-043",
      "latitude": 46.26355,
      "longitude": 14.59476
    },
    {
      "id": 3197252,
      "name": "Krivčevo",
      "nativeName": "Krivčevo",
      "code": "SI-043-3197252",
      "countryId": 3190538,
      "countryCode": "SI",
      "stateCode": "SI-043",
      "latitude": 46.26667,
      "longitude": 14.66667
    },
    {
      "id": 8988872,
      "name": "Kršič",
      "nativeName": "Kršič",
      "code": "SI-043-8988872",
      "countryId": 3190538,
      "countryCode": "SI",
      "stateCode": "SI-043",
      "latitude": 46.25129,
      "longitude": 14.62011
    },
    {
      "id": 8987883,
      "name": "Laniše",
      "nativeName": "Laniše",
      "code": "SI-043-8987883",
      "countryId": 3190538,
      "countryCode": "SI",
      "stateCode": "SI-043",
      "latitude": 46.25212,
      "longitude": 14.57542
    },
    {
      "id": 8989643,
      "name": "Laseno",
      "nativeName": "Laseno",
      "code": "SI-043-8989643",
      "countryId": 3190538,
      "countryCode": "SI",
      "stateCode": "SI-043",
      "latitude": 46.20263,
      "longitude": 14.75659
    },
    {
      "id": 3196722,
      "name": "Laze v Tuhinju",
      "nativeName": "Laze v Tuhinju",
      "code": "SI-043-3196722",
      "countryId": 3190538,
      "countryCode": "SI",
      "stateCode": "SI-043",
      "latitude": 46.21944,
      "longitude": 14.76111
    },
    {
      "id": 8989128,
      "name": "Liplje",
      "nativeName": "Liplje",
      "code": "SI-043-8989128",
      "countryId": 3190538,
      "countryCode": "SI",
      "stateCode": "SI-043",
      "latitude": 46.20959,
      "longitude": 14.79774
    },
    {
      "id": 3196260,
      "name": "Loke v Tuhinju",
      "nativeName": "Loke v Tuhinju",
      "code": "SI-043-3196260",
      "countryId": 3190538,
      "countryCode": "SI",
      "stateCode": "SI-043",
      "latitude": 46.22289,
      "longitude": 14.69108
    },
    {
      "id": 8989548,
      "name": "Mali Hrib",
      "nativeName": "Mali Hrib",
      "code": "SI-043-8989548",
      "countryId": 3190538,
      "countryCode": "SI",
      "stateCode": "SI-043",
      "latitude": 46.21347,
      "longitude": 14.76952
    },
    {
      "id": 3195629,
      "name": "Mali Rakitovec",
      "nativeName": "Mali Rakitovec",
      "code": "SI-043-3195629",
      "countryId": 3190538,
      "countryCode": "SI",
      "stateCode": "SI-043",
      "latitude": 46.201,
      "longitude": 14.77015
    },
    {
      "id": 8987283,
      "name": "Markovo",
      "nativeName": "Markovo",
      "code": "SI-043-8987283",
      "countryId": 3190538,
      "countryCode": "SI",
      "stateCode": "SI-043",
      "latitude": 46.23766,
      "longitude": 14.67266
    },
    {
      "id": 3195271,
      "name": "Mekinje",
      "nativeName": "Mekinje",
      "code": "SI-043-3195271",
      "countryId": 3190538,
      "countryCode": "SI",
      "stateCode": "SI-043",
      "latitude": 46.23333,
      "longitude": 14.61667
    },
    {
      "id": 3194804,
      "name": "Motnik",
      "nativeName": "Motnik",
      "code": "SI-043-3194804",
      "countryId": 3190538,
      "countryCode": "SI",
      "stateCode": "SI-043",
      "latitude": 46.21528,
      "longitude": 14.89111
    },
    {
      "id": 3194505,
      "name": "Nevlje",
      "nativeName": "Nevlje",
      "code": "SI-043-3194505",
      "countryId": 3190538,
      "countryCode": "SI",
      "stateCode": "SI-043",
      "latitude": 46.23112,
      "longitude": 14.62427
    },
    {
      "id": 3194154,
      "name": "Okrog pri Motniku",
      "nativeName": "Okrog pri Motniku",
      "code": "SI-043-3194154",
      "countryId": 3190538,
      "countryCode": "SI",
      "stateCode": "SI-043",
      "latitude": 46.23333,
      "longitude": 14.83333
    },
    {
      "id": 8988231,
      "name": "Okroglo",
      "nativeName": "Okroglo",
      "code": "SI-043-8988231",
      "countryId": 3190538,
      "countryCode": "SI",
      "stateCode": "SI-043",
      "latitude": 46.27561,
      "longitude": 14.58278
    },
    {
      "id": 8987452,
      "name": "Oševek",
      "nativeName": "Oševek",
      "code": "SI-043-8987452",
      "countryId": 3190538,
      "countryCode": "SI",
      "stateCode": "SI-043",
      "latitude": 46.23742,
      "longitude": 14.63037
    },
    {
      "id": 8988783,
      "name": "Pirševo",
      "nativeName": "Pirševo",
      "code": "SI-043-8988783",
      "countryId": 3190538,
      "countryCode": "SI",
      "stateCode": "SI-043",
      "latitude": 46.22459,
      "longitude": 14.70711
    },
    {
      "id": 8988942,
      "name": "Podbreg",
      "nativeName": "Podbreg",
      "code": "SI-043-8988942",
      "countryId": 3190538,
      "countryCode": "SI",
      "stateCode": "SI-043",
      "latitude": 46.23493,
      "longitude": 14.72794
    },
    {
      "id": 3193034,
      "name": "Podgorje",
      "nativeName": "Podgorje",
      "code": "SI-043-3193034",
      "countryId": 3190538,
      "countryCode": "SI",
      "stateCode": "SI-043",
      "latitude": 46.21667,
      "longitude": 14.58333
    },
    {
      "id": 8988232,
      "name": "Podhruška",
      "nativeName": "Podhruška",
      "code": "SI-043-8988232",
      "countryId": 3190538,
      "countryCode": "SI",
      "stateCode": "SI-043",
      "latitude": 46.2243,
      "longitude": 14.67085
    },
    {
      "id": 8988753,
      "name": "Podjelše",
      "nativeName": "Podjelše",
      "code": "SI-043-8988753",
      "countryId": 3190538,
      "countryCode": "SI",
      "stateCode": "SI-043",
      "latitude": 46.24739,
      "longitude": 14.61602
    },
    {
      "id": 3217572,
      "name": "Podlom",
      "nativeName": "Podlom",
      "code": "SI-043-3217572",
      "countryId": 3190538,
      "countryCode": "SI",
      "stateCode": "SI-043",
      "latitude": 46.26361,
      "longitude": 14.69556
    },
    {
      "id": 8987741,
      "name": "Podstudenec",
      "nativeName": "Podstudenec",
      "code": "SI-043-8987741",
      "countryId": 3190538,
      "countryCode": "SI",
      "stateCode": "SI-043",
      "latitude": 46.26276,
      "longitude": 14.64994
    },
    {
      "id": 8989109,
      "name": "Poljana",
      "nativeName": "Poljana",
      "code": "SI-043-8989109",
      "countryId": 3190538,
      "countryCode": "SI",
      "stateCode": "SI-043",
      "latitude": 46.25501,
      "longitude": 14.70986
    },
    {
      "id": 3192814,
      "name": "Poljane nad Blagovicom",
      "nativeName": "Poljane nad Blagovicom",
      "code": "SI-043-3192814",
      "countryId": 3190538,
      "countryCode": "SI",
      "stateCode": "SI-043",
      "latitude": 46.25,
      "longitude": 14.71667
    },
    {
      "id": 8987311,
      "name": "Poreber",
      "nativeName": "Poreber",
      "code": "SI-043-8987311",
      "countryId": 3190538,
      "countryCode": "SI",
      "stateCode": "SI-043",
      "latitude": 46.23964,
      "longitude": 14.66446
    },
    {
      "id": 8989831,
      "name": "Potok",
      "nativeName": "Potok",
      "code": "SI-043-8989831",
      "countryId": 3190538,
      "countryCode": "SI",
      "stateCode": "SI-043",
      "latitude": 46.21953,
      "longitude": 14.6968
    },
    {
      "id": 8988784,
      "name": "Potok v Črni",
      "nativeName": "Potok v Črni",
      "code": "SI-043-8988784",
      "countryId": 3190538,
      "countryCode": "SI",
      "stateCode": "SI-043",
      "latitude": 46.27062,
      "longitude": 14.63984
    },
    {
      "id": 8989887,
      "name": "Praproče v Tuhinju",
      "nativeName": "Praproče v Tuhinju",
      "code": "SI-043-8989887",
      "countryId": 3190538,
      "countryCode": "SI",
      "stateCode": "SI-043",
      "latitude": 46.23833,
      "longitude": 14.71741
    },
    {
      "id": 3192247,
      "name": "Pšajnovica",
      "nativeName": "Pšajnovica",
      "code": "SI-043-3192247",
      "countryId": 3190538,
      "countryCode": "SI",
      "stateCode": "SI-043",
      "latitude": 46.2,
      "longitude": 14.75
    },
    {
      "id": 3191835,
      "name": "Ravne pri Šmartnem",
      "nativeName": "Ravne pri Šmartnem",
      "code": "SI-043-3191835",
      "countryId": 3190538,
      "countryCode": "SI",
      "stateCode": "SI-043",
      "latitude": 46.25,
      "longitude": 14.73333
    },
    {
      "id": 8987551,
      "name": "Rožično",
      "nativeName": "Rožično",
      "code": "SI-043-8987551",
      "countryId": 3190538,
      "countryCode": "SI",
      "stateCode": "SI-043",
      "latitude": 46.23643,
      "longitude": 14.67973
    },
    {
      "id": 8988385,
      "name": "Rudnik pri Radomljah",
      "nativeName": "Rudnik pri Radomljah",
      "code": "SI-043-8988385",
      "countryId": 3190538,
      "countryCode": "SI",
      "stateCode": "SI-043",
      "latitude": 46.20116,
      "longitude": 14.6282
    },
    {
      "id": 3191140,
      "name": "Sela pri Kamniku",
      "nativeName": "Sela pri Kamniku",
      "code": "SI-043-3191140",
      "countryId": 3190538,
      "countryCode": "SI",
      "stateCode": "SI-043",
      "latitude": 46.23647,
      "longitude": 14.68679
    },
    {
      "id": 8988341,
      "name": "Sidol",
      "nativeName": "Sidol",
      "code": "SI-043-8988341",
      "countryId": 3190538,
      "countryCode": "SI",
      "stateCode": "SI-043",
      "latitude": 46.20937,
      "longitude": 14.71672
    },
    {
      "id": 8988943,
      "name": "Smrečje v Črni",
      "nativeName": "Smrečje v Črni",
      "code": "SI-043-8988943",
      "countryId": 3190538,
      "countryCode": "SI",
      "stateCode": "SI-043",
      "latitude": 46.25833,
      "longitude": 14.67712
    },
    {
      "id": 6692429,
      "name": "Snovik",
      "nativeName": "Snovik",
      "code": "SI-043-6692429",
      "countryId": 3190538,
      "countryCode": "SI",
      "stateCode": "SI-043",
      "latitude": 46.2343,
      "longitude": 14.71069
    },
    {
      "id": 8987017,
      "name": "Soteska",
      "nativeName": "Soteska",
      "code": "SI-043-8987017",
      "countryId": 3190538,
      "countryCode": "SI",
      "stateCode": "SI-043",
      "latitude": 46.22867,
      "longitude": 14.64931
    },
    {
      "id": 8988873,
      "name": "Sovinja Peč",
      "nativeName": "Sovinja Peč",
      "code": "SI-043-8988873",
      "countryId": 3190538,
      "countryCode": "SI",
      "stateCode": "SI-043",
      "latitude": 46.25214,
      "longitude": 14.70326
    },
    {
      "id": 3190214,
      "name": "Spodnje Palovče",
      "nativeName": "Spodnje Palovče",
      "code": "SI-043-3190214",
      "countryId": 3190538,
      "countryCode": "SI",
      "stateCode": "SI-043",
      "latitude": 46.21667,
      "longitude": 14.66667
    },
    {
      "id": 3190209,
      "name": "Spodnje Stranje",
      "nativeName": "Spodnje Stranje",
      "code": "SI-043-3190209",
      "countryId": 3190538,
      "countryCode": "SI",
      "stateCode": "SI-043",
      "latitude": 46.24798,
      "longitude": 14.59974
    },
    {
      "id": 3190132,
      "name": "Srednja vas pri Kamniku",
      "nativeName": "Srednja Vas pri Kamniku",
      "code": "SI-043-3190132",
      "countryId": 3190538,
      "countryCode": "SI",
      "stateCode": "SI-043",
      "latitude": 46.23333,
      "longitude": 14.68333
    },
    {
      "id": 3190066,
      "name": "Stahovica",
      "nativeName": "Stahovica",
      "code": "SI-043-3190066",
      "countryId": 3190538,
      "countryCode": "SI",
      "stateCode": "SI-043",
      "latitude": 46.27683,
      "longitude": 14.61719
    },
    {
      "id": 8988402,
      "name": "Stara sela",
      "nativeName": "Stara Sela",
      "code": "SI-043-8988402",
      "countryId": 3190538,
      "countryCode": "SI",
      "stateCode": "SI-043",
      "latitude": 46.23027,
      "longitude": 14.75589
    },
    {
      "id": 8988447,
      "name": "Stebljevek",
      "nativeName": "Stebljevek",
      "code": "SI-043-8988447",
      "countryId": 3190538,
      "countryCode": "SI",
      "stateCode": "SI-043",
      "latitude": 46.21416,
      "longitude": 14.74672
    },
    {
      "id": 8987614,
      "name": "Stolnik",
      "nativeName": "Stolnik",
      "code": "SI-043-8987614",
      "countryId": 3190538,
      "countryCode": "SI",
      "stateCode": "SI-043",
      "latitude": 46.25162,
      "longitude": 14.58804
    },
    {
      "id": 8988153,
      "name": "Studenca",
      "nativeName": "Studenca",
      "code": "SI-043-8988153",
      "countryId": 3190538,
      "countryCode": "SI",
      "stateCode": "SI-043",
      "latitude": 46.24766,
      "longitude": 14.68362
    },
    {
      "id": 8989255,
      "name": "Trebelno pri Palovčah",
      "nativeName": "Trebelno pri Palovčah",
      "code": "SI-043-8989255",
      "countryId": 3190538,
      "countryCode": "SI",
      "stateCode": "SI-043",
      "latitude": 46.20787,
      "longitude": 14.6506
    },
    {
      "id": 8989052,
      "name": "Trobelno",
      "nativeName": "Trobelno",
      "code": "SI-043-8989052",
      "countryId": 3190538,
      "countryCode": "SI",
      "stateCode": "SI-043",
      "latitude": 46.24578,
      "longitude": 14.69858
    },
    {
      "id": 3188648,
      "name": "Tunjice",
      "nativeName": "Tunjice",
      "code": "SI-043-3188648",
      "countryId": 3190538,
      "countryCode": "SI",
      "stateCode": "SI-043",
      "latitude": 46.23534,
      "longitude": 14.56791
    },
    {
      "id": 8987024,
      "name": "Tunjiška Mlaka",
      "nativeName": "Tunjiška Mlaka",
      "code": "SI-043-8987024",
      "countryId": 3190538,
      "countryCode": "SI",
      "stateCode": "SI-043",
      "latitude": 46.23412,
      "longitude": 14.58364
    },
    {
      "id": 8988968,
      "name": "Tučna",
      "nativeName": "Tučna",
      "code": "SI-043-8988968",
      "countryId": 3190538,
      "countryCode": "SI",
      "stateCode": "SI-043",
      "latitude": 46.24895,
      "longitude": 14.63714
    },
    {
      "id": 3217558,
      "name": "Uršic",
      "nativeName": "Uršic",
      "code": "SI-043-3217558",
      "countryId": 3190538,
      "countryCode": "SI",
      "stateCode": "SI-043",
      "latitude": 46.32917,
      "longitude": 14.59194
    },
    {
      "id": 8988853,
      "name": "Vaseno",
      "nativeName": "Vaseno",
      "code": "SI-043-8988853",
      "countryId": 3190538,
      "countryCode": "SI",
      "stateCode": "SI-043",
      "latitude": 46.21467,
      "longitude": 14.69987
    },
    {
      "id": 3188215,
      "name": "Velika Lašna",
      "nativeName": "Velika Lašna",
      "code": "SI-043-3188215",
      "countryId": 3190538,
      "countryCode": "SI",
      "stateCode": "SI-043",
      "latitude": 46.2,
      "longitude": 14.7
    },
    {
      "id": 8989382,
      "name": "Velika Planina",
      "nativeName": "Velika Planina",
      "code": "SI-043-8989382",
      "countryId": 3190538,
      "countryCode": "SI",
      "stateCode": "SI-043",
      "latitude": 46.30377,
      "longitude": 14.6506
    },
    {
      "id": 8988041,
      "name": "Veliki Hrib",
      "nativeName": "Veliki Hrib",
      "code": "SI-043-8988041",
      "countryId": 3190538,
      "countryCode": "SI",
      "stateCode": "SI-043",
      "latitude": 46.21198,
      "longitude": 14.77943
    },
    {
      "id": 3188007,
      "name": "Veliki Rakitovec",
      "nativeName": "Veliki Rakitovec",
      "code": "SI-043-3188007",
      "countryId": 3190538,
      "countryCode": "SI",
      "stateCode": "SI-043",
      "latitude": 46.2,
      "longitude": 14.78333
    },
    {
      "id": 8988854,
      "name": "Vir pri Nevljah",
      "nativeName": "Vir pri Nevljah",
      "code": "SI-043-8988854",
      "countryId": 3190538,
      "countryCode": "SI",
      "stateCode": "SI-043",
      "latitude": 46.22803,
      "longitude": 14.6628
    },
    {
      "id": 8989609,
      "name": "Vodice nad Kamnikom",
      "nativeName": "Vodice nad Kamnikom",
      "code": "SI-043-8989609",
      "countryId": 3190538,
      "countryCode": "SI",
      "stateCode": "SI-043",
      "latitude": 46.25531,
      "longitude": 14.63394
    },
    {
      "id": 3187425,
      "name": "Volčji Potok",
      "nativeName": "Volčji Potok",
      "code": "SI-043-3187425",
      "countryId": 3190538,
      "countryCode": "SI",
      "stateCode": "SI-043",
      "latitude": 46.2,
      "longitude": 14.61667
    },
    {
      "id": 8988694,
      "name": "Vranja Peč",
      "nativeName": "Vranja Peč",
      "code": "SI-043-8988694",
      "countryId": 3190538,
      "countryCode": "SI",
      "stateCode": "SI-043",
      "latitude": 46.21054,
      "longitude": 14.67149
    },
    {
      "id": 3187183,
      "name": "Vrhpolje pri Kamniku",
      "nativeName": "Vrhpolje pri Kamniku",
      "code": "SI-043-3187183",
      "countryId": 3190538,
      "countryCode": "SI",
      "stateCode": "SI-043",
      "latitude": 46.23333,
      "longitude": 14.63333
    },
    {
      "id": 8987397,
      "name": "Zagorica nad Kamnikom",
      "nativeName": "Zagorica nad Kamnikom",
      "code": "SI-043-8987397",
      "countryId": 3190538,
      "countryCode": "SI",
      "stateCode": "SI-043",
      "latitude": 46.26102,
      "longitude": 14.59888
    },
    {
      "id": 8988292,
      "name": "Zakal",
      "nativeName": "Zakal",
      "code": "SI-043-8988292",
      "countryId": 3190538,
      "countryCode": "SI",
      "stateCode": "SI-043",
      "latitude": 46.26561,
      "longitude": 14.57396
    },
    {
      "id": 8988944,
      "name": "Zavrh pri Črnivcu",
      "nativeName": "Zavrh pri Črnivcu",
      "code": "SI-043-8988944",
      "countryId": 3190538,
      "countryCode": "SI",
      "stateCode": "SI-043",
      "latitude": 46.26527,
      "longitude": 14.67941
    },
    {
      "id": 8987866,
      "name": "Zduša",
      "nativeName": "Zduša",
      "code": "SI-043-8987866",
      "countryId": 3190538,
      "countryCode": "SI",
      "stateCode": "SI-043",
      "latitude": 46.24388,
      "longitude": 14.62008
    },
    {
      "id": 3186507,
      "name": "Zgornje Palovče",
      "nativeName": "Zgornje Palovče",
      "code": "SI-043-3186507",
      "countryId": 3190538,
      "countryCode": "SI",
      "stateCode": "SI-043",
      "latitude": 46.21328,
      "longitude": 14.64756
    },
    {
      "id": 3186502,
      "name": "Zgornje Stranje",
      "nativeName": "Zgornje Stranje",
      "code": "SI-043-3186502",
      "countryId": 3190538,
      "countryCode": "SI",
      "stateCode": "SI-043",
      "latitude": 46.25,
      "longitude": 14.6
    },
    {
      "id": 3186482,
      "name": "Zgornji Tuhinj",
      "nativeName": "Zgornji Tuhinj",
      "code": "SI-043-3186482",
      "countryId": 3190538,
      "countryCode": "SI",
      "stateCode": "SI-043",
      "latitude": 46.23333,
      "longitude": 14.78333
    },
    {
      "id": 8988920,
      "name": "Znojile",
      "nativeName": "Znojile",
      "code": "SI-043-8988920",
      "countryId": 3190538,
      "countryCode": "SI",
      "stateCode": "SI-043",
      "latitude": 46.23597,
      "longitude": 14.69395
    },
    {
      "id": 3202660,
      "name": "Češnjice",
      "nativeName": "Češnjice",
      "code": "SI-043-3202660",
      "countryId": 3190538,
      "countryCode": "SI",
      "stateCode": "SI-043",
      "latitude": 46.19188,
      "longitude": 14.77643
    },
    {
      "id": 3202658,
      "name": "Češnjice v Tuhinju",
      "nativeName": "Češnjice v Tuhinju",
      "code": "SI-043-3202658",
      "countryId": 3190538,
      "countryCode": "SI",
      "stateCode": "SI-043",
      "latitude": 46.23333,
      "longitude": 14.81667
    },
    {
      "id": 8987274,
      "name": "Črna pri Kamniku",
      "nativeName": "Črna pri Kamniku",
      "code": "SI-043-8987274",
      "countryId": 3190538,
      "countryCode": "SI",
      "stateCode": "SI-043",
      "latitude": 46.27049,
      "longitude": 14.62464
    },
    {
      "id": 8988809,
      "name": "Črni Vrh v Tuhinju",
      "nativeName": "Črni Vrh v Tuhinju",
      "code": "SI-043-8988809",
      "countryId": 3190538,
      "countryCode": "SI",
      "stateCode": "SI-043",
      "latitude": 46.21831,
      "longitude": 14.80198
    },
    {
      "id": 3190516,
      "name": "Šmarca",
      "nativeName": "Šmarca",
      "code": "SI-043-3190516",
      "countryId": 3190538,
      "countryCode": "SI",
      "stateCode": "SI-043",
      "latitude": 46.19333,
      "longitude": 14.59667
    },
    {
      "id": 3190492,
      "name": "Šmartno v Tuhinju",
      "nativeName": "Šmartno v Tuhinju",
      "code": "SI-043-3190492",
      "countryId": 3190538,
      "countryCode": "SI",
      "stateCode": "SI-043",
      "latitude": 46.21667,
      "longitude": 14.73333
    },
    {
      "id": 3190263,
      "name": "Špitalič",
      "nativeName": "Špitalič",
      "code": "SI-043-3190263",
      "countryId": 3190538,
      "countryCode": "SI",
      "stateCode": "SI-043",
      "latitude": 46.2175,
      "longitude": 14.84444
    },
    {
      "id": 8988154,
      "name": "Žaga",
      "nativeName": "Žaga",
      "code": "SI-043-8988154",
      "countryId": 3190538,
      "countryCode": "SI",
      "stateCode": "SI-043",
      "latitude": 46.28425,
      "longitude": 14.66496
    },
    {
      "id": 8989004,
      "name": "Žubejevo",
      "nativeName": "Žubejevo",
      "code": "SI-043-8989004",
      "countryId": 3190538,
      "countryCode": "SI",
      "stateCode": "SI-043",
      "latitude": 46.23514,
      "longitude": 14.70118
    },
    {
      "id": 11048434,
      "name": "Županje njive",
      "nativeName": "Županje njive",
      "code": "SI-043-11048434",
      "countryId": 3190538,
      "countryCode": "SI",
      "stateCode": "SI-043",
      "latitude": 46.2697,
      "longitude": 14.60431
    }
  ]
}