{
  "stateId": 3239188,
  "stateCode": "SI-068",
  "countryCode": "SI",
  "cities": [
    {
      "id": 3196049,
      "name": "Lukovica",
      "nativeName": "Lukovica pri Domžalah",
      "code": "SI-068-3196049",
      "countryId": 3190538,
      "countryCode": "SI",
      "stateCode": "SI-068",
      "latitude": 46.16988,
      "longitude": 14.69179
    },
    {
      "id": 3203965,
      "name": "Blagovica",
      "nativeName": "Blagovica",
      "code": "SI-068-3203965",
      "countryId": 3190538,
      "countryCode": "SI",
      "stateCode": "SI-068",
      "latitude": 46.17694,
      "longitude": 14.80722
    },
    {
      "id": 8989661,
      "name": "Brdo pri Lukovici",
      "nativeName": "Brdo pri Lukovici",
      "code": "SI-068-8989661",
      "countryId": 3190538,
      "countryCode": "SI",
      "stateCode": "SI-068",
      "latitude": 46.17306,
      "longitude": 14.68302
    },
    {
      "id": 8989618,
      "name": "Brezovica pri Zlatem Polju",
      "nativeName": "Brezovica pri Zlatem Polju",
      "code": "SI-068-8989618",
      "countryId": 3190538,
      "countryCode": "SI",
      "stateCode": "SI-068",
      "latitude": 46.19185,
      "longitude": 14.73456
    },
    {
      "id": 8988901,
      "name": "Bršlenovica",
      "nativeName": "Bršlenovica",
      "code": "SI-068-8988901",
      "countryId": 3190538,
      "countryCode": "SI",
      "stateCode": "SI-068",
      "latitude": 46.19215,
      "longitude": 14.85947
    },
    {
      "id": 8988298,
      "name": "Dupeljne",
      "nativeName": "Dupeljne",
      "code": "SI-068-8988298",
      "countryId": 3190538,
      "countryCode": "SI",
      "stateCode": "SI-068",
      "latitude": 46.19029,
      "longitude": 14.6746
    },
    {
      "id": 3216069,
      "name": "Gabrje pod Špilkom",
      "nativeName": "Gabrje pod Spilkom",
      "code": "SI-068-3216069",
      "countryId": 3190538,
      "countryCode": "SI",
      "stateCode": "SI-068",
      "latitude": 46.19556,
      "longitude": 14.81528
    },
    {
      "id": 8989431,
      "name": "Golčaj",
      "nativeName": "Golčaj",
      "code": "SI-068-8989431",
      "countryId": 3190538,
      "countryCode": "SI",
      "stateCode": "SI-068",
      "latitude": 46.16611,
      "longitude": 14.81154
    },
    {
      "id": 8988951,
      "name": "Gorenje",
      "nativeName": "Gorenje",
      "code": "SI-068-8988951",
      "countryId": 3190538,
      "countryCode": "SI",
      "stateCode": "SI-068",
      "latitude": 46.19431,
      "longitude": 14.82779
    },
    {
      "id": 3200375,
      "name": "Gorenje",
      "nativeName": "Gorenje",
      "code": "SI-068-3200375",
      "countryId": 3190538,
      "countryCode": "SI",
      "stateCode": "SI-068",
      "latitude": 46.15,
      "longitude": 14.7
    },
    {
      "id": 3199688,
      "name": "Gradišče pri Lukovici",
      "nativeName": "Gradišče pri Lukovici",
      "code": "SI-068-3199688",
      "countryId": 3190538,
      "countryCode": "SI",
      "stateCode": "SI-068",
      "latitude": 46.16667,
      "longitude": 14.7
    },
    {
      "id": 8988387,
      "name": "Hribi",
      "nativeName": "Hribi",
      "code": "SI-068-8988387",
      "countryId": 3190538,
      "countryCode": "SI",
      "stateCode": "SI-068",
      "latitude": 46.1986,
      "longitude": 14.88292
    },
    {
      "id": 8987600,
      "name": "Imovica",
      "nativeName": "Imovica",
      "code": "SI-068-8987600",
      "countryId": 3190538,
      "countryCode": "SI",
      "stateCode": "SI-068",
      "latitude": 46.15475,
      "longitude": 14.67629
    },
    {
      "id": 8988902,
      "name": "Javorje pri Blagovici",
      "nativeName": "Javorje pri Blagovici",
      "code": "SI-068-8988902",
      "countryId": 3190538,
      "countryCode": "SI",
      "stateCode": "SI-068",
      "latitude": 46.18943,
      "longitude": 14.83293
    },
    {
      "id": 8988488,
      "name": "Jelša",
      "nativeName": "Jelša",
      "code": "SI-068-8988488",
      "countryId": 3190538,
      "countryCode": "SI",
      "stateCode": "SI-068",
      "latitude": 46.18848,
      "longitude": 14.80588
    },
    {
      "id": 8988789,
      "name": "Kompolje",
      "nativeName": "Kompolje",
      "code": "SI-068-8988789",
      "countryId": 3190538,
      "countryCode": "SI",
      "stateCode": "SI-068",
      "latitude": 46.17037,
      "longitude": 14.72553
    },
    {
      "id": 8988076,
      "name": "Koreno",
      "nativeName": "Koreno",
      "code": "SI-068-8988076",
      "countryId": 3190538,
      "countryCode": "SI",
      "stateCode": "SI-068",
      "latitude": 46.17848,
      "longitude": 14.73458
    },
    {
      "id": 8989056,
      "name": "Korpe",
      "nativeName": "Korpe",
      "code": "SI-068-8989056",
      "countryId": 3190538,
      "countryCode": "SI",
      "stateCode": "SI-068",
      "latitude": 46.16546,
      "longitude": 14.78967
    },
    {
      "id": 8987937,
      "name": "Krajno Brdo",
      "nativeName": "Krajno Brdo",
      "code": "SI-068-8987937",
      "countryId": 3190538,
      "countryCode": "SI",
      "stateCode": "SI-068",
      "latitude": 46.17643,
      "longitude": 14.7626
    },
    {
      "id": 3197131,
      "name": "Krtina",
      "nativeName": "Krtina",
      "code": "SI-068-3197131",
      "countryId": 3190538,
      "countryCode": "SI",
      "stateCode": "SI-068",
      "latitude": 46.14834,
      "longitude": 14.65228
    },
    {
      "id": 8989092,
      "name": "Lipa",
      "nativeName": "Lipa",
      "code": "SI-068-8989092",
      "countryId": 3190538,
      "countryCode": "SI",
      "stateCode": "SI-068",
      "latitude": 46.1922,
      "longitude": 14.76727
    },
    {
      "id": 8989034,
      "name": "Log",
      "nativeName": "Log",
      "code": "SI-068-8989034",
      "countryId": 3190538,
      "countryCode": "SI",
      "stateCode": "SI-068",
      "latitude": 46.19088,
      "longitude": 14.84091
    },
    {
      "id": 8989606,
      "name": "Mala Lašna",
      "nativeName": "Mala Lašna",
      "code": "SI-068-8989606",
      "countryId": 3190538,
      "countryCode": "SI",
      "stateCode": "SI-068",
      "latitude": 46.19894,
      "longitude": 14.71395
    },
    {
      "id": 8988435,
      "name": "Mali Jelnik",
      "nativeName": "Mali Jelnik",
      "code": "SI-068-8988435",
      "countryId": 3190538,
      "countryCode": "SI",
      "stateCode": "SI-068",
      "latitude": 46.17892,
      "longitude": 14.79454
    },
    {
      "id": 8988677,
      "name": "Obrše",
      "nativeName": "Obrše",
      "code": "SI-068-8988677",
      "countryId": 3190538,
      "countryCode": "SI",
      "stateCode": "SI-068",
      "latitude": 46.19177,
      "longitude": 14.70105
    },
    {
      "id": 8989622,
      "name": "Podgora pri Zlatem Polju",
      "nativeName": "Podgora pri Zlatem Polju",
      "code": "SI-068-8989622",
      "countryId": 3190538,
      "countryCode": "SI",
      "stateCode": "SI-068",
      "latitude": 46.19201,
      "longitude": 14.7184
    },
    {
      "id": 8988388,
      "name": "Podmilj",
      "nativeName": "Podmilj",
      "code": "SI-068-8988388",
      "countryId": 3190538,
      "countryCode": "SI",
      "stateCode": "SI-068",
      "latitude": 46.17679,
      "longitude": 14.84395
    },
    {
      "id": 8988475,
      "name": "Podsmrečje",
      "nativeName": "Podsmrečje",
      "code": "SI-068-8988475",
      "countryId": 3190538,
      "countryCode": "SI",
      "stateCode": "SI-068",
      "latitude": 46.17066,
      "longitude": 14.79462
    },
    {
      "id": 8989260,
      "name": "Poljane nad Blagovico",
      "nativeName": "Poljane nad Blagovico",
      "code": "SI-068-8989260",
      "countryId": 3190538,
      "countryCode": "SI",
      "stateCode": "SI-068",
      "latitude": 46.19314,
      "longitude": 14.7862
    },
    {
      "id": 8989535,
      "name": "Preserje pri Lukovici",
      "nativeName": "Preserje pri Lukovici",
      "code": "SI-068-8989535",
      "countryId": 3190538,
      "countryCode": "SI",
      "stateCode": "SI-068",
      "latitude": 46.15111,
      "longitude": 14.70273
    },
    {
      "id": 8988762,
      "name": "Preserje pri Zlatem Polju",
      "nativeName": "Preserje pri Zlatem Polju",
      "code": "SI-068-8988762",
      "countryId": 3190538,
      "countryCode": "SI",
      "stateCode": "SI-068",
      "latitude": 46.19346,
      "longitude": 14.69123
    },
    {
      "id": 8988344,
      "name": "Prevalje",
      "nativeName": "Prevalje",
      "code": "SI-068-8988344",
      "countryId": 3190538,
      "countryCode": "SI",
      "stateCode": "SI-068",
      "latitude": 46.1505,
      "longitude": 14.6785
    },
    {
      "id": 3192476,
      "name": "Prevoje",
      "nativeName": "Prevoje",
      "code": "SI-068-3192476",
      "countryId": 3190538,
      "countryCode": "SI",
      "stateCode": "SI-068",
      "latitude": 46.18333,
      "longitude": 14.81667
    },
    {
      "id": 3192475,
      "name": "Prevoje pri Šentvidu",
      "nativeName": "Prevoje pri Šentvidu",
      "code": "SI-068-3192475",
      "countryId": 3190538,
      "countryCode": "SI",
      "stateCode": "SI-068",
      "latitude": 46.16667,
      "longitude": 14.66667
    },
    {
      "id": 8989093,
      "name": "Prilesje",
      "nativeName": "Prilesje",
      "code": "SI-068-8989093",
      "countryId": 3190538,
      "countryCode": "SI",
      "stateCode": "SI-068",
      "latitude": 46.18987,
      "longitude": 14.81656
    },
    {
      "id": 8989237,
      "name": "Prvine",
      "nativeName": "Prvine",
      "code": "SI-068-8989237",
      "countryId": 3190538,
      "countryCode": "SI",
      "stateCode": "SI-068",
      "latitude": 46.19086,
      "longitude": 14.84986
    },
    {
      "id": 3192043,
      "name": "Rafolče",
      "nativeName": "Rafolče",
      "code": "SI-068-3192043",
      "countryId": 3190538,
      "countryCode": "SI",
      "stateCode": "SI-068",
      "latitude": 46.17444,
      "longitude": 14.67611
    },
    {
      "id": 8988879,
      "name": "Selce",
      "nativeName": "Selce",
      "code": "SI-068-8988879",
      "countryId": 3190538,
      "countryCode": "SI",
      "stateCode": "SI-068",
      "latitude": 46.19516,
      "longitude": 14.79759
    },
    {
      "id": 3190215,
      "name": "Spodnje Koseze",
      "nativeName": "Spodnje Koseze",
      "code": "SI-068-3190215",
      "countryId": 3190538,
      "countryCode": "SI",
      "stateCode": "SI-068",
      "latitude": 46.15,
      "longitude": 14.68333
    },
    {
      "id": 8987489,
      "name": "Spodnje Loke",
      "nativeName": "Spodnje Loke",
      "code": "SI-068-8987489",
      "countryId": 3190538,
      "countryCode": "SI",
      "stateCode": "SI-068",
      "latitude": 46.16768,
      "longitude": 14.76463
    },
    {
      "id": 8987312,
      "name": "Spodnje Prapreče",
      "nativeName": "Spodnje Prapreče",
      "code": "SI-068-8987312",
      "countryId": 3190538,
      "countryCode": "SI",
      "stateCode": "SI-068",
      "latitude": 46.16088,
      "longitude": 14.69102
    },
    {
      "id": 8988927,
      "name": "Spodnji Petelinjek",
      "nativeName": "Spodnji Petelinjek",
      "code": "SI-068-8988927",
      "countryId": 3190538,
      "countryCode": "SI",
      "stateCode": "SI-068",
      "latitude": 46.18027,
      "longitude": 14.82531
    },
    {
      "id": 8989074,
      "name": "Straža",
      "nativeName": "Straža",
      "code": "SI-068-8989074",
      "countryId": 3190538,
      "countryCode": "SI",
      "stateCode": "SI-068",
      "latitude": 46.18708,
      "longitude": 14.6835
    },
    {
      "id": 8988903,
      "name": "Suša",
      "nativeName": "Suša",
      "code": "SI-068-8988903",
      "countryId": 3190538,
      "countryCode": "SI",
      "stateCode": "SI-068",
      "latitude": 46.18701,
      "longitude": 14.82376
    },
    {
      "id": 8987149,
      "name": "Trnjava",
      "nativeName": "Trnjava",
      "code": "SI-068-8987149",
      "countryId": 3190538,
      "countryCode": "SI",
      "stateCode": "SI-068",
      "latitude": 46.17687,
      "longitude": 14.71517
    },
    {
      "id": 8987995,
      "name": "Trnovče",
      "nativeName": "Trnovče",
      "code": "SI-068-8987995",
      "countryId": 3190538,
      "countryCode": "SI",
      "stateCode": "SI-068",
      "latitude": 46.18713,
      "longitude": 14.71326
    },
    {
      "id": 3188756,
      "name": "Trojane",
      "nativeName": "Trojane",
      "code": "SI-068-3188756",
      "countryId": 3190538,
      "countryCode": "SI",
      "stateCode": "SI-068",
      "latitude": 46.18833,
      "longitude": 14.88306
    },
    {
      "id": 8988678,
      "name": "Učak",
      "nativeName": "Učak",
      "code": "SI-068-8988678",
      "countryId": 3190538,
      "countryCode": "SI",
      "stateCode": "SI-068",
      "latitude": 46.18795,
      "longitude": 14.86385
    },
    {
      "id": 8988389,
      "name": "V Zideh",
      "nativeName": "V Zideh",
      "code": "SI-068-8988389",
      "countryId": 3190538,
      "countryCode": "SI",
      "stateCode": "SI-068",
      "latitude": 46.18821,
      "longitude": 14.89522
    },
    {
      "id": 8989623,
      "name": "Veliki Jelnik",
      "nativeName": "Veliki Jelnik",
      "code": "SI-068-8989623",
      "countryId": 3190538,
      "countryCode": "SI",
      "stateCode": "SI-068",
      "latitude": 46.1851,
      "longitude": 14.78649
    },
    {
      "id": 8989579,
      "name": "Videm pri Lukovici",
      "nativeName": "Videm pri Lukovici",
      "code": "SI-068-8989579",
      "countryId": 3190538,
      "countryCode": "SI",
      "stateCode": "SI-068",
      "latitude": 46.15301,
      "longitude": 14.69153
    },
    {
      "id": 8988511,
      "name": "Vošce",
      "nativeName": "Vošce",
      "code": "SI-068-8988511",
      "countryId": 3190538,
      "countryCode": "SI",
      "stateCode": "SI-068",
      "latitude": 46.17867,
      "longitude": 14.77886
    },
    {
      "id": 8989158,
      "name": "Vranke",
      "nativeName": "Vranke",
      "code": "SI-068-8989158",
      "countryId": 3190538,
      "countryCode": "SI",
      "stateCode": "SI-068",
      "latitude": 46.17323,
      "longitude": 14.82141
    },
    {
      "id": 8987930,
      "name": "Vrba",
      "nativeName": "Vrba",
      "code": "SI-068-8987930",
      "countryId": 3190538,
      "countryCode": "SI",
      "stateCode": "SI-068",
      "latitude": 46.15669,
      "longitude": 14.66581
    },
    {
      "id": 3187216,
      "name": "Vrh nad Krašnjo",
      "nativeName": "Vrh nad Krašnjo",
      "code": "SI-068-3187216",
      "countryId": 3190538,
      "countryCode": "SI",
      "stateCode": "SI-068",
      "latitude": 46.18333,
      "longitude": 14.76667
    },
    {
      "id": 8987906,
      "name": "Vrhovlje",
      "nativeName": "Vrhovlje",
      "code": "SI-068-8987906",
      "countryId": 3190538,
      "countryCode": "SI",
      "stateCode": "SI-068",
      "latitude": 46.17869,
      "longitude": 14.66752
    },
    {
      "id": 8988425,
      "name": "Zavrh pri Trojanah",
      "nativeName": "Zavrh pri Trojanah",
      "code": "SI-068-8988425",
      "countryId": 3190538,
      "countryCode": "SI",
      "stateCode": "SI-068",
      "latitude": 46.18013,
      "longitude": 14.88144
    },
    {
      "id": 8989521,
      "name": "Zgornje Loke",
      "nativeName": "Zgornje Loke",
      "code": "SI-068-8989521",
      "countryId": 3190538,
      "countryCode": "SI",
      "stateCode": "SI-068",
      "latitude": 46.17234,
      "longitude": 14.78163
    },
    {
      "id": 8989860,
      "name": "Zgornje Prapreče",
      "nativeName": "Zgornje Prapreče",
      "code": "SI-068-8989860",
      "countryId": 3190538,
      "countryCode": "SI",
      "stateCode": "SI-068",
      "latitude": 46.16769,
      "longitude": 14.69952
    },
    {
      "id": 8989646,
      "name": "Zgornji Petelinjek",
      "nativeName": "Zgornji Petelinjek",
      "code": "SI-068-8989646",
      "countryId": 3190538,
      "countryCode": "SI",
      "stateCode": "SI-068",
      "latitude": 46.17658,
      "longitude": 14.82782
    },
    {
      "id": 8988489,
      "name": "Zlatenek",
      "nativeName": "Zlatenek",
      "code": "SI-068-8988489",
      "countryId": 3190538,
      "countryCode": "SI",
      "stateCode": "SI-068",
      "latitude": 46.18859,
      "longitude": 14.79682
    },
    {
      "id": 3186394,
      "name": "Zlato Polje",
      "nativeName": "Zlato Polje",
      "code": "SI-068-3186394",
      "countryId": 3190538,
      "countryCode": "SI",
      "stateCode": "SI-068",
      "latitude": 46.19773,
      "longitude": 14.72684
    },
    {
      "id": 8987868,
      "name": "Čeplje",
      "nativeName": "Čeplje",
      "code": "SI-068-8987868",
      "countryId": 3190538,
      "countryCode": "SI",
      "stateCode": "SI-068",
      "latitude": 46.18067,
      "longitude": 14.69889
    },
    {
      "id": 3191026,
      "name": "Šentožbolt",
      "nativeName": "Šentožbolt",
      "code": "SI-068-3191026",
      "countryId": 3190538,
      "countryCode": "SI",
      "stateCode": "SI-068",
      "latitude": 46.18475,
      "longitude": 14.85465
    },
    {
      "id": 8989477,
      "name": "Šentvid pri Lukovici",
      "nativeName": "Šentvid pri Lukovici",
      "code": "SI-068-8989477",
      "countryId": 3190538,
      "countryCode": "SI",
      "stateCode": "SI-068",
      "latitude": 46.16149,
      "longitude": 14.67705
    },
    {
      "id": 8989009,
      "name": "Žirovše",
      "nativeName": "Žirovše",
      "code": "SI-068-8989009",
      "countryId": 3190538,
      "countryCode": "SI",
      "stateCode": "SI-068",
      "latitude": 46.16653,
      "longitude": 14.772
    }
  ]
}