{
  "stateId": 3197752,
  "stateCode": "SI-050",
  "countryCode": "SI",
  "cities": [
    {
      "id": 3197753,
      "name": "Koper",
      "nativeName": "Koper",
      "code": "SI-050-3197753",
      "countryId": 3190538,
      "countryCode": "SI",
      "stateCode": "SI-050",
      "latitude": 45.54694,
      "longitude": 13.72944
    },
    {
      "id": 3343526,
      "name": "Babiči",
      "nativeName": "Babiči",
      "code": "SI-050-3343526",
      "countryId": 3190538,
      "countryCode": "SI",
      "stateCode": "SI-050",
      "latitude": 45.50278,
      "longitude": 13.77944
    },
    {
      "id": 3204302,
      "name": "Belvedur",
      "nativeName": "Belvedur",
      "code": "SI-050-3204302",
      "countryId": 3190538,
      "countryCode": "SI",
      "stateCode": "SI-050",
      "latitude": 45.46278,
      "longitude": 13.82361
    },
    {
      "id": 3204267,
      "name": "Bertoki",
      "nativeName": "Bertoki",
      "code": "SI-050-3204267",
      "countryId": 3190538,
      "countryCode": "SI",
      "stateCode": "SI-050",
      "latitude": 45.54556,
      "longitude": 13.76778
    },
    {
      "id": 8988065,
      "name": "Bezovica",
      "nativeName": "Bezovica",
      "code": "SI-050-8988065",
      "countryId": 3190538,
      "countryCode": "SI",
      "stateCode": "SI-050",
      "latitude": 45.52834,
      "longitude": 13.89197
    },
    {
      "id": 3192647,
      "name": "Bonini",
      "nativeName": "Bonini",
      "code": "SI-050-3192647",
      "countryId": 3190538,
      "countryCode": "SI",
      "stateCode": "SI-050",
      "latitude": 45.52861,
      "longitude": 13.78194
    },
    {
      "id": 3203664,
      "name": "Boršt",
      "nativeName": "Boršt",
      "code": "SI-050-3203664",
      "countryId": 3190538,
      "countryCode": "SI",
      "stateCode": "SI-050",
      "latitude": 45.48556,
      "longitude": 13.80083
    },
    {
      "id": 3343507,
      "name": "Bočaji",
      "nativeName": "Bočaji",
      "code": "SI-050-3343507",
      "countryId": 3190538,
      "countryCode": "SI",
      "stateCode": "SI-050",
      "latitude": 45.49472,
      "longitude": 13.83028
    },
    {
      "id": 8986902,
      "name": "Bošamarin",
      "nativeName": "Bošamarin",
      "code": "SI-050-8986902",
      "countryId": 3190538,
      "countryCode": "SI",
      "stateCode": "SI-050",
      "latitude": 45.52028,
      "longitude": 13.73584
    },
    {
      "id": 3216058,
      "name": "Brezovica pri Gradinu",
      "nativeName": "Brezovica pri Gradinu",
      "code": "SI-050-3216058",
      "countryId": 3190538,
      "countryCode": "SI",
      "stateCode": "SI-050",
      "latitude": 45.45111,
      "longitude": 13.855
    },
    {
      "id": 8989413,
      "name": "Brežec pri Podgorju",
      "nativeName": "Brežec pri Podgorju",
      "code": "SI-050-8989413",
      "countryId": 3190538,
      "countryCode": "SI",
      "stateCode": "SI-050",
      "latitude": 45.5116,
      "longitude": 13.92612
    },
    {
      "id": 8989429,
      "name": "Brič",
      "nativeName": "Brič",
      "code": "SI-050-8989429",
      "countryId": 3190538,
      "countryCode": "SI",
      "stateCode": "SI-050",
      "latitude": 45.46528,
      "longitude": 13.74444
    },
    {
      "id": 3343506,
      "name": "Butari",
      "nativeName": "Butari",
      "code": "SI-050-3343506",
      "countryId": 3190538,
      "countryCode": "SI",
      "stateCode": "SI-050",
      "latitude": 45.48111,
      "longitude": 13.86833
    },
    {
      "id": 8987867,
      "name": "Cepki",
      "nativeName": "Cepki",
      "code": "SI-050-8987867",
      "countryId": 3190538,
      "countryCode": "SI",
      "stateCode": "SI-050",
      "latitude": 45.54842,
      "longitude": 13.84012
    },
    {
      "id": 8987623,
      "name": "Cerej",
      "nativeName": "Cerej",
      "code": "SI-050-8987623",
      "countryId": 3190538,
      "countryCode": "SI",
      "stateCode": "SI-050",
      "latitude": 45.58908,
      "longitude": 13.75956
    },
    {
      "id": 3202111,
      "name": "Dekani",
      "nativeName": "Dekani",
      "code": "SI-050-3202111",
      "countryId": 3190538,
      "countryCode": "SI",
      "stateCode": "SI-050",
      "latitude": 45.54972,
      "longitude": 13.81361
    },
    {
      "id": 8989305,
      "name": "Dilici",
      "nativeName": "Dilici",
      "code": "SI-050-8989305",
      "countryId": 3190538,
      "countryCode": "SI",
      "stateCode": "SI-050",
      "latitude": 45.49111,
      "longitude": 13.77051
    },
    {
      "id": 3201749,
      "name": "Dol pri Hrastovljah",
      "nativeName": "Dol pri Hrastovljah",
      "code": "SI-050-3201749",
      "countryId": 3190538,
      "countryCode": "SI",
      "stateCode": "SI-050",
      "latitude": 45.50139,
      "longitude": 13.9125
    },
    {
      "id": 3200913,
      "name": "Dvori",
      "nativeName": "Dvori",
      "code": "SI-050-3200913",
      "countryId": 3190538,
      "countryCode": "SI",
      "stateCode": "SI-050",
      "latitude": 45.45917,
      "longitude": 13.93472
    },
    {
      "id": 8988896,
      "name": "Fijeroga",
      "nativeName": "Fijeroga",
      "code": "SI-050-8988896",
      "countryId": 3190538,
      "countryCode": "SI",
      "stateCode": "SI-050",
      "latitude": 45.4923,
      "longitude": 13.75985
    },
    {
      "id": 3200779,
      "name": "Gabrovica pri Črnem Kalu",
      "nativeName": "Gabrovica pri Črnem Kalu",
      "code": "SI-050-3200779",
      "countryId": 3190538,
      "countryCode": "SI",
      "stateCode": "SI-050",
      "latitude": 45.55917,
      "longitude": 13.87028
    },
    {
      "id": 8989183,
      "name": "Galantiči",
      "nativeName": "Galantiči",
      "code": "SI-050-8989183",
      "countryId": 3190538,
      "countryCode": "SI",
      "stateCode": "SI-050",
      "latitude": 45.49261,
      "longitude": 13.87482
    },
    {
      "id": 3200683,
      "name": "Gažon",
      "nativeName": "Gažon",
      "code": "SI-050-3200683",
      "countryId": 3190538,
      "countryCode": "SI",
      "stateCode": "SI-050",
      "latitude": 45.51889,
      "longitude": 13.70139
    },
    {
      "id": 3200605,
      "name": "Glem",
      "nativeName": "Glem",
      "code": "SI-050-3200605",
      "countryId": 3190538,
      "countryCode": "SI",
      "stateCode": "SI-050",
      "latitude": 45.48778,
      "longitude": 13.78444
    },
    {
      "id": 3199731,
      "name": "Gradin",
      "nativeName": "Gradin",
      "code": "SI-050-3199731",
      "countryId": 3190538,
      "countryCode": "SI",
      "stateCode": "SI-050",
      "latitude": 45.45667,
      "longitude": 13.84694
    },
    {
      "id": 3343505,
      "name": "Gračišče",
      "nativeName": "Gračišče",
      "code": "SI-050-3343505",
      "countryId": 3190538,
      "countryCode": "SI",
      "stateCode": "SI-050",
      "latitude": 45.505,
      "longitude": 13.87694
    },
    {
      "id": 8987782,
      "name": "Grinjan",
      "nativeName": "Grinjan",
      "code": "SI-050-8987782",
      "countryId": 3190538,
      "countryCode": "SI",
      "stateCode": "SI-050",
      "latitude": 45.51174,
      "longitude": 13.73135
    },
    {
      "id": 8987839,
      "name": "Grintovec",
      "nativeName": "Grintovec",
      "code": "SI-050-8987839",
      "countryId": 3190538,
      "countryCode": "SI",
      "stateCode": "SI-050",
      "latitude": 45.49922,
      "longitude": 13.69413
    },
    {
      "id": 3199289,
      "name": "Hrastovlje",
      "nativeName": "Hrastovlje",
      "code": "SI-050-3199289",
      "countryId": 3190538,
      "countryCode": "SI",
      "stateCode": "SI-050",
      "latitude": 45.51222,
      "longitude": 13.89972
    },
    {
      "id": 3199232,
      "name": "Hrvatini",
      "nativeName": "Hrvatini",
      "code": "SI-050-3199232",
      "countryId": 3190538,
      "countryCode": "SI",
      "stateCode": "SI-050",
      "latitude": 45.58278,
      "longitude": 13.75667
    },
    {
      "id": 8987317,
      "name": "Jelarji",
      "nativeName": "Jelarji",
      "code": "SI-050-8987317",
      "countryId": 3190538,
      "countryCode": "SI",
      "stateCode": "SI-050",
      "latitude": 45.58012,
      "longitude": 13.78646
    },
    {
      "id": 8986879,
      "name": "Kampel",
      "nativeName": "Kampel",
      "code": "SI-050-8986879",
      "countryId": 3190538,
      "countryCode": "SI",
      "stateCode": "SI-050",
      "latitude": 45.51372,
      "longitude": 13.74571
    },
    {
      "id": 8989712,
      "name": "Karli",
      "nativeName": "Karli",
      "code": "SI-050-8989712",
      "countryId": 3190538,
      "countryCode": "SI",
      "stateCode": "SI-050",
      "latitude": 45.44885,
      "longitude": 13.89839
    },
    {
      "id": 3198219,
      "name": "Kastelec",
      "nativeName": "Kastelec",
      "code": "SI-050-3198219",
      "countryId": 3190538,
      "countryCode": "SI",
      "stateCode": "SI-050",
      "latitude": 45.58111,
      "longitude": 13.87278
    },
    {
      "id": 8986910,
      "name": "Kolomban",
      "nativeName": "Kolomban",
      "code": "SI-050-8986910",
      "countryId": 3190538,
      "countryCode": "SI",
      "stateCode": "SI-050",
      "latitude": 45.59036,
      "longitude": 13.74749
    },
    {
      "id": 8988811,
      "name": "Koromači-Boškini",
      "nativeName": "Koromači-Boškini",
      "code": "SI-050-8988811",
      "countryId": 3190538,
      "countryCode": "SI",
      "stateCode": "SI-050",
      "latitude": 45.46899,
      "longitude": 13.83406
    },
    {
      "id": 8987656,
      "name": "Kortine",
      "nativeName": "Kortine",
      "code": "SI-050-8987656",
      "countryId": 3190538,
      "countryCode": "SI",
      "stateCode": "SI-050",
      "latitude": 45.54039,
      "longitude": 13.86695
    },
    {
      "id": 8988509,
      "name": "Kozloviči",
      "nativeName": "Kozloviči",
      "code": "SI-050-8988509",
      "countryId": 3190538,
      "countryCode": "SI",
      "stateCode": "SI-050",
      "latitude": 45.48801,
      "longitude": 13.82865
    },
    {
      "id": 3197596,
      "name": "Koštabona",
      "nativeName": "Koštabona",
      "code": "SI-050-3197596",
      "countryId": 3190538,
      "countryCode": "SI",
      "stateCode": "SI-050",
      "latitude": 45.48,
      "longitude": 13.73944
    },
    {
      "id": 3343524,
      "name": "Križišče",
      "nativeName": "Križišče",
      "code": "SI-050-3343524",
      "countryId": 3190538,
      "countryCode": "SI",
      "stateCode": "SI-050",
      "latitude": 45.51028,
      "longitude": 13.70611
    },
    {
      "id": 3197202,
      "name": "Krkavče",
      "nativeName": "Krkavče",
      "code": "SI-050-3197202",
      "countryId": 3190538,
      "countryCode": "SI",
      "stateCode": "SI-050",
      "latitude": 45.46278,
      "longitude": 13.69444
    },
    {
      "id": 8988103,
      "name": "Krnica",
      "nativeName": "Krnica",
      "code": "SI-050-8988103",
      "countryId": 3190538,
      "countryCode": "SI",
      "stateCode": "SI-050",
      "latitude": 45.5468,
      "longitude": 13.86164
    },
    {
      "id": 3197042,
      "name": "Kubed",
      "nativeName": "Kubed",
      "code": "SI-050-3197042",
      "countryId": 3190538,
      "countryCode": "SI",
      "stateCode": "SI-050",
      "latitude": 45.52306,
      "longitude": 13.87139
    },
    {
      "id": 3196829,
      "name": "Labor",
      "nativeName": "Labor",
      "code": "SI-050-3196829",
      "countryId": 3190538,
      "countryCode": "SI",
      "stateCode": "SI-050",
      "latitude": 45.47667,
      "longitude": 13.77222
    },
    {
      "id": 3191617,
      "name": "Lazaret",
      "nativeName": "Lazaret",
      "code": "SI-050-3191617",
      "countryId": 3190538,
      "countryCode": "SI",
      "stateCode": "SI-050",
      "latitude": 45.54778,
      "longitude": 13.76889
    },
    {
      "id": 3196275,
      "name": "Loka",
      "nativeName": "Loka",
      "code": "SI-050-3196275",
      "countryId": 3190538,
      "countryCode": "SI",
      "stateCode": "SI-050",
      "latitude": 45.53667,
      "longitude": 13.88806
    },
    {
      "id": 3196211,
      "name": "Lopar",
      "nativeName": "Lopar",
      "code": "SI-050-3196211",
      "countryId": 3190538,
      "countryCode": "SI",
      "stateCode": "SI-050",
      "latitude": 45.51,
      "longitude": 13.82611
    },
    {
      "id": 8988264,
      "name": "Lukini",
      "nativeName": "Lukini",
      "code": "SI-050-8988264",
      "countryId": 3190538,
      "countryCode": "SI",
      "stateCode": "SI-050",
      "latitude": 45.47466,
      "longitude": 13.89522
    },
    {
      "id": 3195728,
      "name": "Mali Čentur",
      "nativeName": "Mali Čentur",
      "code": "SI-050-3195728",
      "countryId": 3190538,
      "countryCode": "SI",
      "stateCode": "SI-050",
      "latitude": 45.51,
      "longitude": 13.77222
    },
    {
      "id": 3195529,
      "name": "Manžan",
      "nativeName": "Manžan",
      "code": "SI-050-3195529",
      "countryId": 3190538,
      "countryCode": "SI",
      "stateCode": "SI-050",
      "latitude": 45.50861,
      "longitude": 13.75444
    },
    {
      "id": 3195511,
      "name": "Marezige",
      "nativeName": "Marezige",
      "code": "SI-050-3195511",
      "countryId": 3190538,
      "countryCode": "SI",
      "stateCode": "SI-050",
      "latitude": 45.50972,
      "longitude": 13.80306
    },
    {
      "id": 8989071,
      "name": "Maršiči",
      "nativeName": "Maršiči",
      "code": "SI-050-8989071",
      "countryId": 3190538,
      "countryCode": "SI",
      "stateCode": "SI-050",
      "latitude": 45.4561,
      "longitude": 13.9126
    },
    {
      "id": 8988104,
      "name": "Montinjan",
      "nativeName": "Montinjan",
      "code": "SI-050-8988104",
      "countryId": 3190538,
      "countryCode": "SI",
      "stateCode": "SI-050",
      "latitude": 45.51808,
      "longitude": 13.79495
    },
    {
      "id": 3194796,
      "name": "Movraž",
      "nativeName": "Movraž",
      "code": "SI-050-3194796",
      "countryId": 3190538,
      "countryCode": "SI",
      "stateCode": "SI-050",
      "latitude": 45.47833,
      "longitude": 13.91889
    },
    {
      "id": 8989714,
      "name": "Močunigi",
      "nativeName": "Močunigi",
      "code": "SI-050-8989714",
      "countryId": 3190538,
      "countryCode": "SI",
      "stateCode": "SI-050",
      "latitude": 45.44743,
      "longitude": 13.81143
    },
    {
      "id": 8989397,
      "name": "Olika",
      "nativeName": "Olika",
      "code": "SI-050-8989397",
      "countryId": 3190538,
      "countryCode": "SI",
      "stateCode": "SI-050",
      "latitude": 45.45771,
      "longitude": 13.8921
    },
    {
      "id": 3193879,
      "name": "Osp",
      "nativeName": "Osp",
      "code": "SI-050-3193879",
      "countryId": 3190538,
      "countryCode": "SI",
      "stateCode": "SI-050",
      "latitude": 45.56833,
      "longitude": 13.86472
    },
    {
      "id": 8989430,
      "name": "Peraji",
      "nativeName": "Peraji",
      "code": "SI-050-8989430",
      "countryId": 3190538,
      "countryCode": "SI",
      "stateCode": "SI-050",
      "latitude": 45.45486,
      "longitude": 13.88325
    },
    {
      "id": 8989235,
      "name": "Pisari",
      "nativeName": "Pisari",
      "code": "SI-050-8989235",
      "countryId": 3190538,
      "countryCode": "SI",
      "stateCode": "SI-050",
      "latitude": 45.4573,
      "longitude": 13.89744
    },
    {
      "id": 3193221,
      "name": "Plavje",
      "nativeName": "Plavje",
      "code": "SI-050-3193221",
      "countryId": 3190538,
      "countryCode": "SI",
      "stateCode": "SI-050",
      "latitude": 45.57417,
      "longitude": 13.80278
    },
    {
      "id": 3343527,
      "name": "Pobegi",
      "nativeName": "Pobegi",
      "code": "SI-050-3343527",
      "countryId": 3190538,
      "countryCode": "SI",
      "stateCode": "SI-050",
      "latitude": 45.53944,
      "longitude": 13.79611
    },
    {
      "id": 3193037,
      "name": "Podgorje",
      "nativeName": "Podgorje",
      "code": "SI-050-3193037",
      "countryId": 3190538,
      "countryCode": "SI",
      "stateCode": "SI-050",
      "latitude": 45.52917,
      "longitude": 13.95278
    },
    {
      "id": 3192944,
      "name": "Podpeč",
      "nativeName": "Podpeč",
      "code": "SI-050-3192944",
      "countryId": 3190538,
      "countryCode": "SI",
      "stateCode": "SI-050",
      "latitude": 45.5225,
      "longitude": 13.90778
    },
    {
      "id": 8988066,
      "name": "Poletiči",
      "nativeName": "Poletiči",
      "code": "SI-050-8988066",
      "countryId": 3190538,
      "countryCode": "SI",
      "stateCode": "SI-050",
      "latitude": 45.49112,
      "longitude": 13.86493
    },
    {
      "id": 3192757,
      "name": "Pomjan",
      "nativeName": "Pomjan",
      "code": "SI-050-3192757",
      "countryId": 3190538,
      "countryCode": "SI",
      "stateCode": "SI-050",
      "latitude": 45.50056,
      "longitude": 13.75556
    },
    {
      "id": 3192728,
      "name": "Popetre",
      "nativeName": "Popetre",
      "code": "SI-050-3192728",
      "countryId": 3190538,
      "countryCode": "SI",
      "stateCode": "SI-050",
      "latitude": 45.49972,
      "longitude": 13.855
    },
    {
      "id": 8986863,
      "name": "Prade",
      "nativeName": "Prade",
      "code": "SI-050-8986863",
      "countryId": 3190538,
      "countryCode": "SI",
      "stateCode": "SI-050",
      "latitude": 45.54003,
      "longitude": 13.77607
    },
    {
      "id": 3192591,
      "name": "Praproče",
      "nativeName": "Praproče",
      "code": "SI-050-3192591",
      "countryId": 3190538,
      "countryCode": "SI",
      "stateCode": "SI-050",
      "latitude": 45.53139,
      "longitude": 13.91694
    },
    {
      "id": 8988155,
      "name": "Predloka",
      "nativeName": "Predloka",
      "code": "SI-050-8988155",
      "countryId": 3190538,
      "countryCode": "SI",
      "stateCode": "SI-050",
      "latitude": 45.54031,
      "longitude": 13.87846
    },
    {
      "id": 3192547,
      "name": "Pregara",
      "nativeName": "Pregara",
      "code": "SI-050-3192547",
      "countryId": 3190538,
      "countryCode": "SI",
      "stateCode": "SI-050",
      "latitude": 45.44389,
      "longitude": 13.87028
    },
    {
      "id": 8987322,
      "name": "Premančan",
      "nativeName": "Premančan",
      "code": "SI-050-8987322",
      "countryId": 3190538,
      "countryCode": "SI",
      "stateCode": "SI-050",
      "latitude": 45.58468,
      "longitude": 13.77166
    },
    {
      "id": 3192235,
      "name": "Puče",
      "nativeName": "Puče",
      "code": "SI-050-3192235",
      "countryId": 3190538,
      "countryCode": "SI",
      "stateCode": "SI-050",
      "latitude": 45.475,
      "longitude": 13.72083
    },
    {
      "id": 3192007,
      "name": "Rakitovec",
      "nativeName": "Rakitovec",
      "code": "SI-050-3192007",
      "countryId": 3190538,
      "countryCode": "SI",
      "stateCode": "SI-050",
      "latitude": 45.46917,
      "longitude": 13.97083
    },
    {
      "id": 3216063,
      "name": "Reparac",
      "nativeName": "Reparac",
      "code": "SI-050-3216063",
      "countryId": 3190538,
      "countryCode": "SI",
      "stateCode": "SI-050",
      "latitude": 45.435,
      "longitude": 13.86361
    },
    {
      "id": 3216136,
      "name": "Rižana",
      "nativeName": "Rižana",
      "code": "SI-050-3216136",
      "countryId": 3190538,
      "countryCode": "SI",
      "stateCode": "SI-050",
      "latitude": 45.54389,
      "longitude": 13.84861
    },
    {
      "id": 8988987,
      "name": "Rožar",
      "nativeName": "Rožar",
      "code": "SI-050-8988987",
      "countryId": 3190538,
      "countryCode": "SI",
      "stateCode": "SI-050",
      "latitude": 45.54693,
      "longitude": 13.8509
    },
    {
      "id": 3216102,
      "name": "Semedela",
      "nativeName": "Semedela",
      "code": "SI-050-3216102",
      "countryId": 3190538,
      "countryCode": "SI",
      "stateCode": "SI-050",
      "latitude": 45.54028,
      "longitude": 13.7225
    },
    {
      "id": 8988471,
      "name": "Sirči",
      "nativeName": "Sirči",
      "code": "SI-050-8988471",
      "countryId": 3190538,
      "countryCode": "SI",
      "stateCode": "SI-050",
      "latitude": 45.46722,
      "longitude": 13.84674
    },
    {
      "id": 3190464,
      "name": "Smokvica",
      "nativeName": "Smokvica",
      "code": "SI-050-3190464",
      "countryId": 3190538,
      "countryCode": "SI",
      "stateCode": "SI-050",
      "latitude": 45.49028,
      "longitude": 13.90083
    },
    {
      "id": 8989072,
      "name": "Socerb",
      "nativeName": "Socerb",
      "code": "SI-050-8989072",
      "countryId": 3190538,
      "countryCode": "SI",
      "stateCode": "SI-050",
      "latitude": 45.59167,
      "longitude": 13.86908
    },
    {
      "id": 8989384,
      "name": "Sokoliči",
      "nativeName": "Sokoliči",
      "code": "SI-050-8989384",
      "countryId": 3190538,
      "countryCode": "SI",
      "stateCode": "SI-050",
      "latitude": 45.46263,
      "longitude": 13.87708
    },
    {
      "id": 3190401,
      "name": "Sočerga",
      "nativeName": "Sočerga",
      "code": "SI-050-3190401",
      "countryId": 3190538,
      "countryCode": "SI",
      "stateCode": "SI-050",
      "latitude": 45.46444,
      "longitude": 13.89472
    },
    {
      "id": 3343529,
      "name": "Spodnje Škofije",
      "nativeName": "Spodnje Škofije",
      "code": "SI-050-3343529",
      "countryId": 3190538,
      "countryCode": "SI",
      "stateCode": "SI-050",
      "latitude": 45.57167,
      "longitude": 13.7925
    },
    {
      "id": 3343523,
      "name": "Srgaši",
      "nativeName": "Srgaši",
      "code": "SI-050-3343523",
      "countryId": 3190538,
      "countryCode": "SI",
      "stateCode": "SI-050",
      "latitude": 45.50917,
      "longitude": 13.69361
    },
    {
      "id": 8989182,
      "name": "Stepani",
      "nativeName": "Stepani",
      "code": "SI-050-8989182",
      "countryId": 3190538,
      "countryCode": "SI",
      "stateCode": "SI-050",
      "latitude": 45.55215,
      "longitude": 13.85483
    },
    {
      "id": 3189368,
      "name": "Sv. Anton",
      "nativeName": "Sv. Anton",
      "code": "SI-050-3189368",
      "countryId": 3190538,
      "countryCode": "SI",
      "stateCode": "SI-050",
      "latitude": 45.52583,
      "longitude": 13.83194
    },
    {
      "id": 3189107,
      "name": "Tinjan",
      "nativeName": "Tinjan",
      "code": "SI-050-3189107",
      "countryId": 3190538,
      "countryCode": "SI",
      "stateCode": "SI-050",
      "latitude": 45.56222,
      "longitude": 13.835
    },
    {
      "id": 3188976,
      "name": "Topolovec",
      "nativeName": "Topolovec",
      "code": "SI-050-3188976",
      "countryId": 3190538,
      "countryCode": "SI",
      "stateCode": "SI-050",
      "latitude": 45.46556,
      "longitude": 13.81389
    },
    {
      "id": 3188899,
      "name": "Trebeše",
      "nativeName": "Trebeše",
      "code": "SI-050-3188899",
      "countryId": 3190538,
      "countryCode": "SI",
      "stateCode": "SI-050",
      "latitude": 45.47222,
      "longitude": 13.85889
    },
    {
      "id": 8987347,
      "name": "Triban",
      "nativeName": "Triban",
      "code": "SI-050-8987347",
      "countryId": 3190538,
      "countryCode": "SI",
      "stateCode": "SI-050",
      "latitude": 45.52505,
      "longitude": 13.7578
    },
    {
      "id": 8988360,
      "name": "Trsek",
      "nativeName": "Trsek",
      "code": "SI-050-8988360",
      "countryId": 3190538,
      "countryCode": "SI",
      "stateCode": "SI-050",
      "latitude": 45.48318,
      "longitude": 13.83766
    },
    {
      "id": 3188695,
      "name": "Truške",
      "nativeName": "Truške",
      "code": "SI-050-3188695",
      "countryId": 3190538,
      "countryCode": "SI",
      "stateCode": "SI-050",
      "latitude": 45.49028,
      "longitude": 13.82222
    },
    {
      "id": 8989274,
      "name": "Tuljaki",
      "nativeName": "Tuljaki",
      "code": "SI-050-8989274",
      "countryId": 3190538,
      "countryCode": "SI",
      "stateCode": "SI-050",
      "latitude": 45.47317,
      "longitude": 13.87993
    },
    {
      "id": 3343525,
      "name": "Vanganel",
      "nativeName": "Vanganel",
      "code": "SI-050-3343525",
      "countryId": 3190538,
      "countryCode": "SI",
      "stateCode": "SI-050",
      "latitude": 45.51722,
      "longitude": 13.77583
    },
    {
      "id": 3187016,
      "name": "Zabavlje",
      "nativeName": "Zabavlje",
      "code": "SI-050-3187016",
      "countryId": 3190538,
      "countryCode": "SI",
      "stateCode": "SI-050",
      "latitude": 45.50167,
      "longitude": 13.84222
    },
    {
      "id": 8604539,
      "name": "Zanigrad",
      "nativeName": "Zanigrad",
      "code": "SI-050-8604539",
      "countryId": 3190538,
      "countryCode": "SI",
      "stateCode": "SI-050",
      "latitude": 45.51341,
      "longitude": 13.90994
    },
    {
      "id": 3186696,
      "name": "Zazid",
      "nativeName": "Zazid",
      "code": "SI-050-3186696",
      "countryId": 3190538,
      "countryCode": "SI",
      "stateCode": "SI-050",
      "latitude": 45.50194,
      "longitude": 13.93139
    },
    {
      "id": 3190718,
      "name": "Zgornje Škofije",
      "nativeName": "Zgornje Škofije",
      "code": "SI-050-3190718",
      "countryId": 3190538,
      "countryCode": "SI",
      "stateCode": "SI-050",
      "latitude": 45.56639,
      "longitude": 13.79944
    },
    {
      "id": 3188098,
      "name": "Čentur",
      "nativeName": "Čentur",
      "code": "SI-050-3188098",
      "countryId": 3190538,
      "countryCode": "SI",
      "stateCode": "SI-050",
      "latitude": 45.50583,
      "longitude": 13.77222
    },
    {
      "id": 3202633,
      "name": "Čežarji",
      "nativeName": "Čežarji",
      "code": "SI-050-3202633",
      "countryId": 3190538,
      "countryCode": "SI",
      "stateCode": "SI-050",
      "latitude": 45.53917,
      "longitude": 13.80528
    },
    {
      "id": 3202425,
      "name": "Črni Kal",
      "nativeName": "Črni Kal",
      "code": "SI-050-3202425",
      "countryId": 3190538,
      "countryCode": "SI",
      "stateCode": "SI-050",
      "latitude": 45.55,
      "longitude": 13.88
    },
    {
      "id": 3202329,
      "name": "Črnotiče",
      "nativeName": "Črnotiče",
      "code": "SI-050-3202329",
      "countryId": 3190538,
      "countryCode": "SI",
      "stateCode": "SI-050",
      "latitude": 45.555,
      "longitude": 13.89611
    },
    {
      "id": 8986900,
      "name": "Šalara",
      "nativeName": "Šalara",
      "code": "SI-050-8986900",
      "countryId": 3190538,
      "countryCode": "SI",
      "stateCode": "SI-050",
      "latitude": 45.51849,
      "longitude": 13.71757
    },
    {
      "id": 8989293,
      "name": "Šeki",
      "nativeName": "Šeki",
      "code": "SI-050-8989293",
      "countryId": 3190538,
      "countryCode": "SI",
      "stateCode": "SI-050",
      "latitude": 45.45555,
      "longitude": 13.90084
    },
    {
      "id": 3190724,
      "name": "Škocjan",
      "nativeName": "Škocjan",
      "code": "SI-050-3190724",
      "countryId": 3190538,
      "countryCode": "SI",
      "stateCode": "SI-050",
      "latitude": 45.53359,
      "longitude": 13.76363
    },
    {
      "id": 3190515,
      "name": "Šmarje",
      "nativeName": "Šmarje",
      "code": "SI-050-3190515",
      "countryId": 3190538,
      "countryCode": "SI",
      "stateCode": "SI-050",
      "latitude": 45.50139,
      "longitude": 13.71778
    },
    {
      "id": 8988579,
      "name": "Župančiči",
      "nativeName": "Župančiči",
      "code": "SI-050-8988579",
      "countryId": 3190538,
      "countryCode": "SI",
      "stateCode": "SI-050",
      "latitude": 45.48244,
      "longitude": 13.75783
    },
    {
      "id": 3216105,
      "name": "Žusterna",
      "nativeName": "Žusterna",
      "code": "SI-050-3216105",
      "countryId": 3190538,
      "countryCode": "SI",
      "stateCode": "SI-050",
      "latitude": 45.54556,
      "longitude": 13.71
    }
  ]
}