{
  "stateId": 3239096,
  "stateCode": "SI-021",
  "countryCode": "SI",
  "cities": [
    {
      "id": 3201901,
      "name": "Dobrova",
      "nativeName": "Dobrova",
      "code": "SI-021-3201901",
      "countryId": 3190538,
      "countryCode": "SI",
      "stateCode": "SI-021",
      "latitude": 46.0458,
      "longitude": 14.39186
    },
    {
      "id": 8987301,
      "name": "Babna Gora",
      "nativeName": "Babna Gora",
      "code": "SI-021-8987301",
      "countryId": 3190538,
      "countryCode": "SI",
      "stateCode": "SI-021",
      "latitude": 46.061,
      "longitude": 14.36686
    },
    {
      "id": 8988672,
      "name": "Belica",
      "nativeName": "Belica",
      "code": "SI-021-8988672",
      "countryId": 3190538,
      "countryCode": "SI",
      "stateCode": "SI-021",
      "latitude": 46.07712,
      "longitude": 14.34717
    },
    {
      "id": 3203391,
      "name": "Brezje pri Dobrovi",
      "nativeName": "Brezje pri Dobrovi",
      "code": "SI-021-3203391",
      "countryId": 3190538,
      "countryCode": "SI",
      "stateCode": "SI-021",
      "latitude": 46.02778,
      "longitude": 14.34833
    },
    {
      "id": 3203295,
      "name": "Briše pri Polhovem Gradcu",
      "nativeName": "Briše pri Polhovem Gradcu",
      "code": "SI-021-3203295",
      "countryId": 3190538,
      "countryCode": "SI",
      "stateCode": "SI-021",
      "latitude": 46.05,
      "longitude": 14.3
    },
    {
      "id": 3202952,
      "name": "Butajnova",
      "nativeName": "Butajnova",
      "code": "SI-021-3202952",
      "countryId": 3190538,
      "countryCode": "SI",
      "stateCode": "SI-021",
      "latitude": 46.05,
      "longitude": 14.25
    },
    {
      "id": 8987136,
      "name": "Dolenja Vas pri Polhovem Gradcu",
      "nativeName": "Dolenja Vas pri Polhovem Gradcu",
      "code": "SI-021-8987136",
      "countryId": 3190538,
      "countryCode": "SI",
      "stateCode": "SI-021",
      "latitude": 46.05915,
      "longitude": 14.34287
    },
    {
      "id": 8987622,
      "name": "Draževnik",
      "nativeName": "Draževnik",
      "code": "SI-021-8987622",
      "countryId": 3190538,
      "countryCode": "SI",
      "stateCode": "SI-021",
      "latitude": 46.04612,
      "longitude": 14.41887
    },
    {
      "id": 3200908,
      "name": "Dvor pri Polhovem Gradcu",
      "nativeName": "Dvor pri Polhovem Gradcu",
      "code": "SI-021-3200908",
      "countryId": 3190538,
      "countryCode": "SI",
      "stateCode": "SI-021",
      "latitude": 46.06667,
      "longitude": 14.35
    },
    {
      "id": 3200794,
      "name": "Gabrje",
      "nativeName": "Gabrje",
      "code": "SI-021-3200794",
      "countryId": 3190538,
      "countryCode": "SI",
      "stateCode": "SI-021",
      "latitude": 46.07027,
      "longitude": 14.40902
    },
    {
      "id": 3199308,
      "name": "Hrastenice",
      "nativeName": "Hrastenice",
      "code": "SI-021-3199308",
      "countryId": 3190538,
      "countryCode": "SI",
      "stateCode": "SI-021",
      "latitude": 46.07511,
      "longitude": 14.3805
    },
    {
      "id": 8986954,
      "name": "Hruševo",
      "nativeName": "Hruševo",
      "code": "SI-021-8986954",
      "countryId": 3190538,
      "countryCode": "SI",
      "stateCode": "SI-021",
      "latitude": 46.06742,
      "longitude": 14.38697
    },
    {
      "id": 8988005,
      "name": "Komanija",
      "nativeName": "Komanija",
      "code": "SI-021-8988005",
      "countryId": 3190538,
      "countryCode": "SI",
      "stateCode": "SI-021",
      "latitude": 46.04448,
      "longitude": 14.4273
    },
    {
      "id": 3217335,
      "name": "Kozjek",
      "nativeName": "Kozjek",
      "code": "SI-021-3217335",
      "countryId": 3190538,
      "countryCode": "SI",
      "stateCode": "SI-021",
      "latitude": 46.09028,
      "longitude": 14.30583
    },
    {
      "id": 8989900,
      "name": "Log pri Polhovem Gradcu",
      "nativeName": "Log pri Polhovem Gradcu",
      "code": "SI-021-8989900",
      "countryId": 3190538,
      "countryCode": "SI",
      "stateCode": "SI-021",
      "latitude": 46.07512,
      "longitude": 14.36211
    },
    {
      "id": 8988101,
      "name": "Osredek pri Dobrovi",
      "nativeName": "Osredek pri Dobrovi",
      "code": "SI-021-8988101",
      "countryId": 3190538,
      "countryCode": "SI",
      "stateCode": "SI-021",
      "latitude": 46.08646,
      "longitude": 14.37252
    },
    {
      "id": 3215436,
      "name": "Pečovje",
      "nativeName": "Pečovje",
      "code": "SI-021-3215436",
      "countryId": 3190538,
      "countryCode": "SI",
      "stateCode": "SI-021",
      "latitude": 46.07139,
      "longitude": 14.25194
    },
    {
      "id": 3193256,
      "name": "Planina nad Horjulom",
      "nativeName": "Planina nad Horjulom",
      "code": "SI-021-3193256",
      "countryId": 3190538,
      "countryCode": "SI",
      "stateCode": "SI-021",
      "latitude": 46.05,
      "longitude": 14.21667
    },
    {
      "id": 8987449,
      "name": "Podreber",
      "nativeName": "Podreber",
      "code": "SI-021-8987449",
      "countryId": 3190538,
      "countryCode": "SI",
      "stateCode": "SI-021",
      "latitude": 46.06402,
      "longitude": 14.33009
    },
    {
      "id": 3192920,
      "name": "Podsmreka",
      "nativeName": "Podsmreka",
      "code": "SI-021-3192920",
      "countryId": 3190538,
      "countryCode": "SI",
      "stateCode": "SI-021",
      "latitude": 46.03972,
      "longitude": 14.43111
    },
    {
      "id": 3192838,
      "name": "Polhov Gradec",
      "nativeName": "Polhov Gradec",
      "code": "SI-021-3192838",
      "countryId": 3190538,
      "countryCode": "SI",
      "stateCode": "SI-021",
      "latitude": 46.06694,
      "longitude": 14.31611
    },
    {
      "id": 3192590,
      "name": "Praproče",
      "nativeName": "Praproče",
      "code": "SI-021-3192590",
      "countryId": 3190538,
      "countryCode": "SI",
      "stateCode": "SI-021",
      "latitude": 46.06327,
      "longitude": 14.28832
    },
    {
      "id": 8989790,
      "name": "Pristava pri Polh. Gradcu",
      "nativeName": "Pristava pri Polh. Gradcu",
      "code": "SI-021-8989790",
      "countryId": 3190538,
      "countryCode": "SI",
      "stateCode": "SI-021",
      "latitude": 46.06779,
      "longitude": 14.31956
    },
    {
      "id": 8987751,
      "name": "Razori",
      "nativeName": "Razori",
      "code": "SI-021-8987751",
      "countryId": 3190538,
      "countryCode": "SI",
      "stateCode": "SI-021",
      "latitude": 46.05141,
      "longitude": 14.43054
    },
    {
      "id": 8988356,
      "name": "Rovt",
      "nativeName": "Rovt",
      "code": "SI-021-8988356",
      "countryId": 3190538,
      "countryCode": "SI",
      "stateCode": "SI-021",
      "latitude": 46.0773,
      "longitude": 14.2182
    },
    {
      "id": 8988690,
      "name": "Selo nad Polhovim Gradcem",
      "nativeName": "Selo nad Polhovim Gradcem",
      "code": "SI-021-8988690",
      "countryId": 3190538,
      "countryCode": "SI",
      "stateCode": "SI-021",
      "latitude": 46.09598,
      "longitude": 14.29807
    },
    {
      "id": 3190960,
      "name": "Setnica",
      "nativeName": "Setnica",
      "code": "SI-021-3190960",
      "countryId": 3190538,
      "countryCode": "SI",
      "stateCode": "SI-021",
      "latitude": 46.08333,
      "longitude": 14.33333
    },
    {
      "id": 8987289,
      "name": "Setnik",
      "nativeName": "Setnik",
      "code": "SI-021-8987289",
      "countryId": 3190538,
      "countryCode": "SI",
      "stateCode": "SI-021",
      "latitude": 46.0569,
      "longitude": 14.26647
    },
    {
      "id": 8987450,
      "name": "Smolnik",
      "nativeName": "Smolnik",
      "code": "SI-021-8987450",
      "countryId": 3190538,
      "countryCode": "SI",
      "stateCode": "SI-021",
      "latitude": 46.07759,
      "longitude": 14.28214
    },
    {
      "id": 8989770,
      "name": "Srednja Vas pri Polh. Grad.",
      "nativeName": "Srednja Vas pri Polh. Grad.",
      "code": "SI-021-8989770",
      "countryId": 3190538,
      "countryCode": "SI",
      "stateCode": "SI-021",
      "latitude": 46.05408,
      "longitude": 14.32641
    },
    {
      "id": 8987836,
      "name": "Srednji Vrh",
      "nativeName": "Srednji Vrh",
      "code": "SI-021-8987836",
      "countryId": 3190538,
      "countryCode": "SI",
      "stateCode": "SI-021",
      "latitude": 46.07246,
      "longitude": 14.24519
    },
    {
      "id": 8987096,
      "name": "Stranska Vas",
      "nativeName": "Stranska Vas",
      "code": "SI-021-8987096",
      "countryId": 3190538,
      "countryCode": "SI",
      "stateCode": "SI-021",
      "latitude": 46.06132,
      "longitude": 14.42665
    },
    {
      "id": 3215460,
      "name": "Zadel",
      "nativeName": "Zadel",
      "code": "SI-021-3215460",
      "countryId": 3190538,
      "countryCode": "SI",
      "stateCode": "SI-021",
      "latitude": 46.0625,
      "longitude": 14.37
    },
    {
      "id": 3202351,
      "name": "Črni Vrh",
      "nativeName": "Črni Vrh",
      "code": "SI-021-3202351",
      "countryId": 3190538,
      "countryCode": "SI",
      "stateCode": "SI-021",
      "latitude": 46.08333,
      "longitude": 14.26667
    },
    {
      "id": 3191031,
      "name": "Šentjošt nad Horjulom",
      "nativeName": "Šentjošt nad Horjulom",
      "code": "SI-021-3191031",
      "countryId": 3190538,
      "countryCode": "SI",
      "stateCode": "SI-021",
      "latitude": 46.03333,
      "longitude": 14.23333
    },
    {
      "id": 3189535,
      "name": "Šujica",
      "nativeName": "Šujica",
      "code": "SI-021-3189535",
      "countryId": 3190538,
      "countryCode": "SI",
      "stateCode": "SI-021",
      "latitude": 46.06667,
      "longitude": 14.41667
    }
  ]
}