{
  "stateId": 3239091,
  "stateCode": "SI-014",
  "countryCode": "SI",
  "cities": [
    {
      "id": 3218364,
      "name": "Cerkno",
      "nativeName": "Cerkno",
      "code": "SI-014-3218364",
      "countryId": 3190538,
      "countryCode": "SI",
      "stateCode": "SI-014",
      "latitude": 46.12556,
      "longitude": 13.98167
    },
    {
      "id": 3203021,
      "name": "Bukovo",
      "nativeName": "Bukovo",
      "code": "SI-014-3203021",
      "countryId": 3190538,
      "countryCode": "SI",
      "stateCode": "SI-014",
      "latitude": 46.15417,
      "longitude": 13.90333
    },
    {
      "id": 3202712,
      "name": "Cerkljanski Vrh",
      "nativeName": "Cerkljanski Vrh",
      "code": "SI-014-3202712",
      "countryId": 3190538,
      "countryCode": "SI",
      "stateCode": "SI-014",
      "latitude": 46.1,
      "longitude": 14
    },
    {
      "id": 3201821,
      "name": "Dolenji Novaki",
      "nativeName": "Dolenji Novaki",
      "code": "SI-014-3201821",
      "countryId": 3190538,
      "countryCode": "SI",
      "stateCode": "SI-014",
      "latitude": 46.15,
      "longitude": 14.03333
    },
    {
      "id": 3200349,
      "name": "Gorenji Novaki",
      "nativeName": "Gorenji Novaki",
      "code": "SI-014-3200349",
      "countryId": 3190538,
      "countryCode": "SI",
      "stateCode": "SI-014",
      "latitude": 46.14642,
      "longitude": 14.05134
    },
    {
      "id": 3200302,
      "name": "Gorje",
      "nativeName": "Gorje",
      "code": "SI-014-3200302",
      "countryId": 3190538,
      "countryCode": "SI",
      "stateCode": "SI-014",
      "latitude": 46.15528,
      "longitude": 13.98167
    },
    {
      "id": 3199224,
      "name": "Hudajužna",
      "nativeName": "Hudajužna",
      "code": "SI-014-3199224",
      "countryId": 3190538,
      "countryCode": "SI",
      "stateCode": "SI-014",
      "latitude": 46.16667,
      "longitude": 13.91667
    },
    {
      "id": 3198939,
      "name": "Jagršče",
      "nativeName": "Jagršče",
      "code": "SI-014-3198939",
      "countryId": 3190538,
      "countryCode": "SI",
      "stateCode": "SI-014",
      "latitude": 46.09056,
      "longitude": 13.945
    },
    {
      "id": 3198738,
      "name": "Jazne",
      "nativeName": "Jazne",
      "code": "SI-014-3198738",
      "countryId": 3190538,
      "countryCode": "SI",
      "stateCode": "SI-014",
      "latitude": 46.06667,
      "longitude": 14.01667
    },
    {
      "id": 3218450,
      "name": "Jereb",
      "nativeName": "Jereb",
      "code": "SI-014-3218450",
      "countryId": 3190538,
      "countryCode": "SI",
      "stateCode": "SI-014",
      "latitude": 46.07111,
      "longitude": 13.93861
    },
    {
      "id": 8987981,
      "name": "Jesenica",
      "nativeName": "Jesenica",
      "code": "SI-014-8987981",
      "countryId": 3190538,
      "countryCode": "SI",
      "stateCode": "SI-014",
      "latitude": 46.15356,
      "longitude": 13.94788
    },
    {
      "id": 3218363,
      "name": "Kojca",
      "nativeName": "Kojca",
      "code": "SI-014-3218363",
      "countryId": 3190538,
      "countryCode": "SI",
      "stateCode": "SI-014",
      "latitude": 46.14056,
      "longitude": 13.91694
    },
    {
      "id": 3196831,
      "name": "Labinje",
      "nativeName": "Labinje",
      "code": "SI-014-3196831",
      "countryId": 3190538,
      "countryCode": "SI",
      "stateCode": "SI-014",
      "latitude": 46.15,
      "longitude": 14
    },
    {
      "id": 8987662,
      "name": "Lazec",
      "nativeName": "Lazec",
      "code": "SI-014-8987662",
      "countryId": 3190538,
      "countryCode": "SI",
      "stateCode": "SI-014",
      "latitude": 46.09466,
      "longitude": 13.97603
    },
    {
      "id": 8988463,
      "name": "Laznica",
      "nativeName": "Laznica",
      "code": "SI-014-8988463",
      "countryId": 3190538,
      "countryCode": "SI",
      "stateCode": "SI-014",
      "latitude": 46.14926,
      "longitude": 13.98063
    },
    {
      "id": 3218456,
      "name": "Na Krnicah",
      "nativeName": "Na Krnicah",
      "code": "SI-014-3218456",
      "countryId": 3190538,
      "countryCode": "SI",
      "stateCode": "SI-014",
      "latitude": 46.05889,
      "longitude": 13.92417
    },
    {
      "id": 3194027,
      "name": "Orehek",
      "nativeName": "Orehek",
      "code": "SI-014-3194027",
      "countryId": 3190538,
      "countryCode": "SI",
      "stateCode": "SI-014",
      "latitude": 46.14083,
      "longitude": 13.93306
    },
    {
      "id": 3193808,
      "name": "Otalež",
      "nativeName": "Otalež",
      "code": "SI-014-3193808",
      "countryId": 3190538,
      "countryCode": "SI",
      "stateCode": "SI-014",
      "latitude": 46.08333,
      "longitude": 13.98333
    },
    {
      "id": 3193254,
      "name": "Planina pri Cerknem",
      "nativeName": "Planina pri Cerknem",
      "code": "SI-014-3193254",
      "countryId": 3190538,
      "countryCode": "SI",
      "stateCode": "SI-014",
      "latitude": 46.11667,
      "longitude": 14
    },
    {
      "id": 3193126,
      "name": "Plužnje",
      "nativeName": "Plužnje",
      "code": "SI-014-3193126",
      "countryId": 3190538,
      "countryCode": "SI",
      "stateCode": "SI-014",
      "latitude": 46.08566,
      "longitude": 13.98058
    },
    {
      "id": 3192988,
      "name": "Podlanišče",
      "nativeName": "Podlanišče",
      "code": "SI-014-3192988",
      "countryId": 3190538,
      "countryCode": "SI",
      "stateCode": "SI-014",
      "latitude": 46.11667,
      "longitude": 14.01667
    },
    {
      "id": 8989084,
      "name": "Podpleče",
      "nativeName": "Podpleče",
      "code": "SI-014-8989084",
      "countryId": 3190538,
      "countryCode": "SI",
      "stateCode": "SI-014",
      "latitude": 46.12742,
      "longitude": 14.03254
    },
    {
      "id": 3192834,
      "name": "Police",
      "nativeName": "Police",
      "code": "SI-014-3192834",
      "countryId": 3190538,
      "countryCode": "SI",
      "stateCode": "SI-014",
      "latitude": 46.12778,
      "longitude": 13.90139
    },
    {
      "id": 8989834,
      "name": "Poljane",
      "nativeName": "Poljane",
      "code": "SI-014-8989834",
      "countryId": 3190538,
      "countryCode": "SI",
      "stateCode": "SI-014",
      "latitude": 46.14822,
      "longitude": 14.01108
    },
    {
      "id": 8987936,
      "name": "Poče",
      "nativeName": "Poče",
      "code": "SI-014-8987936",
      "countryId": 3190538,
      "countryCode": "SI",
      "stateCode": "SI-014",
      "latitude": 46.16595,
      "longitude": 13.988
    },
    {
      "id": 3191836,
      "name": "Ravne pri Cerknem",
      "nativeName": "Ravne pri Cerknem",
      "code": "SI-014-3191836",
      "countryId": 3190538,
      "countryCode": "SI",
      "stateCode": "SI-014",
      "latitude": 46.12361,
      "longitude": 13.95528
    },
    {
      "id": 3191750,
      "name": "Reka",
      "nativeName": "Reka",
      "code": "SI-014-3191750",
      "countryId": 3190538,
      "countryCode": "SI",
      "stateCode": "SI-014",
      "latitude": 46.12167,
      "longitude": 13.92639
    },
    {
      "id": 3191602,
      "name": "Robidnica",
      "nativeName": "Robidnica",
      "code": "SI-014-3191602",
      "countryId": 3190538,
      "countryCode": "SI",
      "stateCode": "SI-014",
      "latitude": 46.15,
      "longitude": 14.06667
    },
    {
      "id": 8987630,
      "name": "Straža",
      "nativeName": "Straža",
      "code": "SI-014-8987630",
      "countryId": 3190538,
      "countryCode": "SI",
      "stateCode": "SI-014",
      "latitude": 46.09649,
      "longitude": 13.95536
    },
    {
      "id": 8988230,
      "name": "Travnik",
      "nativeName": "Travnik",
      "code": "SI-014-8988230",
      "countryId": 3190538,
      "countryCode": "SI",
      "stateCode": "SI-014",
      "latitude": 46.06913,
      "longitude": 13.99667
    },
    {
      "id": 8987864,
      "name": "Trebenče",
      "nativeName": "Trebenče",
      "code": "SI-014-8987864",
      "countryId": 3190538,
      "countryCode": "SI",
      "stateCode": "SI-014",
      "latitude": 46.14334,
      "longitude": 13.98771
    },
    {
      "id": 3186855,
      "name": "Zakojca",
      "nativeName": "Zakojca",
      "code": "SI-014-3186855",
      "countryId": 3190538,
      "countryCode": "SI",
      "stateCode": "SI-014",
      "latitude": 46.16472,
      "longitude": 13.93278
    },
    {
      "id": 3186849,
      "name": "Zakriž",
      "nativeName": "Zakriž",
      "code": "SI-014-3186849",
      "countryId": 3190538,
      "countryCode": "SI",
      "stateCode": "SI-014",
      "latitude": 46.13667,
      "longitude": 13.97278
    },
    {
      "id": 8988196,
      "name": "Čeplez",
      "nativeName": "Čeplez",
      "code": "SI-014-8988196",
      "countryId": 3190538,
      "countryCode": "SI",
      "stateCode": "SI-014",
      "latitude": 46.13219,
      "longitude": 14.01364
    },
    {
      "id": 3191189,
      "name": "Šebrelje",
      "nativeName": "Šebrelje",
      "code": "SI-014-3191189",
      "countryId": 3190538,
      "countryCode": "SI",
      "stateCode": "SI-014",
      "latitude": 46.09889,
      "longitude": 13.91944
    }
  ]
}