{
  "stateId": 3199522,
  "stateCode": "SI-032",
  "countryCode": "SI",
  "cities": [
    {
      "id": 3199523,
      "name": "Grosuplje",
      "nativeName": "Grosuplje",
      "code": "SI-032-3199523",
      "countryId": 3190538,
      "countryCode": "SI",
      "stateCode": "SI-032",
      "latitude": 45.95556,
      "longitude": 14.65889
    },
    {
      "id": 3204231,
      "name": "Bičje",
      "nativeName": "Bičje",
      "code": "SI-032-3204231",
      "countryId": 3190538,
      "countryCode": "SI",
      "stateCode": "SI-032",
      "latitude": 45.94762,
      "longitude": 14.60853
    },
    {
      "id": 3203926,
      "name": "Blečji Vrh",
      "nativeName": "Blečji Vrh",
      "code": "SI-032-3203926",
      "countryId": 3190538,
      "countryCode": "SI",
      "stateCode": "SI-032",
      "latitude": 45.98875,
      "longitude": 14.7248
    },
    {
      "id": 3203390,
      "name": "Brezje pri Grosupljem",
      "nativeName": "Brezje pri Grosupljem",
      "code": "SI-032-3203390",
      "countryId": 3190538,
      "countryCode": "SI",
      "stateCode": "SI-032",
      "latitude": 45.95028,
      "longitude": 14.64222
    },
    {
      "id": 8987562,
      "name": "Brvace",
      "nativeName": "Brvace",
      "code": "SI-032-8987562",
      "countryId": 3190538,
      "countryCode": "SI",
      "stateCode": "SI-032",
      "latitude": 45.965,
      "longitude": 14.64548
    },
    {
      "id": 8988869,
      "name": "Cerovo",
      "nativeName": "Cerovo",
      "code": "SI-032-8988869",
      "countryId": 3190538,
      "countryCode": "SI",
      "stateCode": "SI-032",
      "latitude": 45.92117,
      "longitude": 14.64244
    },
    {
      "id": 8987126,
      "name": "Cikava",
      "nativeName": "Cikava",
      "code": "SI-032-8987126",
      "countryId": 3190538,
      "countryCode": "SI",
      "stateCode": "SI-032",
      "latitude": 45.96747,
      "longitude": 14.63348
    },
    {
      "id": 3218682,
      "name": "Dobje",
      "nativeName": "Dobje",
      "code": "SI-032-3218682",
      "countryId": 3190538,
      "countryCode": "SI",
      "stateCode": "SI-032",
      "latitude": 45.98306,
      "longitude": 14.66639
    },
    {
      "id": 8989528,
      "name": "Dolenja vas pri Polici",
      "nativeName": "Dolenja Vas pri Polici",
      "code": "SI-032-8989528",
      "countryId": 3190538,
      "countryCode": "SI",
      "stateCode": "SI-032",
      "latitude": 45.99402,
      "longitude": 14.68996
    },
    {
      "id": 8989253,
      "name": "Gabrje pri Ilovi Gori",
      "nativeName": "Gabrje pri Ilovi Gori",
      "code": "SI-032-8989253",
      "countryId": 3190538,
      "countryCode": "SI",
      "stateCode": "SI-032",
      "latitude": 45.89632,
      "longitude": 14.72185
    },
    {
      "id": 8988576,
      "name": "Gajniče",
      "nativeName": "Gajniče",
      "code": "SI-032-8988576",
      "countryId": 3190538,
      "countryCode": "SI",
      "stateCode": "SI-032",
      "latitude": 45.9717,
      "longitude": 14.5959
    },
    {
      "id": 3200693,
      "name": "Gatina",
      "nativeName": "Gatina",
      "code": "SI-032-3200693",
      "countryId": 3190538,
      "countryCode": "SI",
      "stateCode": "SI-032",
      "latitude": 45.94611,
      "longitude": 14.68056
    },
    {
      "id": 8988339,
      "name": "Gorenja vas pri Polici",
      "nativeName": "Gorenja Vas pri Polici",
      "code": "SI-032-8988339",
      "countryId": 3190538,
      "countryCode": "SI",
      "stateCode": "SI-032",
      "latitude": 46.00358,
      "longitude": 14.68776
    },
    {
      "id": 8988595,
      "name": "Gornji Rogatec",
      "nativeName": "Gornji Rogatec",
      "code": "SI-032-8988595",
      "countryId": 3190538,
      "countryCode": "SI",
      "stateCode": "SI-032",
      "latitude": 45.91669,
      "longitude": 14.60142
    },
    {
      "id": 8988577,
      "name": "Gradišče",
      "nativeName": "Gradišče",
      "code": "SI-032-8988577",
      "countryId": 3190538,
      "countryCode": "SI",
      "stateCode": "SI-032",
      "latitude": 45.98259,
      "longitude": 14.69111
    },
    {
      "id": 8989795,
      "name": "Hrastje pri Grosupljem",
      "nativeName": "Hrastje pri Grosupljem",
      "code": "SI-032-8989795",
      "countryId": 3190538,
      "countryCode": "SI",
      "stateCode": "SI-032",
      "latitude": 45.971,
      "longitude": 14.64383
    },
    {
      "id": 8988966,
      "name": "Huda Polica",
      "nativeName": "Huda Polica",
      "code": "SI-032-8988966",
      "countryId": 3190538,
      "countryCode": "SI",
      "stateCode": "SI-032",
      "latitude": 45.96239,
      "longitude": 14.60196
    },
    {
      "id": 8988893,
      "name": "Kožljevec",
      "nativeName": "Kožljevec",
      "code": "SI-032-8988893",
      "countryId": 3190538,
      "countryCode": "SI",
      "stateCode": "SI-032",
      "latitude": 45.99691,
      "longitude": 14.71875
    },
    {
      "id": 8987503,
      "name": "Lobček",
      "nativeName": "Lobček",
      "code": "SI-032-8987503",
      "countryId": 3190538,
      "countryCode": "SI",
      "stateCode": "SI-032",
      "latitude": 45.93581,
      "longitude": 14.68875
    },
    {
      "id": 3196134,
      "name": "Luče",
      "nativeName": "Luče",
      "code": "SI-032-3196134",
      "countryId": 3190538,
      "countryCode": "SI",
      "stateCode": "SI-032",
      "latitude": 45.91889,
      "longitude": 14.73167
    },
    {
      "id": 3195843,
      "name": "Mala Ilova Gora",
      "nativeName": "Mala Ilova Gora",
      "code": "SI-032-3195843",
      "countryId": 3190538,
      "countryCode": "SI",
      "stateCode": "SI-032",
      "latitude": 45.88667,
      "longitude": 14.73417
    },
    {
      "id": 3195829,
      "name": "Mala Loka pri Višnji Gori",
      "nativeName": "Mala Loka pri Višnji Gori",
      "code": "SI-032-3195829",
      "countryId": 3190538,
      "countryCode": "SI",
      "stateCode": "SI-032",
      "latitude": 45.94611,
      "longitude": 14.72472
    },
    {
      "id": 3195803,
      "name": "Mala Račna",
      "nativeName": "Mala Račna",
      "code": "SI-032-3195803",
      "countryId": 3190538,
      "countryCode": "SI",
      "stateCode": "SI-032",
      "latitude": 45.89861,
      "longitude": 14.69583
    },
    {
      "id": 3195790,
      "name": "Mala Stara Vas",
      "nativeName": "Mala Stara Vas",
      "code": "SI-032-3195790",
      "countryId": 3190538,
      "countryCode": "SI",
      "stateCode": "SI-032",
      "latitude": 45.97507,
      "longitude": 14.67179
    },
    {
      "id": 3192905,
      "name": "Mala vas pri Grosupljem",
      "nativeName": "Mala Vas pri Grosupljem",
      "code": "SI-032-3192905",
      "countryId": 3190538,
      "countryCode": "SI",
      "stateCode": "SI-032",
      "latitude": 45.9325,
      "longitude": 14.6275
    },
    {
      "id": 3195762,
      "name": "Male Lipljene",
      "nativeName": "Male Lipljene",
      "code": "SI-032-3195762",
      "countryId": 3190538,
      "countryCode": "SI",
      "stateCode": "SI-032",
      "latitude": 45.89056,
      "longitude": 14.63722
    },
    {
      "id": 8988804,
      "name": "Mali Konec",
      "nativeName": "Mali Konec",
      "code": "SI-032-8988804",
      "countryId": 3190538,
      "countryCode": "SI",
      "stateCode": "SI-032",
      "latitude": 46.00774,
      "longitude": 14.70322
    },
    {
      "id": 3195598,
      "name": "Mali Vrh pri Šmarju",
      "nativeName": "Mali Vrh pri Šmarju",
      "code": "SI-032-3195598",
      "countryId": 3190538,
      "countryCode": "SI",
      "stateCode": "SI-032",
      "latitude": 45.98333,
      "longitude": 14.5975
    },
    {
      "id": 3195576,
      "name": "Malo Mlačevo",
      "nativeName": "Malo Mlačevo",
      "code": "SI-032-3195576",
      "countryId": 3190538,
      "countryCode": "SI",
      "stateCode": "SI-032",
      "latitude": 45.93076,
      "longitude": 14.66717
    },
    {
      "id": 8988340,
      "name": "Medvedica",
      "nativeName": "Medvedica",
      "code": "SI-032-8988340",
      "countryId": 3190538,
      "countryCode": "SI",
      "stateCode": "SI-032",
      "latitude": 45.90705,
      "longitude": 14.61848
    },
    {
      "id": 3193636,
      "name": "Paradišče",
      "nativeName": "Paradišče",
      "code": "SI-032-3193636",
      "countryId": 3190538,
      "countryCode": "SI",
      "stateCode": "SI-032",
      "latitude": 45.97833,
      "longitude": 14.62917
    },
    {
      "id": 8987926,
      "name": "Pece",
      "nativeName": "Pece",
      "code": "SI-032-8987926",
      "countryId": 3190538,
      "countryCode": "SI",
      "stateCode": "SI-032",
      "latitude": 45.94345,
      "longitude": 14.62211
    },
    {
      "id": 3218684,
      "name": "Perovo",
      "nativeName": "Perovo",
      "code": "SI-032-3218684",
      "countryId": 3190538,
      "countryCode": "SI",
      "stateCode": "SI-032",
      "latitude": 45.96722,
      "longitude": 14.6775
    },
    {
      "id": 3193556,
      "name": "Peč",
      "nativeName": "Peč",
      "code": "SI-032-3193556",
      "countryId": 3190538,
      "countryCode": "SI",
      "stateCode": "SI-032",
      "latitude": 45.96667,
      "longitude": 14.7
    },
    {
      "id": 8987424,
      "name": "Plešivica pri Žalni",
      "nativeName": "Plešivica pri Žalni",
      "code": "SI-032-8987424",
      "countryId": 3190538,
      "countryCode": "SI",
      "stateCode": "SI-032",
      "latitude": 45.92111,
      "longitude": 14.7087
    },
    {
      "id": 8988506,
      "name": "Podgorica pri Podtaboru",
      "nativeName": "Podgorica pri Podtaboru",
      "code": "SI-032-8988506",
      "countryId": 3190538,
      "countryCode": "SI",
      "stateCode": "SI-032",
      "latitude": 45.93408,
      "longitude": 14.61633
    },
    {
      "id": 8987927,
      "name": "Podgorica pri Šmarju",
      "nativeName": "Podgorica pri Šmarju",
      "code": "SI-032-8987927",
      "countryId": 3190538,
      "countryCode": "SI",
      "stateCode": "SI-032",
      "latitude": 45.98338,
      "longitude": 14.6234
    },
    {
      "id": 3192837,
      "name": "Polica",
      "nativeName": "Polica",
      "code": "SI-032-3192837",
      "countryId": 3190538,
      "countryCode": "SI",
      "stateCode": "SI-032",
      "latitude": 45.98197,
      "longitude": 14.70498
    },
    {
      "id": 3218730,
      "name": "Ponova vas",
      "nativeName": "Ponova Vas",
      "code": "SI-032-3218730",
      "countryId": 3190538,
      "countryCode": "SI",
      "stateCode": "SI-032",
      "latitude": 45.93833,
      "longitude": 14.63278
    },
    {
      "id": 8989572,
      "name": "Praproče pri Grosupljem",
      "nativeName": "Praproče pri Grosupljem",
      "code": "SI-032-8989572",
      "countryId": 3190538,
      "countryCode": "SI",
      "stateCode": "SI-032",
      "latitude": 45.94919,
      "longitude": 14.67109
    },
    {
      "id": 3192553,
      "name": "Predole",
      "nativeName": "Predole",
      "code": "SI-032-3192553",
      "countryId": 3190538,
      "countryCode": "SI",
      "stateCode": "SI-032",
      "latitude": 45.90399,
      "longitude": 14.67049
    },
    {
      "id": 3191730,
      "name": "Repče",
      "nativeName": "Repče",
      "code": "SI-032-3191730",
      "countryId": 3190538,
      "countryCode": "SI",
      "stateCode": "SI-032",
      "latitude": 45.98583,
      "longitude": 14.63083
    },
    {
      "id": 3191493,
      "name": "Rožnik",
      "nativeName": "Rožnik",
      "code": "SI-032-3191493",
      "countryId": 3190538,
      "countryCode": "SI",
      "stateCode": "SI-032",
      "latitude": 45.89889,
      "longitude": 14.65201
    },
    {
      "id": 3191294,
      "name": "Sap",
      "nativeName": "Sap",
      "code": "SI-032-3191294",
      "countryId": 3190538,
      "countryCode": "SI",
      "stateCode": "SI-032",
      "latitude": 45.97333,
      "longitude": 14.62111
    },
    {
      "id": 3191138,
      "name": "Sela pri Šmarju",
      "nativeName": "Sela pri Šmarju",
      "code": "SI-032-3191138",
      "countryId": 3190538,
      "countryCode": "SI",
      "stateCode": "SI-032",
      "latitude": 45.95891,
      "longitude": 14.62199
    },
    {
      "id": 3190234,
      "name": "Spodnja Slivnica",
      "nativeName": "Spodnja Slivnica",
      "code": "SI-032-3190234",
      "countryId": 3190538,
      "countryCode": "SI",
      "stateCode": "SI-032",
      "latitude": 45.92442,
      "longitude": 14.6575
    },
    {
      "id": 8987386,
      "name": "Spodnje Blato",
      "nativeName": "Spodnje Blato",
      "code": "SI-032-8987386",
      "countryId": 3190538,
      "countryCode": "SI",
      "stateCode": "SI-032",
      "latitude": 45.95611,
      "longitude": 14.68835
    },
    {
      "id": 8989882,
      "name": "Spodnje Duplice",
      "nativeName": "Spodnje Duplice",
      "code": "SI-032-8989882",
      "countryId": 3190538,
      "countryCode": "SI",
      "stateCode": "SI-032",
      "latitude": 45.96259,
      "longitude": 14.68729
    },
    {
      "id": 8987184,
      "name": "Tlake",
      "nativeName": "Tlake",
      "code": "SI-032-8987184",
      "countryId": 3190538,
      "countryCode": "SI",
      "stateCode": "SI-032",
      "latitude": 45.98062,
      "longitude": 14.59156
    },
    {
      "id": 3188746,
      "name": "Troščine",
      "nativeName": "Troščine",
      "code": "SI-032-3188746",
      "countryId": 3190538,
      "countryCode": "SI",
      "stateCode": "SI-032",
      "latitude": 45.99833,
      "longitude": 14.70917
    },
    {
      "id": 3188550,
      "name": "Udje",
      "nativeName": "Udje",
      "code": "SI-032-3188550",
      "countryId": 3190538,
      "countryCode": "SI",
      "stateCode": "SI-032",
      "latitude": 45.92639,
      "longitude": 14.60528
    },
    {
      "id": 3188233,
      "name": "Velika Ilova Gora",
      "nativeName": "Velika Ilova Gora",
      "code": "SI-032-3188233",
      "countryId": 3190538,
      "countryCode": "SI",
      "stateCode": "SI-032",
      "latitude": 45.89972,
      "longitude": 14.73583
    },
    {
      "id": 3188210,
      "name": "Velika Loka",
      "nativeName": "Velika Loka",
      "code": "SI-032-3188210",
      "countryId": 3190538,
      "countryCode": "SI",
      "stateCode": "SI-032",
      "latitude": 45.93833,
      "longitude": 14.72333
    },
    {
      "id": 3188177,
      "name": "Velika Račna",
      "nativeName": "Velika Račna",
      "code": "SI-032-3188177",
      "countryId": 3190538,
      "countryCode": "SI",
      "stateCode": "SI-032",
      "latitude": 45.90417,
      "longitude": 14.68944
    },
    {
      "id": 3188161,
      "name": "Velika Stara vas",
      "nativeName": "Velika Stara Vas",
      "code": "SI-032-3188161",
      "countryId": 3190538,
      "countryCode": "SI",
      "stateCode": "SI-032",
      "latitude": 45.97917,
      "longitude": 14.67472
    },
    {
      "id": 3188126,
      "name": "Velike Lipljene",
      "nativeName": "Velike Lipljene",
      "code": "SI-032-3188126",
      "countryId": 3190538,
      "countryCode": "SI",
      "stateCode": "SI-032",
      "latitude": 45.9057,
      "longitude": 14.64041
    },
    {
      "id": 3187959,
      "name": "Veliki Vrh pri Šmarju",
      "nativeName": "Veliki Vrh pri Šmarju",
      "code": "SI-032-3187959",
      "countryId": 3190538,
      "countryCode": "SI",
      "stateCode": "SI-032",
      "latitude": 45.98083,
      "longitude": 14.60389
    },
    {
      "id": 3187935,
      "name": "Veliko Mlačevo",
      "nativeName": "Veliko Mlačevo",
      "code": "SI-032-3187935",
      "countryId": 3190538,
      "countryCode": "SI",
      "stateCode": "SI-032",
      "latitude": 45.93694,
      "longitude": 14.68167
    },
    {
      "id": 8987432,
      "name": "Vino",
      "nativeName": "Vino",
      "code": "SI-032-8987432",
      "countryId": 3190538,
      "countryCode": "SI",
      "stateCode": "SI-032",
      "latitude": 45.93953,
      "longitude": 14.5992
    },
    {
      "id": 8989832,
      "name": "Vrbičje",
      "nativeName": "Vrbičje",
      "code": "SI-032-8989832",
      "countryId": 3190538,
      "countryCode": "SI",
      "stateCode": "SI-032",
      "latitude": 45.9199,
      "longitude": 14.61758
    },
    {
      "id": 8987282,
      "name": "Zagradec pri Grosupljem",
      "nativeName": "Zagradec pri Grosupljem",
      "code": "SI-032-8987282",
      "countryId": 3190538,
      "countryCode": "SI",
      "stateCode": "SI-032",
      "latitude": 45.92194,
      "longitude": 14.68805
    },
    {
      "id": 8987780,
      "name": "Zgornja Slivnica",
      "nativeName": "Zgornja Slivnica",
      "code": "SI-032-8987780",
      "countryId": 3190538,
      "countryCode": "SI",
      "stateCode": "SI-032",
      "latitude": 45.98406,
      "longitude": 14.64226
    },
    {
      "id": 8988805,
      "name": "Zgornje Duplice",
      "nativeName": "Zgornje Duplice",
      "code": "SI-032-8988805",
      "countryId": 3190538,
      "countryCode": "SI",
      "stateCode": "SI-032",
      "latitude": 45.96946,
      "longitude": 14.6837
    },
    {
      "id": 8987202,
      "name": "Čušperk",
      "nativeName": "Čušperk",
      "code": "SI-032-8987202",
      "countryId": 3190538,
      "countryCode": "SI",
      "stateCode": "SI-032",
      "latitude": 45.88772,
      "longitude": 14.69942
    },
    {
      "id": 3189934,
      "name": "Škocjan",
      "nativeName": "Škocjan",
      "code": "SI-032-3189934",
      "countryId": 3190538,
      "countryCode": "SI",
      "stateCode": "SI-032",
      "latitude": 45.88481,
      "longitude": 14.63139
    },
    {
      "id": 3190512,
      "name": "Šmarje-Sap",
      "nativeName": "Šmarje-Sap",
      "code": "SI-032-3190512",
      "countryId": 3190538,
      "countryCode": "SI",
      "stateCode": "SI-032",
      "latitude": 45.97618,
      "longitude": 14.61177
    },
    {
      "id": 8986986,
      "name": "Št. Jurij",
      "nativeName": "Št. Jurij",
      "code": "SI-032-8986986",
      "countryId": 3190538,
      "countryCode": "SI",
      "stateCode": "SI-032",
      "latitude": 45.92378,
      "longitude": 14.62399
    },
    {
      "id": 3186833,
      "name": "Žalna",
      "nativeName": "Žalna",
      "code": "SI-032-3186833",
      "countryId": 3190538,
      "countryCode": "SI",
      "stateCode": "SI-032",
      "latitude": 45.94,
      "longitude": 14.70722
    },
    {
      "id": 8988894,
      "name": "Železnica",
      "nativeName": "Železnica",
      "code": "SI-032-8988894",
      "countryId": 3190538,
      "countryCode": "SI",
      "stateCode": "SI-032",
      "latitude": 45.89377,
      "longitude": 14.63315
    }
  ]
}