{
  "stateId": 3194647,
  "stateCode": "SI-080",
  "countryCode": "SI",
  "cities": [
    {
      "id": 3194648,
      "name": "Murska Sobota",
      "nativeName": "Murska Sobota",
      "code": "SI-080-3194648",
      "countryId": 3190538,
      "countryCode": "SI",
      "stateCode": "SI-080",
      "latitude": 46.6625,
      "longitude": 16.16639
    },
    {
      "id": 3204598,
      "name": "Bakovci",
      "nativeName": "Bakovci",
      "code": "SI-080-3204598",
      "countryId": 3190538,
      "countryCode": "SI",
      "stateCode": "SI-080",
      "latitude": 46.61889,
      "longitude": 16.15028
    },
    {
      "id": 3197164,
      "name": "Krog",
      "nativeName": "Krog",
      "code": "SI-080-3197164",
      "countryId": 3190538,
      "countryCode": "SI",
      "stateCode": "SI-080",
      "latitude": 46.63806,
      "longitude": 16.14139
    },
    {
      "id": 3196911,
      "name": "Kupšinci",
      "nativeName": "Kupšinci",
      "code": "SI-080-3196911",
      "countryId": 3190538,
      "countryCode": "SI",
      "stateCode": "SI-080",
      "latitude": 46.67361,
      "longitude": 16.11972
    },
    {
      "id": 3195468,
      "name": "Markišavci",
      "nativeName": "Markišavci",
      "code": "SI-080-3195468",
      "countryId": 3190538,
      "countryCode": "SI",
      "stateCode": "SI-080",
      "latitude": 46.68417,
      "longitude": 16.16861
    },
    {
      "id": 3194546,
      "name": "Nemčavci",
      "nativeName": "Nemčavci",
      "code": "SI-080-3194546",
      "countryId": 3190538,
      "countryCode": "SI",
      "stateCode": "SI-080",
      "latitude": 46.68028,
      "longitude": 16.17806
    },
    {
      "id": 3192844,
      "name": "Polana",
      "nativeName": "Polana",
      "code": "SI-080-3192844",
      "countryId": 3190538,
      "countryCode": "SI",
      "stateCode": "SI-080",
      "latitude": 46.68417,
      "longitude": 16.14139
    },
    {
      "id": 8986903,
      "name": "Pušča",
      "nativeName": "Pušča",
      "code": "SI-080-8986903",
      "countryId": 3190538,
      "countryCode": "SI",
      "stateCode": "SI-080",
      "latitude": 46.65573,
      "longitude": 16.13903
    },
    {
      "id": 3192019,
      "name": "Rakičan",
      "nativeName": "Rakičan",
      "code": "SI-080-3192019",
      "countryId": 3190538,
      "countryCode": "SI",
      "stateCode": "SI-080",
      "latitude": 46.65167,
      "longitude": 16.20417
    },
    {
      "id": 3187838,
      "name": "Veščica",
      "nativeName": "Veščica",
      "code": "SI-080-3187838",
      "countryId": 3190538,
      "countryCode": "SI",
      "stateCode": "SI-080",
      "latitude": 46.66667,
      "longitude": 16.13333
    },
    {
      "id": 3202700,
      "name": "Černelavci",
      "nativeName": "Černelavci",
      "code": "SI-080-3202700",
      "countryId": 3190538,
      "countryCode": "SI",
      "stateCode": "SI-080",
      "latitude": 46.66667,
      "longitude": 16.13333
    },
    {
      "id": 3215407,
      "name": "Črnelavci",
      "nativeName": "Črnelavci",
      "code": "SI-080-3215407",
      "countryId": 3190538,
      "countryCode": "SI",
      "stateCode": "SI-080",
      "latitude": 46.67083,
      "longitude": 16.13972
    }
  ]
}