{
  "stateId": 3239083,
  "stateCode": "SI-007",
  "countryCode": "SI",
  "cities": [
    {
      "id": 3201896,
      "name": "Dobrovo",
      "nativeName": "Dobrovo",
      "code": "SI-007-3201896",
      "countryId": 3190538,
      "countryCode": "SI",
      "stateCode": "SI-007",
      "latitude": 45.99639,
      "longitude": 13.52639
    },
    {
      "id": 8988247,
      "name": "Barbana",
      "nativeName": "Barbana",
      "code": "SI-007-8988247",
      "countryId": 3190538,
      "countryCode": "SI",
      "stateCode": "SI-007",
      "latitude": 45.99512,
      "longitude": 13.49346
    },
    {
      "id": 8989288,
      "name": "Belo",
      "nativeName": "Belo",
      "code": "SI-007-8989288",
      "countryId": 3190538,
      "countryCode": "SI",
      "stateCode": "SI-007",
      "latitude": 46.03323,
      "longitude": 13.52566
    },
    {
      "id": 8987431,
      "name": "Biljana",
      "nativeName": "Biljana",
      "code": "SI-007-8987431",
      "countryId": 3190538,
      "countryCode": "SI",
      "stateCode": "SI-007",
      "latitude": 45.99361,
      "longitude": 13.53557
    },
    {
      "id": 8989068,
      "name": "Brdice pri Kožbani",
      "nativeName": "Brdice pri Kožbani",
      "code": "SI-007-8989068",
      "countryId": 3190538,
      "countryCode": "SI",
      "stateCode": "SI-007",
      "latitude": 46.04796,
      "longitude": 13.53522
    },
    {
      "id": 8988503,
      "name": "Brdice pri Neblem",
      "nativeName": "Brdice pri Neblem",
      "code": "SI-007-8988503",
      "countryId": 3190538,
      "countryCode": "SI",
      "stateCode": "SI-007",
      "latitude": 46.00709,
      "longitude": 13.50796
    },
    {
      "id": 8988865,
      "name": "Breg pri Golem Brdu",
      "nativeName": "Breg pri Golem Brdu",
      "code": "SI-007-8988865",
      "countryId": 3190538,
      "countryCode": "SI",
      "stateCode": "SI-007",
      "latitude": 46.05205,
      "longitude": 13.50788
    },
    {
      "id": 8988671,
      "name": "Brestje",
      "nativeName": "Brestje",
      "code": "SI-007-8988671",
      "countryId": 3190538,
      "countryCode": "SI",
      "stateCode": "SI-007",
      "latitude": 46.01116,
      "longitude": 13.58893
    },
    {
      "id": 8989343,
      "name": "Brezovk",
      "nativeName": "Brezovk",
      "code": "SI-007-8989343",
      "countryId": 3190538,
      "countryCode": "SI",
      "stateCode": "SI-007",
      "latitude": 46.05265,
      "longitude": 13.54785
    },
    {
      "id": 8990205,
      "name": "Ceglo",
      "nativeName": "Ceglo",
      "code": "SI-007-8990205",
      "countryId": 3190538,
      "countryCode": "SI",
      "stateCode": "SI-007",
      "latitude": 45.97717,
      "longitude": 13.52261
    },
    {
      "id": 3201776,
      "name": "Dolnje Cerovo",
      "nativeName": "Dolnje Cerovo",
      "code": "SI-007-3201776",
      "countryId": 3190538,
      "countryCode": "SI",
      "stateCode": "SI-007",
      "latitude": 45.97889,
      "longitude": 13.55306
    },
    {
      "id": 8987516,
      "name": "Drnovk",
      "nativeName": "Drnovk",
      "code": "SI-007-8987516",
      "countryId": 3190538,
      "countryCode": "SI",
      "stateCode": "SI-007",
      "latitude": 46.00567,
      "longitude": 13.52442
    },
    {
      "id": 3200833,
      "name": "Fojana",
      "nativeName": "Fojana",
      "code": "SI-007-3200833",
      "countryId": 3190538,
      "countryCode": "SI",
      "stateCode": "SI-007",
      "latitude": 45.99639,
      "longitude": 13.50083
    },
    {
      "id": 8988939,
      "name": "Golo Brdo",
      "nativeName": "Golo Brdo",
      "code": "SI-007-8988939",
      "countryId": 3190538,
      "countryCode": "SI",
      "stateCode": "SI-007",
      "latitude": 46.05773,
      "longitude": 13.50568
    },
    {
      "id": 8987330,
      "name": "Gonjače",
      "nativeName": "Gonjače",
      "code": "SI-007-8987330",
      "countryId": 3190538,
      "countryCode": "SI",
      "stateCode": "SI-007",
      "latitude": 46.01073,
      "longitude": 13.56469
    },
    {
      "id": 3200141,
      "name": "Gornje Cerovo",
      "nativeName": "Gornje Cerovo",
      "code": "SI-007-3200141",
      "countryId": 3190538,
      "countryCode": "SI",
      "stateCode": "SI-007",
      "latitude": 45.98278,
      "longitude": 13.56333
    },
    {
      "id": 8988418,
      "name": "Gradno",
      "nativeName": "Gradno",
      "code": "SI-007-8988418",
      "countryId": 3190538,
      "countryCode": "SI",
      "stateCode": "SI-007",
      "latitude": 46.0203,
      "longitude": 13.52466
    },
    {
      "id": 8988748,
      "name": "Hlevnik",
      "nativeName": "Hlevnik",
      "code": "SI-007-8988748",
      "countryId": 3190538,
      "countryCode": "SI",
      "stateCode": "SI-007",
      "latitude": 46.0287,
      "longitude": 13.51136
    },
    {
      "id": 8987602,
      "name": "Hruševlje",
      "nativeName": "Hruševlje",
      "code": "SI-007-8987602",
      "countryId": 3190538,
      "countryCode": "SI",
      "stateCode": "SI-007",
      "latitude": 46.01799,
      "longitude": 13.50456
    },
    {
      "id": 3216499,
      "name": "Hum",
      "nativeName": "Hum",
      "code": "SI-007-3216499",
      "countryId": 3190538,
      "countryCode": "SI",
      "stateCode": "SI-007",
      "latitude": 45.99306,
      "longitude": 13.5825
    },
    {
      "id": 8987620,
      "name": "Imenje",
      "nativeName": "Imenje",
      "code": "SI-007-8987620",
      "countryId": 3190538,
      "countryCode": "SI",
      "stateCode": "SI-007",
      "latitude": 46.01091,
      "longitude": 13.55188
    },
    {
      "id": 3197924,
      "name": "Kojsko",
      "nativeName": "Kojsko",
      "code": "SI-007-3197924",
      "countryId": 3190538,
      "countryCode": "SI",
      "stateCode": "SI-007",
      "latitude": 46.00917,
      "longitude": 13.57972
    },
    {
      "id": 3197494,
      "name": "Kozana",
      "nativeName": "Kozana",
      "code": "SI-007-3197494",
      "countryId": 3190538,
      "countryCode": "SI",
      "stateCode": "SI-007",
      "latitude": 45.99278,
      "longitude": 13.55028
    },
    {
      "id": 8988592,
      "name": "Kozarno",
      "nativeName": "Kozarno",
      "code": "SI-007-8988592",
      "countryId": 3190538,
      "countryCode": "SI",
      "stateCode": "SI-007",
      "latitude": 46.008,
      "longitude": 13.52033
    },
    {
      "id": 3197473,
      "name": "Kožbana",
      "nativeName": "Kožbana",
      "code": "SI-007-3197473",
      "countryId": 3190538,
      "countryCode": "SI",
      "stateCode": "SI-007",
      "latitude": 46.04333,
      "longitude": 13.53278
    },
    {
      "id": 8987918,
      "name": "Krasno",
      "nativeName": "Krasno",
      "code": "SI-007-8987918",
      "countryId": 3190538,
      "countryCode": "SI",
      "stateCode": "SI-007",
      "latitude": 46.02845,
      "longitude": 13.55585
    },
    {
      "id": 3195340,
      "name": "Medana",
      "nativeName": "Medana",
      "code": "SI-007-3195340",
      "countryId": 3190538,
      "countryCode": "SI",
      "stateCode": "SI-007",
      "latitude": 45.98528,
      "longitude": 13.52139
    },
    {
      "id": 3194568,
      "name": "Neblo",
      "nativeName": "Neblo",
      "code": "SI-007-3194568",
      "countryId": 3190538,
      "countryCode": "SI",
      "stateCode": "SI-007",
      "latitude": 46.00567,
      "longitude": 13.50183
    },
    {
      "id": 8988801,
      "name": "Nozno",
      "nativeName": "Nozno",
      "code": "SI-007-8988801",
      "countryId": 3190538,
      "countryCode": "SI",
      "stateCode": "SI-007",
      "latitude": 46.03629,
      "longitude": 13.54426
    },
    {
      "id": 8990204,
      "name": "Plešivo",
      "nativeName": "Plešivo",
      "code": "SI-007-8990204",
      "countryId": 3190538,
      "countryCode": "SI",
      "stateCode": "SI-007",
      "latitude": 45.9842,
      "longitude": 13.50823
    },
    {
      "id": 3216505,
      "name": "Podsabotin",
      "nativeName": "Podsabotin",
      "code": "SI-007-3216505",
      "countryId": 3190538,
      "countryCode": "SI",
      "stateCode": "SI-007",
      "latitude": 45.98972,
      "longitude": 13.60806
    },
    {
      "id": 8989321,
      "name": "Pristavo",
      "nativeName": "Pristavo",
      "code": "SI-007-8989321",
      "countryId": 3190538,
      "countryCode": "SI",
      "stateCode": "SI-007",
      "latitude": 46.03063,
      "longitude": 13.51962
    },
    {
      "id": 3191058,
      "name": "Senik",
      "nativeName": "Senik",
      "code": "SI-007-3191058",
      "countryId": 3190538,
      "countryCode": "SI",
      "stateCode": "SI-007",
      "latitude": 46.05917,
      "longitude": 13.52889
    },
    {
      "id": 8989409,
      "name": "Slapnik",
      "nativeName": "Slapnik",
      "code": "SI-007-8989409",
      "countryId": 3190538,
      "countryCode": "SI",
      "stateCode": "SI-007",
      "latitude": 46.04577,
      "longitude": 13.5581
    },
    {
      "id": 8988917,
      "name": "Slavče",
      "nativeName": "Slavče",
      "code": "SI-007-8988917",
      "countryId": 3190538,
      "countryCode": "SI",
      "stateCode": "SI-007",
      "latitude": 46.02651,
      "longitude": 13.52741
    },
    {
      "id": 8987879,
      "name": "Snežatno",
      "nativeName": "Snežatno",
      "code": "SI-007-8987879",
      "countryId": 3190538,
      "countryCode": "SI",
      "stateCode": "SI-007",
      "latitude": 45.9963,
      "longitude": 13.57104
    },
    {
      "id": 8988380,
      "name": "Snežeče",
      "nativeName": "Snežeče",
      "code": "SI-007-8988380",
      "countryId": 3190538,
      "countryCode": "SI",
      "stateCode": "SI-007",
      "latitude": 46.00766,
      "longitude": 13.53052
    },
    {
      "id": 3218413,
      "name": "Sveti Lovreno",
      "nativeName": "Sveti Lovreno",
      "code": "SI-007-3218413",
      "countryId": 3190538,
      "countryCode": "SI",
      "stateCode": "SI-007",
      "latitude": 46.00472,
      "longitude": 13.55639
    },
    {
      "id": 8987300,
      "name": "Vedrijan",
      "nativeName": "Vedrijan",
      "code": "SI-007-8987300",
      "countryId": 3190538,
      "countryCode": "SI",
      "stateCode": "SI-007",
      "latitude": 46.01561,
      "longitude": 13.54534
    },
    {
      "id": 8986930,
      "name": "Vipolže",
      "nativeName": "Vipolže",
      "code": "SI-007-8986930",
      "countryId": 3190538,
      "countryCode": "SI",
      "stateCode": "SI-007",
      "latitude": 45.97359,
      "longitude": 13.53671
    },
    {
      "id": 3187654,
      "name": "Višnjevik",
      "nativeName": "Višnjevik",
      "code": "SI-007-3187654",
      "countryId": 3190538,
      "countryCode": "SI",
      "stateCode": "SI-007",
      "latitude": 46.02167,
      "longitude": 13.54028
    },
    {
      "id": 3187193,
      "name": "Vrhovlje pri Kojskem",
      "nativeName": "Vrhovlje pri Kojskem",
      "code": "SI-007-3187193",
      "countryId": 3190538,
      "countryCode": "SI",
      "stateCode": "SI-007",
      "latitude": 46.02444,
      "longitude": 13.57528
    },
    {
      "id": 8989895,
      "name": "Vrhovlje pri Kožbani",
      "nativeName": "Vrhovlje pri Kožbani",
      "code": "SI-007-8989895",
      "countryId": 3190538,
      "countryCode": "SI",
      "stateCode": "SI-007",
      "latitude": 46.0442,
      "longitude": 13.51705
    },
    {
      "id": 8987910,
      "name": "Zali Breg",
      "nativeName": "Zali Breg",
      "code": "SI-007-8987910",
      "countryId": 3190538,
      "countryCode": "SI",
      "stateCode": "SI-007",
      "latitude": 46.00416,
      "longitude": 13.53693
    },
    {
      "id": 8987732,
      "name": "Šlovrenc",
      "nativeName": "Šlovrenc",
      "code": "SI-007-8987732",
      "countryId": 3190538,
      "countryCode": "SI",
      "stateCode": "SI-007",
      "latitude": 46.01179,
      "longitude": 13.51476
    },
    {
      "id": 3190502,
      "name": "Šmartno",
      "nativeName": "Šmartno",
      "code": "SI-007-3190502",
      "countryId": 3190538,
      "countryCode": "SI",
      "stateCode": "SI-007",
      "latitude": 46.00422,
      "longitude": 13.55052
    }
  ]
}