{
  "stateId": 3196288,
  "stateCode": "SI-064",
  "countryCode": "SI",
  "cities": [
    {
      "id": 3218907,
      "name": "Logatec",
      "nativeName": "Logatec",
      "code": "SI-064-3218907",
      "countryId": 3190538,
      "countryCode": "SI",
      "stateCode": "SI-064",
      "latitude": 45.91444,
      "longitude": 14.22583
    },
    {
      "id": 3201823,
      "name": "Dolenji Logatec",
      "nativeName": "Dolenji Logatec",
      "code": "SI-064-3201823",
      "countryId": 3190538,
      "countryCode": "SI",
      "stateCode": "SI-064",
      "latitude": 45.93444,
      "longitude": 14.24167
    },
    {
      "id": 3200351,
      "name": "Gorenji Logatec",
      "nativeName": "Gorenji Logatec",
      "code": "SI-064-3200351",
      "countryId": 3190538,
      "countryCode": "SI",
      "stateCode": "SI-064",
      "latitude": 45.90778,
      "longitude": 14.19889
    },
    {
      "id": 3218978,
      "name": "Gruden",
      "nativeName": "Gruden",
      "code": "SI-064-3218978",
      "countryId": 3190538,
      "countryCode": "SI",
      "stateCode": "SI-064",
      "latitude": 45.89222,
      "longitude": 14.16694
    },
    {
      "id": 3199625,
      "name": "Grčarevec",
      "nativeName": "Grčarevec",
      "code": "SI-064-3199625",
      "countryId": 3190538,
      "countryCode": "SI",
      "stateCode": "SI-064",
      "latitude": 45.87528,
      "longitude": 14.21333
    },
    {
      "id": 8988186,
      "name": "Hleviše",
      "nativeName": "Hleviše",
      "code": "SI-064-8988186",
      "countryId": 3190538,
      "countryCode": "SI",
      "stateCode": "SI-064",
      "latitude": 46.00623,
      "longitude": 14.15518
    },
    {
      "id": 3199372,
      "name": "Hlevni Vrh",
      "nativeName": "Hlevni Vrh",
      "code": "SI-064-3199372",
      "countryId": 3190538,
      "countryCode": "SI",
      "stateCode": "SI-064",
      "latitude": 46.01667,
      "longitude": 14.18333
    },
    {
      "id": 3199338,
      "name": "Hotedršica",
      "nativeName": "Hotedršica",
      "code": "SI-064-3199338",
      "countryId": 3190538,
      "countryCode": "SI",
      "stateCode": "SI-064",
      "latitude": 45.93028,
      "longitude": 14.14222
    },
    {
      "id": 3198925,
      "name": "Jakovica",
      "nativeName": "Jakovica",
      "code": "SI-064-3198925",
      "countryId": 3190538,
      "countryCode": "SI",
      "stateCode": "SI-064",
      "latitude": 45.86056,
      "longitude": 14.25333
    },
    {
      "id": 3198468,
      "name": "Kalce",
      "nativeName": "Kalce",
      "code": "SI-064-3198468",
      "countryId": 3190538,
      "countryCode": "SI",
      "stateCode": "SI-064",
      "latitude": 45.89556,
      "longitude": 14.19361
    },
    {
      "id": 8987616,
      "name": "Lavrovec",
      "nativeName": "Lavrovec",
      "code": "SI-064-8987616",
      "countryId": 3190538,
      "countryCode": "SI",
      "stateCode": "SI-064",
      "latitude": 46.02481,
      "longitude": 14.18435
    },
    {
      "id": 3196730,
      "name": "Laze",
      "nativeName": "Laze",
      "code": "SI-064-3196730",
      "countryId": 3190538,
      "countryCode": "SI",
      "stateCode": "SI-064",
      "latitude": 45.86028,
      "longitude": 14.26528
    },
    {
      "id": 8987248,
      "name": "Medvedje Brdo",
      "nativeName": "Medvedje Brdo",
      "code": "SI-064-8987248",
      "countryId": 3190538,
      "countryCode": "SI",
      "stateCode": "SI-064",
      "latitude": 45.97144,
      "longitude": 14.13288
    },
    {
      "id": 3194357,
      "name": "Novi Svet",
      "nativeName": "Novi Svet",
      "code": "SI-064-3194357",
      "countryId": 3190538,
      "countryCode": "SI",
      "stateCode": "SI-064",
      "latitude": 45.90306,
      "longitude": 14.145
    },
    {
      "id": 3193438,
      "name": "Petkovec",
      "nativeName": "Petkovec",
      "code": "SI-064-3193438",
      "countryId": 3190538,
      "countryCode": "SI",
      "stateCode": "SI-064",
      "latitude": 45.96917,
      "longitude": 14.19861
    },
    {
      "id": 3192585,
      "name": "Praprotno Brdo",
      "nativeName": "Praprotno Brdo",
      "code": "SI-064-3192585",
      "countryId": 3190538,
      "countryCode": "SI",
      "stateCode": "SI-064",
      "latitude": 45.99722,
      "longitude": 14.18722
    },
    {
      "id": 8989759,
      "name": "Rovtarske Žibrše",
      "nativeName": "Rovtarske Žibrše",
      "code": "SI-064-8989759",
      "countryId": 3190538,
      "countryCode": "SI",
      "stateCode": "SI-064",
      "latitude": 45.96209,
      "longitude": 14.16665
    },
    {
      "id": 3191509,
      "name": "Rovte",
      "nativeName": "Rovte",
      "code": "SI-064-3191509",
      "countryId": 3190538,
      "countryCode": "SI",
      "stateCode": "SI-064",
      "latitude": 45.98528,
      "longitude": 14.1775
    },
    {
      "id": 3218980,
      "name": "Veharše",
      "nativeName": "Veharše",
      "code": "SI-064-3218980",
      "countryId": 3190538,
      "countryCode": "SI",
      "stateCode": "SI-064",
      "latitude": 45.97694,
      "longitude": 14.11361
    },
    {
      "id": 8988327,
      "name": "Vrh Sv. Treh Kraljev",
      "nativeName": "Vrh Sv. Treh Kraljev",
      "code": "SI-064-8988327",
      "countryId": 3190538,
      "countryCode": "SI",
      "stateCode": "SI-064",
      "latitude": 46.0142,
      "longitude": 14.1686
    },
    {
      "id": 3187215,
      "name": "Vrh nad Rovtami",
      "nativeName": "Vrh nad Rovtami",
      "code": "SI-064-3187215",
      "countryId": 3190538,
      "countryCode": "SI",
      "stateCode": "SI-064",
      "latitude": 46.01667,
      "longitude": 14.16667
    },
    {
      "id": 8989837,
      "name": "Zaplana - Del",
      "nativeName": "Zaplana - Del",
      "code": "SI-064-8989837",
      "countryId": 3190538,
      "countryCode": "SI",
      "stateCode": "SI-064",
      "latitude": 45.95001,
      "longitude": 14.20583
    },
    {
      "id": 3218979,
      "name": "Česte",
      "nativeName": "Česte",
      "code": "SI-064-3218979",
      "countryId": 3190538,
      "countryCode": "SI",
      "stateCode": "SI-064",
      "latitude": 45.95222,
      "longitude": 14.19722
    },
    {
      "id": 3186474,
      "name": "Žibrše",
      "nativeName": "Žibrše",
      "code": "SI-064-3186474",
      "countryId": 3190538,
      "countryCode": "SI",
      "stateCode": "SI-064",
      "latitude": 45.93667,
      "longitude": 14.17611
    }
  ]
}