{
  "stateId": 3239054,
  "stateCode": "SI-091",
  "countryCode": "SI",
  "cities": [
    {
      "id": 3193299,
      "name": "Pivka",
      "nativeName": "Pivka",
      "code": "SI-091-3193299",
      "countryId": 3190538,
      "countryCode": "SI",
      "stateCode": "SI-091",
      "latitude": 45.68292,
      "longitude": 14.19588
    },
    {
      "id": 3203089,
      "name": "Buje",
      "nativeName": "Buje",
      "code": "SI-091-3203089",
      "countryId": 3190538,
      "countryCode": "SI",
      "stateCode": "SI-091",
      "latitude": 45.655,
      "longitude": 14.0875
    },
    {
      "id": 3201781,
      "name": "Dolnja Košana",
      "nativeName": "Dolnja Košana",
      "code": "SI-091-3201781",
      "countryId": 3190538,
      "countryCode": "SI",
      "stateCode": "SI-091",
      "latitude": 45.66278,
      "longitude": 14.12417
    },
    {
      "id": 3201149,
      "name": "Drskovče",
      "nativeName": "Drskovče",
      "code": "SI-091-3201149",
      "countryId": 3190538,
      "countryCode": "SI",
      "stateCode": "SI-091",
      "latitude": 45.65083,
      "longitude": 14.22278
    },
    {
      "id": 3200244,
      "name": "Gornja Košana",
      "nativeName": "Gornja Košana",
      "code": "SI-091-3200244",
      "countryId": 3190538,
      "countryCode": "SI",
      "stateCode": "SI-091",
      "latitude": 45.68474,
      "longitude": 14.12061
    },
    {
      "id": 8988439,
      "name": "Gradec",
      "nativeName": "Gradec",
      "code": "SI-091-8988439",
      "countryId": 3190538,
      "countryCode": "SI",
      "stateCode": "SI-091",
      "latitude": 45.69387,
      "longitude": 14.18367
    },
    {
      "id": 3198547,
      "name": "Jurišče",
      "nativeName": "Jurišče",
      "code": "SI-091-3198547",
      "countryId": 3190538,
      "countryCode": "SI",
      "stateCode": "SI-091",
      "latitude": 45.66417,
      "longitude": 14.2925
    },
    {
      "id": 3198482,
      "name": "Kal",
      "nativeName": "Kal",
      "code": "SI-091-3198482",
      "countryId": 3190538,
      "countryCode": "SI",
      "stateCode": "SI-091",
      "latitude": 45.66833,
      "longitude": 14.16611
    },
    {
      "id": 3198081,
      "name": "Klenik",
      "nativeName": "Klenik",
      "code": "SI-091-3198081",
      "countryId": 3190538,
      "countryCode": "SI",
      "stateCode": "SI-091",
      "latitude": 45.6789,
      "longitude": 14.22112
    },
    {
      "id": 3195805,
      "name": "Mala Pristava",
      "nativeName": "Mala Pristava",
      "code": "SI-091-3195805",
      "countryId": 3190538,
      "countryCode": "SI",
      "stateCode": "SI-091",
      "latitude": 45.65,
      "longitude": 14.16333
    },
    {
      "id": 8987707,
      "name": "Nadanje Selo",
      "nativeName": "Nadanje Selo",
      "code": "SI-091-8987707",
      "countryId": 3190538,
      "countryCode": "SI",
      "stateCode": "SI-091",
      "latitude": 45.64216,
      "longitude": 14.17616
    },
    {
      "id": 3194584,
      "name": "Narin",
      "nativeName": "Narin",
      "code": "SI-091-3194584",
      "countryId": 3190538,
      "countryCode": "SI",
      "stateCode": "SI-091",
      "latitude": 45.64222,
      "longitude": 14.19583
    },
    {
      "id": 3194511,
      "name": "Neverke",
      "nativeName": "Neverke",
      "code": "SI-091-3194511",
      "countryId": 3190538,
      "countryCode": "SI",
      "stateCode": "SI-091",
      "latitude": 45.66583,
      "longitude": 14.13583
    },
    {
      "id": 3194409,
      "name": "Nova Sušica",
      "nativeName": "Nova Sušica",
      "code": "SI-091-3194409",
      "countryId": 3190538,
      "countryCode": "SI",
      "stateCode": "SI-091",
      "latitude": 45.65167,
      "longitude": 14.14722
    },
    {
      "id": 3193693,
      "name": "Palčje",
      "nativeName": "Palčje",
      "code": "SI-091-3193693",
      "countryId": 3190538,
      "countryCode": "SI",
      "stateCode": "SI-091",
      "latitude": 45.69413,
      "longitude": 14.30692
    },
    {
      "id": 3193625,
      "name": "Parje",
      "nativeName": "Parje",
      "code": "SI-091-3193625",
      "countryId": 3190538,
      "countryCode": "SI",
      "stateCode": "SI-091",
      "latitude": 45.66259,
      "longitude": 14.21717
    },
    {
      "id": 3193451,
      "name": "Petelinje",
      "nativeName": "Petelinje",
      "code": "SI-091-3193451",
      "countryId": 3190538,
      "countryCode": "SI",
      "stateCode": "SI-091",
      "latitude": 45.68981,
      "longitude": 14.19605
    },
    {
      "id": 3218935,
      "name": "Radohova Vas",
      "nativeName": "Radohova Vas",
      "code": "SI-091-3218935",
      "countryId": 3190538,
      "countryCode": "SI",
      "stateCode": "SI-091",
      "latitude": 45.67528,
      "longitude": 14.2025
    },
    {
      "id": 3191687,
      "name": "Ribnica",
      "nativeName": "Ribnica",
      "code": "SI-091-3191687",
      "countryId": 3190538,
      "countryCode": "SI",
      "stateCode": "SI-091",
      "latitude": 45.63222,
      "longitude": 14.16528
    },
    {
      "id": 3191129,
      "name": "Selce",
      "nativeName": "Selce",
      "code": "SI-091-3191129",
      "countryId": 3190538,
      "countryCode": "SI",
      "stateCode": "SI-091",
      "latitude": 45.70282,
      "longitude": 14.18944
    },
    {
      "id": 8988565,
      "name": "Slovenska Vas",
      "nativeName": "Slovenska Vas",
      "code": "SI-091-8988565",
      "countryId": 3190538,
      "countryCode": "SI",
      "stateCode": "SI-091",
      "latitude": 45.70658,
      "longitude": 14.22189
    },
    {
      "id": 3189992,
      "name": "Stara Sušica",
      "nativeName": "Stara Sušica",
      "code": "SI-091-3189992",
      "countryId": 3190538,
      "countryCode": "SI",
      "stateCode": "SI-091",
      "latitude": 45.65167,
      "longitude": 14.13306
    },
    {
      "id": 3189541,
      "name": "Suhorje",
      "nativeName": "Suhorje",
      "code": "SI-091-3189541",
      "countryId": 3190538,
      "countryCode": "SI",
      "stateCode": "SI-091",
      "latitude": 45.63799,
      "longitude": 14.10524
    },
    {
      "id": 3218913,
      "name": "Temna Luža",
      "nativeName": "Temna Luža",
      "code": "SI-091-3218913",
      "countryId": 3190538,
      "countryCode": "SI",
      "stateCode": "SI-091",
      "latitude": 45.69944,
      "longitude": 14.3275
    },
    {
      "id": 3188800,
      "name": "Trnje",
      "nativeName": "Trnje",
      "code": "SI-091-3188800",
      "countryId": 3190538,
      "countryCode": "SI",
      "stateCode": "SI-091",
      "latitude": 45.71901,
      "longitude": 14.28885
    },
    {
      "id": 3188179,
      "name": "Velika Pristava",
      "nativeName": "Velika Pristava",
      "code": "SI-091-3188179",
      "countryId": 3190538,
      "countryCode": "SI",
      "stateCode": "SI-091",
      "latitude": 45.65694,
      "longitude": 14.18528
    },
    {
      "id": 3187430,
      "name": "Volče",
      "nativeName": "Volče",
      "code": "SI-091-3187430",
      "countryId": 3190538,
      "countryCode": "SI",
      "stateCode": "SI-091",
      "latitude": 45.69611,
      "longitude": 14.11556
    },
    {
      "id": 3186909,
      "name": "Zagorje",
      "nativeName": "Zagorje",
      "code": "SI-091-3186909",
      "countryId": 3190538,
      "countryCode": "SI",
      "stateCode": "SI-091",
      "latitude": 45.63972,
      "longitude": 14.22444
    },
    {
      "id": 8988453,
      "name": "Čepno",
      "nativeName": "Čepno",
      "code": "SI-091-8988453",
      "countryId": 3190538,
      "countryCode": "SI",
      "stateCode": "SI-091",
      "latitude": 45.67048,
      "longitude": 14.09369
    },
    {
      "id": 8989295,
      "name": "Šilentabor",
      "nativeName": "Šilentabor",
      "code": "SI-091-8989295",
      "countryId": 3190538,
      "countryCode": "SI",
      "stateCode": "SI-091",
      "latitude": 45.65362,
      "longitude": 14.20527
    },
    {
      "id": 8987745,
      "name": "Šmihel",
      "nativeName": "Šmihel",
      "code": "SI-091-8987745",
      "countryId": 3190538,
      "countryCode": "SI",
      "stateCode": "SI-091",
      "latitude": 45.65403,
      "longitude": 14.16862
    },
    {
      "id": 10859216,
      "name": "Hrastje",
      "nativeName": "Hrastje",
      "code": "SI-091-10859216",
      "countryId": 3190538,
      "countryCode": "SI",
      "stateCode": "SI-091",
      "latitude": 45.66873,
      "longitude": 14.18425
    },
    {
      "id": 10859185,
      "name": "Mrzlek",
      "nativeName": "Mrzlek",
      "code": "SI-091-10859185",
      "countryId": 3190538,
      "countryCode": "SI",
      "stateCode": "SI-091",
      "latitude": 45.63999,
      "longitude": 14.15311
    },
    {
      "id": 10859184,
      "name": "Ravne",
      "nativeName": "Ravne",
      "code": "SI-091-10859184",
      "countryId": 3190538,
      "countryCode": "SI",
      "stateCode": "SI-091",
      "latitude": 45.65743,
      "longitude": 14.16528
    },
    {
      "id": 10859180,
      "name": "Žagar",
      "nativeName": "Žagar",
      "code": "SI-091-10859180",
      "countryId": 3190538,
      "countryCode": "SI",
      "stateCode": "SI-091",
      "latitude": 45.6485,
      "longitude": 14.09672
    }
  ]
}