{
  "stateId": 3344935,
  "stateCode": "SI-059",
  "countryCode": "SI",
  "cities": [
    {
      "id": 3196681,
      "name": "Lendava",
      "nativeName": "Lendava",
      "code": "SI-059-3196681",
      "countryId": 3190538,
      "countryCode": "SI",
      "stateCode": "SI-059",
      "latitude": 46.56494,
      "longitude": 16.45091
    },
    {
      "id": 3216043,
      "name": "Banuta",
      "nativeName": "Banuta",
      "code": "SI-059-3216043",
      "countryId": 3190538,
      "countryCode": "SI",
      "stateCode": "SI-059",
      "latitude": 46.6025,
      "longitude": 16.41194
    },
    {
      "id": 8989682,
      "name": "Benica",
      "nativeName": "Benica",
      "code": "SI-059-8989682",
      "countryId": 3190538,
      "countryCode": "SI",
      "stateCode": "SI-059",
      "latitude": 46.50796,
      "longitude": 16.49356
    },
    {
      "id": 3201808,
      "name": "Dolga Vas",
      "nativeName": "Dolga Vas",
      "code": "SI-059-3201808",
      "countryId": 3190538,
      "countryCode": "SI",
      "stateCode": "SI-059",
      "latitude": 46.58778,
      "longitude": 16.44167
    },
    {
      "id": 8987033,
      "name": "Dolgovaške Gorice",
      "nativeName": "Dolgovaške Gorice",
      "code": "SI-059-8987033",
      "countryId": 3190538,
      "countryCode": "SI",
      "stateCode": "SI-059",
      "latitude": 46.57645,
      "longitude": 16.467
    },
    {
      "id": 3201796,
      "name": "Dolina pri Lendavi",
      "nativeName": "Dolina pri Lendavi",
      "code": "SI-059-3201796",
      "countryId": 3190538,
      "countryCode": "SI",
      "stateCode": "SI-059",
      "latitude": 46.53917,
      "longitude": 16.50667
    },
    {
      "id": 8989476,
      "name": "Dolnji Lakoš",
      "nativeName": "Dolnji Lakoš",
      "code": "SI-059-8989476",
      "countryId": 3190538,
      "countryCode": "SI",
      "stateCode": "SI-059",
      "latitude": 46.54831,
      "longitude": 16.43466
    },
    {
      "id": 3200793,
      "name": "Gaberje",
      "nativeName": "Gaberje",
      "code": "SI-059-3200793",
      "countryId": 3190538,
      "countryCode": "SI",
      "stateCode": "SI-059",
      "latitude": 46.55472,
      "longitude": 16.4
    },
    {
      "id": 3200676,
      "name": "Genterovci",
      "nativeName": "Genterovci",
      "code": "SI-059-3200676",
      "countryId": 3190538,
      "countryCode": "SI",
      "stateCode": "SI-059",
      "latitude": 46.62139,
      "longitude": 16.40417
    },
    {
      "id": 3199980,
      "name": "Gornji Lakoš",
      "nativeName": "Gornji Lakoš",
      "code": "SI-059-3199980",
      "countryId": 3190538,
      "countryCode": "SI",
      "stateCode": "SI-059",
      "latitude": 46.55306,
      "longitude": 16.41806
    },
    {
      "id": 3199332,
      "name": "Hotiza",
      "nativeName": "Hotiza",
      "code": "SI-059-3199332",
      "countryId": 3190538,
      "countryCode": "SI",
      "stateCode": "SI-059",
      "latitude": 46.54944,
      "longitude": 16.36028
    },
    {
      "id": 3198357,
      "name": "Kamovci",
      "nativeName": "Kamovci",
      "code": "SI-059-3198357",
      "countryId": 3190538,
      "countryCode": "SI",
      "stateCode": "SI-059",
      "latitude": 46.62889,
      "longitude": 16.38361
    },
    {
      "id": 3198324,
      "name": "Kapca",
      "nativeName": "Kapca",
      "code": "SI-059-3198324",
      "countryId": 3190538,
      "countryCode": "SI",
      "stateCode": "SI-059",
      "latitude": 46.55528,
      "longitude": 16.38278
    },
    {
      "id": 3197551,
      "name": "Kot",
      "nativeName": "Kot",
      "code": "SI-059-3197551",
      "countryId": 3190538,
      "countryCode": "SI",
      "stateCode": "SI-059",
      "latitude": 46.54417,
      "longitude": 16.38833
    },
    {
      "id": 8986884,
      "name": "Lendavske Gorice",
      "nativeName": "Lendavske Gorice",
      "code": "SI-059-8986884",
      "countryId": 3190538,
      "countryCode": "SI",
      "stateCode": "SI-059",
      "latitude": 46.56209,
      "longitude": 16.4673
    },
    {
      "id": 3194819,
      "name": "Mostje",
      "nativeName": "Mostje",
      "code": "SI-059-3194819",
      "countryId": 3190538,
      "countryCode": "SI",
      "stateCode": "SI-059",
      "latitude": 46.6067,
      "longitude": 16.42573
    },
    {
      "id": 3193444,
      "name": "Petišovci",
      "nativeName": "Petišovci",
      "code": "SI-059-3193444",
      "countryId": 3190538,
      "countryCode": "SI",
      "stateCode": "SI-059",
      "latitude": 46.52722,
      "longitude": 16.46139
    },
    {
      "id": 3193352,
      "name": "Pince",
      "nativeName": "Pince",
      "code": "SI-059-3193352",
      "countryId": 3190538,
      "countryCode": "SI",
      "stateCode": "SI-059",
      "latitude": 46.52778,
      "longitude": 16.52361
    },
    {
      "id": 8989512,
      "name": "Pince-Marof",
      "nativeName": "Pince-Marof",
      "code": "SI-059-8989512",
      "countryId": 3190538,
      "countryCode": "SI",
      "stateCode": "SI-059",
      "latitude": 46.49009,
      "longitude": 16.5408
    },
    {
      "id": 3192112,
      "name": "Radmožanci",
      "nativeName": "Radmožanci",
      "code": "SI-059-3192112",
      "countryId": 3190538,
      "countryCode": "SI",
      "stateCode": "SI-059",
      "latitude": 46.61472,
      "longitude": 16.38361
    },
    {
      "id": 3188826,
      "name": "Trimlini",
      "nativeName": "Trimlini",
      "code": "SI-059-3188826",
      "countryId": 3190538,
      "countryCode": "SI",
      "stateCode": "SI-059",
      "latitude": 46.54444,
      "longitude": 16.45861
    },
    {
      "id": 3202752,
      "name": "Čentiba",
      "nativeName": "Čentiba",
      "code": "SI-059-3202752",
      "countryId": 3190538,
      "countryCode": "SI",
      "stateCode": "SI-059",
      "latitude": 46.55556,
      "longitude": 16.4975
    }
  ]
}