{
  "stateId": 3239195,
  "stateCode": "SI-109",
  "countryCode": "SI",
  "cities": [
    {
      "id": 3191072,
      "name": "Semič",
      "nativeName": "Semič",
      "code": "SI-109-3191072",
      "countryId": 3190538,
      "countryCode": "SI",
      "stateCode": "SI-109",
      "latitude": 45.64611,
      "longitude": 15.18222
    },
    {
      "id": 3203945,
      "name": "Blatnik pri Črmošnjicah",
      "nativeName": "Blatnik pri Črmošnjicah",
      "code": "SI-109-3203945",
      "countryId": 3190538,
      "countryCode": "SI",
      "stateCode": "SI-109",
      "latitude": 45.65,
      "longitude": 15.13333
    },
    {
      "id": 3203385,
      "name": "Brezje pri Rožnem Dolu",
      "nativeName": "Brezje pri Rožnem Dolu",
      "code": "SI-109-3203385",
      "countryId": 3190538,
      "countryCode": "SI",
      "stateCode": "SI-109",
      "latitude": 45.67231,
      "longitude": 15.14599
    },
    {
      "id": 3203382,
      "name": "Brezje pri Vinjem Vrhu",
      "nativeName": "Brezje pri Vinjem Vrhu",
      "code": "SI-109-3203382",
      "countryId": 3190538,
      "countryCode": "SI",
      "stateCode": "SI-109",
      "latitude": 45.63044,
      "longitude": 15.18864
    },
    {
      "id": 3203355,
      "name": "Brezova Reber",
      "nativeName": "Brezova Reber",
      "code": "SI-109-3203355",
      "countryId": 3190538,
      "countryCode": "SI",
      "stateCode": "SI-109",
      "latitude": 45.68975,
      "longitude": 15.22189
    },
    {
      "id": 8989910,
      "name": "Brezovica pri Črmošnjicah",
      "nativeName": "Brezovica pri Črmošnjicah",
      "code": "SI-109-8989910",
      "countryId": 3190538,
      "countryCode": "SI",
      "stateCode": "SI-109",
      "latitude": 45.64939,
      "longitude": 15.11352
    },
    {
      "id": 8988621,
      "name": "Brstovec",
      "nativeName": "Brstovec",
      "code": "SI-109-8988621",
      "countryId": 3190538,
      "countryCode": "SI",
      "stateCode": "SI-109",
      "latitude": 45.6325,
      "longitude": 15.19663
    },
    {
      "id": 8989846,
      "name": "Cerovec pri Črešnjevcu",
      "nativeName": "Cerovec pri Črešnjevcu",
      "code": "SI-109-8989846",
      "countryId": 3190538,
      "countryCode": "SI",
      "stateCode": "SI-109",
      "latitude": 45.651,
      "longitude": 15.24345
    },
    {
      "id": 8989677,
      "name": "Gaber pri Črmošnjicah",
      "nativeName": "Gaber pri Črmošnjicah",
      "code": "SI-109-8989677",
      "countryId": 3190538,
      "countryCode": "SI",
      "stateCode": "SI-109",
      "latitude": 45.65657,
      "longitude": 15.12788
    },
    {
      "id": 3200135,
      "name": "Gornje Dobravice",
      "nativeName": "Gornje Dobravice",
      "code": "SI-109-3200135",
      "countryId": 3190538,
      "countryCode": "SI",
      "stateCode": "SI-109",
      "latitude": 45.6411,
      "longitude": 15.27603
    },
    {
      "id": 8989617,
      "name": "Gornje Laze",
      "nativeName": "Gornje Laze",
      "code": "SI-109-8989617",
      "countryId": 3190538,
      "countryCode": "SI",
      "stateCode": "SI-109",
      "latitude": 45.69234,
      "longitude": 15.14831
    },
    {
      "id": 8988176,
      "name": "Gradnik",
      "nativeName": "Gradnik",
      "code": "SI-109-8988176",
      "countryId": 3190538,
      "countryCode": "SI",
      "stateCode": "SI-109",
      "latitude": 45.66831,
      "longitude": 15.24237
    },
    {
      "id": 8989279,
      "name": "Hrib pri Cerovcu",
      "nativeName": "Hrib pri Cerovcu",
      "code": "SI-109-8989279",
      "countryId": 3190538,
      "countryCode": "SI",
      "stateCode": "SI-109",
      "latitude": 45.66247,
      "longitude": 15.24587
    },
    {
      "id": 8989415,
      "name": "Hrib pri Rožnem Dolu",
      "nativeName": "Hrib pri Rožnem Dolu",
      "code": "SI-109-8989415",
      "countryId": 3190538,
      "countryCode": "SI",
      "stateCode": "SI-109",
      "latitude": 45.6838,
      "longitude": 15.13437
    },
    {
      "id": 3198481,
      "name": "Kal",
      "nativeName": "Kal",
      "code": "SI-109-3198481",
      "countryId": 3190538,
      "countryCode": "SI",
      "stateCode": "SI-109",
      "latitude": 45.67542,
      "longitude": 15.19885
    },
    {
      "id": 3197851,
      "name": "Komarna Vas",
      "nativeName": "Komarna Vas",
      "code": "SI-109-3197851",
      "countryId": 3190538,
      "countryCode": "SI",
      "stateCode": "SI-109",
      "latitude": 45.65942,
      "longitude": 15.06406
    },
    {
      "id": 3197530,
      "name": "Kot pri Semiču",
      "nativeName": "Kot pri Semiču",
      "code": "SI-109-3197530",
      "countryId": 3190538,
      "countryCode": "SI",
      "stateCode": "SI-109",
      "latitude": 45.63333,
      "longitude": 15.16667
    },
    {
      "id": 8988454,
      "name": "Krupa",
      "nativeName": "Krupa",
      "code": "SI-109-8988454",
      "countryId": 3190538,
      "countryCode": "SI",
      "stateCode": "SI-109",
      "latitude": 45.63784,
      "longitude": 15.23033
    },
    {
      "id": 3218145,
      "name": "Krvavčji Vrh",
      "nativeName": "Krvavčji Vrh",
      "code": "SI-109-3218145",
      "countryId": 3190538,
      "countryCode": "SI",
      "stateCode": "SI-109",
      "latitude": 45.65806,
      "longitude": 15.25972
    },
    {
      "id": 3196494,
      "name": "Lipovec",
      "nativeName": "Lipovec",
      "code": "SI-109-3196494",
      "countryId": 3190538,
      "countryCode": "SI",
      "stateCode": "SI-109",
      "latitude": 45.63333,
      "longitude": 15.18333
    },
    {
      "id": 3195658,
      "name": "Maline pri Štrekljevcu",
      "nativeName": "Maline pri Štrekljevcu",
      "code": "SI-109-3195658",
      "countryId": 3190538,
      "countryCode": "SI",
      "stateCode": "SI-109",
      "latitude": 45.7,
      "longitude": 15.21667
    },
    {
      "id": 8989433,
      "name": "Mašelj",
      "nativeName": "Mašelj",
      "code": "SI-109-8989433",
      "countryId": 3190538,
      "countryCode": "SI",
      "stateCode": "SI-109",
      "latitude": 45.68248,
      "longitude": 15.11745
    },
    {
      "id": 8988859,
      "name": "Moverna vas",
      "nativeName": "Moverna Vas",
      "code": "SI-109-8988859",
      "countryId": 3190538,
      "countryCode": "SI",
      "stateCode": "SI-109",
      "latitude": 45.62951,
      "longitude": 15.23242
    },
    {
      "id": 8988970,
      "name": "Nestoplja vas",
      "nativeName": "Nestoplja Vas",
      "code": "SI-109-8988970",
      "countryId": 3190538,
      "countryCode": "SI",
      "stateCode": "SI-109",
      "latitude": 45.62388,
      "longitude": 15.18685
    },
    {
      "id": 8988346,
      "name": "Omota",
      "nativeName": "Omota",
      "code": "SI-109-8988346",
      "countryId": 3190538,
      "countryCode": "SI",
      "stateCode": "SI-109",
      "latitude": 45.65705,
      "longitude": 15.21957
    },
    {
      "id": 8988144,
      "name": "Oskoršnica",
      "nativeName": "Oskoršnica",
      "code": "SI-109-8988144",
      "countryId": 3190538,
      "countryCode": "SI",
      "stateCode": "SI-109",
      "latitude": 45.65789,
      "longitude": 15.20719
    },
    {
      "id": 3193889,
      "name": "Osojnik",
      "nativeName": "Osojnik",
      "code": "SI-109-3193889",
      "countryId": 3190538,
      "countryCode": "SI",
      "stateCode": "SI-109",
      "latitude": 45.67972,
      "longitude": 15.21389
    },
    {
      "id": 3193262,
      "name": "Planina",
      "nativeName": "Planina",
      "code": "SI-109-3193262",
      "countryId": 3190538,
      "countryCode": "SI",
      "stateCode": "SI-109",
      "latitude": 45.62449,
      "longitude": 15.0884
    },
    {
      "id": 8988223,
      "name": "Podreber",
      "nativeName": "Podreber",
      "code": "SI-109-8988223",
      "countryId": 3190538,
      "countryCode": "SI",
      "stateCode": "SI-109",
      "latitude": 45.66764,
      "longitude": 15.20192
    },
    {
      "id": 8989038,
      "name": "Potoki",
      "nativeName": "Potoki",
      "code": "SI-109-8989038",
      "countryId": 3190538,
      "countryCode": "SI",
      "stateCode": "SI-109",
      "latitude": 45.66744,
      "longitude": 15.14203
    },
    {
      "id": 3192589,
      "name": "Praprot",
      "nativeName": "Praprot",
      "code": "SI-109-3192589",
      "countryId": 3190538,
      "countryCode": "SI",
      "stateCode": "SI-109",
      "latitude": 45.63925,
      "longitude": 15.21066
    },
    {
      "id": 8989039,
      "name": "Praproče",
      "nativeName": "Praproče",
      "code": "SI-109-8989039",
      "countryId": 3190538,
      "countryCode": "SI",
      "stateCode": "SI-109",
      "latitude": 45.675,
      "longitude": 15.23083
    },
    {
      "id": 8989398,
      "name": "Preloge",
      "nativeName": "Preloge",
      "code": "SI-109-8989398",
      "countryId": 3190538,
      "countryCode": "SI",
      "stateCode": "SI-109",
      "latitude": 45.66627,
      "longitude": 15.16864
    },
    {
      "id": 3192453,
      "name": "Pribišje",
      "nativeName": "Pribišje",
      "code": "SI-109-3192453",
      "countryId": 3190538,
      "countryCode": "SI",
      "stateCode": "SI-109",
      "latitude": 45.68333,
      "longitude": 15.16667
    },
    {
      "id": 8989189,
      "name": "Pugled",
      "nativeName": "Pugled",
      "code": "SI-109-8989189",
      "countryId": 3190538,
      "countryCode": "SI",
      "stateCode": "SI-109",
      "latitude": 45.63698,
      "longitude": 15.19453
    },
    {
      "id": 3191494,
      "name": "Rožni Dol",
      "nativeName": "Rožni Dol",
      "code": "SI-109-3191494",
      "countryId": 3190538,
      "countryCode": "SI",
      "stateCode": "SI-109",
      "latitude": 45.68083,
      "longitude": 15.14472
    },
    {
      "id": 8989140,
      "name": "Sela pri Vrčicah",
      "nativeName": "Sela pri Vrčicah",
      "code": "SI-109-8989140",
      "countryId": 3190538,
      "countryCode": "SI",
      "stateCode": "SI-109",
      "latitude": 45.65566,
      "longitude": 15.14916
    },
    {
      "id": 8988957,
      "name": "Sodji Vrh",
      "nativeName": "Sodji Vrh",
      "code": "SI-109-8988957",
      "countryId": 3190538,
      "countryCode": "SI",
      "stateCode": "SI-109",
      "latitude": 45.67866,
      "longitude": 15.24386
    },
    {
      "id": 8988023,
      "name": "Sovinek",
      "nativeName": "Sovinek",
      "code": "SI-109-8988023",
      "countryId": 3190538,
      "countryCode": "SI",
      "stateCode": "SI-109",
      "latitude": 45.64722,
      "longitude": 15.20678
    },
    {
      "id": 3190152,
      "name": "Sredgora",
      "nativeName": "Sredgora",
      "code": "SI-109-3190152",
      "countryId": 3190538,
      "countryCode": "SI",
      "stateCode": "SI-109",
      "latitude": 45.60444,
      "longitude": 15.0925
    },
    {
      "id": 3190136,
      "name": "Srednja Vas",
      "nativeName": "Srednja Vas",
      "code": "SI-109-3190136",
      "countryId": 3190538,
      "countryCode": "SI",
      "stateCode": "SI-109",
      "latitude": 45.66417,
      "longitude": 15.10861
    },
    {
      "id": 8989040,
      "name": "Starihov Vrh",
      "nativeName": "Starihov Vrh",
      "code": "SI-109-8989040",
      "countryId": 3190538,
      "countryCode": "SI",
      "stateCode": "SI-109",
      "latitude": 45.62997,
      "longitude": 15.17307
    },
    {
      "id": 8988270,
      "name": "Stranska vas pri Semiču",
      "nativeName": "Stranska vas pri Semiču",
      "code": "SI-109-8988270",
      "countryId": 3190538,
      "countryCode": "SI",
      "stateCode": "SI-109",
      "latitude": 45.6232,
      "longitude": 15.22175
    },
    {
      "id": 8989217,
      "name": "Trebnji Vrh",
      "nativeName": "Trebnji Vrh",
      "code": "SI-109-8989217",
      "countryId": 3190538,
      "countryCode": "SI",
      "stateCode": "SI-109",
      "latitude": 45.63492,
      "longitude": 15.16846
    },
    {
      "id": 3187723,
      "name": "Vinji Vrh pri Semiču",
      "nativeName": "Vinji Vrh pri Semiču",
      "code": "SI-109-3187723",
      "countryId": 3190538,
      "countryCode": "SI",
      "stateCode": "SI-109",
      "latitude": 45.63333,
      "longitude": 15.2
    },
    {
      "id": 3187254,
      "name": "Vrčice",
      "nativeName": "Vrčice",
      "code": "SI-109-3187254",
      "countryId": 3190538,
      "countryCode": "SI",
      "stateCode": "SI-109",
      "latitude": 45.65,
      "longitude": 15.15
    },
    {
      "id": 3202515,
      "name": "Črešnjevec pri Semiču",
      "nativeName": "Črešnjevec pri Semiču",
      "code": "SI-109-3202515",
      "countryId": 3190538,
      "countryCode": "SI",
      "stateCode": "SI-109",
      "latitude": 45.655,
      "longitude": 15.23278
    },
    {
      "id": 3202479,
      "name": "Črmošnjice",
      "nativeName": "Črmošnjice",
      "code": "SI-109-3202479",
      "countryId": 3190538,
      "countryCode": "SI",
      "stateCode": "SI-109",
      "latitude": 45.68333,
      "longitude": 15.1
    },
    {
      "id": 3189737,
      "name": "Štrekljevec",
      "nativeName": "Štrekljevec",
      "code": "SI-109-3189737",
      "countryId": 3190538,
      "countryCode": "SI",
      "stateCode": "SI-109",
      "latitude": 45.6725,
      "longitude": 15.21528
    }
  ]
}