{
  "stateId": 3190535,
  "stateCode": "SI-112",
  "countryCode": "SI",
  "cities": [
    {
      "id": 3190536,
      "name": "Slovenj Gradec",
      "nativeName": "Slovenj Gradec",
      "code": "SI-112-3190536",
      "countryId": 3190538,
      "countryCode": "SI",
      "stateCode": "SI-112",
      "latitude": 46.51028,
      "longitude": 15.08056
    },
    {
      "id": 3217154,
      "name": "Blatnik",
      "nativeName": "Blatnik",
      "code": "SI-112-3217154",
      "countryId": 3190538,
      "countryCode": "SI",
      "stateCode": "SI-112",
      "latitude": 46.49306,
      "longitude": 15.02917
    },
    {
      "id": 8987035,
      "name": "Brda",
      "nativeName": "Brda",
      "code": "SI-112-8987035",
      "countryId": 3190538,
      "countryCode": "SI",
      "stateCode": "SI-112",
      "latitude": 46.47078,
      "longitude": 15.15413
    },
    {
      "id": 3203019,
      "name": "Bukovska vas",
      "nativeName": "Bukovska Vas",
      "code": "SI-112-3203019",
      "countryId": 3190538,
      "countryCode": "SI",
      "stateCode": "SI-112",
      "latitude": 46.55,
      "longitude": 15.05167
    },
    {
      "id": 8986931,
      "name": "Gmajna",
      "nativeName": "Gmajna",
      "code": "SI-112-8986931",
      "countryId": 3190538,
      "countryCode": "SI",
      "stateCode": "SI-112",
      "latitude": 46.52756,
      "longitude": 15.061
    },
    {
      "id": 3200488,
      "name": "Golavabuka",
      "nativeName": "Golavabuka",
      "code": "SI-112-3200488",
      "countryId": 3190538,
      "countryCode": "SI",
      "stateCode": "SI-112",
      "latitude": 46.48701,
      "longitude": 15.15821
    },
    {
      "id": 3199690,
      "name": "Gradišče",
      "nativeName": "Gradišče",
      "code": "SI-112-3199690",
      "countryId": 3190538,
      "countryCode": "SI",
      "stateCode": "SI-112",
      "latitude": 46.51667,
      "longitude": 15.1
    },
    {
      "id": 3217161,
      "name": "Jesenjak",
      "nativeName": "Jesenjak",
      "code": "SI-112-3217161",
      "countryId": 3190538,
      "countryCode": "SI",
      "stateCode": "SI-112",
      "latitude": 46.42944,
      "longitude": 15.11972
    },
    {
      "id": 3339118,
      "name": "Legen",
      "nativeName": "Legen",
      "code": "SI-112-3339118",
      "countryId": 3190538,
      "countryCode": "SI",
      "stateCode": "SI-112",
      "latitude": 46.50651,
      "longitude": 15.14424
    },
    {
      "id": 3195009,
      "name": "Mislinjska Dobrava",
      "nativeName": "Mislinjska Dobrava",
      "code": "SI-112-3195009",
      "countryId": 3190538,
      "countryCode": "SI",
      "stateCode": "SI-112",
      "latitude": 46.46528,
      "longitude": 15.12389
    },
    {
      "id": 3217353,
      "name": "Molak",
      "nativeName": "Molak",
      "code": "SI-112-3217353",
      "countryId": 3190538,
      "countryCode": "SI",
      "stateCode": "SI-112",
      "latitude": 46.46472,
      "longitude": 14.99306
    },
    {
      "id": 3193033,
      "name": "Podgorje",
      "nativeName": "Podgorje",
      "code": "SI-112-3193033",
      "countryId": 3190538,
      "countryCode": "SI",
      "stateCode": "SI-112",
      "latitude": 46.47194,
      "longitude": 15.08361
    },
    {
      "id": 3217155,
      "name": "Prevalnik",
      "nativeName": "Prevalnik",
      "code": "SI-112-3217155",
      "countryId": 3190538,
      "countryCode": "SI",
      "stateCode": "SI-112",
      "latitude": 46.47694,
      "longitude": 15.04556
    },
    {
      "id": 3192045,
      "name": "Raduše",
      "nativeName": "Raduše",
      "code": "SI-112-3192045",
      "countryId": 3190538,
      "countryCode": "SI",
      "stateCode": "SI-112",
      "latitude": 46.48333,
      "longitude": 15.06667
    },
    {
      "id": 3217152,
      "name": "Repnik",
      "nativeName": "Repnik",
      "code": "SI-112-3217152",
      "countryId": 3190538,
      "countryCode": "SI",
      "stateCode": "SI-112",
      "latitude": 46.47528,
      "longitude": 15.13139
    },
    {
      "id": 3191125,
      "name": "Sele",
      "nativeName": "Sele",
      "code": "SI-112-3191125",
      "countryId": 3190538,
      "countryCode": "SI",
      "stateCode": "SI-112",
      "latitude": 46.5,
      "longitude": 15.01667
    },
    {
      "id": 3190186,
      "name": "Spodnji Razbor",
      "nativeName": "Spodnji Razbor",
      "code": "SI-112-3190186",
      "countryId": 3190538,
      "countryCode": "SI",
      "stateCode": "SI-112",
      "latitude": 46.44888,
      "longitude": 15.03916
    },
    {
      "id": 3217145,
      "name": "Sredme",
      "nativeName": "Sredme",
      "code": "SI-112-3217145",
      "countryId": 3190538,
      "countryCode": "SI",
      "stateCode": "SI-112",
      "latitude": 46.46972,
      "longitude": 15.10639
    },
    {
      "id": 3189942,
      "name": "Stari Trg",
      "nativeName": "Stari Trg",
      "code": "SI-112-3189942",
      "countryId": 3190538,
      "countryCode": "SI",
      "stateCode": "SI-112",
      "latitude": 46.5,
      "longitude": 15.06667
    },
    {
      "id": 3217156,
      "name": "Suhodolnik",
      "nativeName": "Suhodolnik",
      "code": "SI-112-3217156",
      "countryId": 3190538,
      "countryCode": "SI",
      "stateCode": "SI-112",
      "latitude": 46.46639,
      "longitude": 15.02528
    },
    {
      "id": 3189356,
      "name": "Sveti Duh",
      "nativeName": "Sveti Duh",
      "code": "SI-112-3189356",
      "countryId": 3190538,
      "countryCode": "SI",
      "stateCode": "SI-112",
      "latitude": 46.46667,
      "longitude": 15.03333
    },
    {
      "id": 8989782,
      "name": "Tomaška Vas",
      "nativeName": "Tomaška Vas",
      "code": "SI-112-8989782",
      "countryId": 3190538,
      "countryCode": "SI",
      "stateCode": "SI-112",
      "latitude": 46.48072,
      "longitude": 15.12443
    },
    {
      "id": 3188765,
      "name": "Troblje",
      "nativeName": "Troblje",
      "code": "SI-112-3188765",
      "countryId": 3190538,
      "countryCode": "SI",
      "stateCode": "SI-112",
      "latitude": 46.52944,
      "longitude": 15.0875
    },
    {
      "id": 3217153,
      "name": "Turiška Vas",
      "nativeName": "Turiška Vas",
      "code": "SI-112-3217153",
      "countryId": 3190538,
      "countryCode": "SI",
      "stateCode": "SI-112",
      "latitude": 46.47015,
      "longitude": 15.13242
    },
    {
      "id": 8987773,
      "name": "Vodriž",
      "nativeName": "Vodriž",
      "code": "SI-112-8987773",
      "countryId": 3190538,
      "countryCode": "SI",
      "stateCode": "SI-112",
      "latitude": 46.44953,
      "longitude": 15.0971
    },
    {
      "id": 3187221,
      "name": "Vrhe",
      "nativeName": "Vrhe",
      "code": "SI-112-3187221",
      "countryId": 3190538,
      "countryCode": "SI",
      "stateCode": "SI-112",
      "latitude": 46.53333,
      "longitude": 15.03333
    },
    {
      "id": 3186484,
      "name": "Zgornji Razbor",
      "nativeName": "Zgornji Razbor",
      "code": "SI-112-3186484",
      "countryId": 3190538,
      "countryCode": "SI",
      "stateCode": "SI-112",
      "latitude": 46.46482,
      "longitude": 14.98991
    },
    {
      "id": 3190494,
      "name": "Šmartno pri Slovenj Gradcu",
      "nativeName": "Šmartno pri Slovenj Gradcu",
      "code": "SI-112-3190494",
      "countryId": 3190538,
      "countryCode": "SI",
      "stateCode": "SI-112",
      "latitude": 46.48944,
      "longitude": 15.10667
    },
    {
      "id": 3190484,
      "name": "Šmiklavž",
      "nativeName": "Šmiklavž",
      "code": "SI-112-3190484",
      "countryId": 3190538,
      "countryCode": "SI",
      "stateCode": "SI-112",
      "latitude": 46.45,
      "longitude": 15.13333
    },
    {
      "id": 3193659,
      "name": "Pameče",
      "nativeName": "Pameče",
      "code": "SI-112-3193659",
      "countryId": 3190538,
      "countryCode": "SI",
      "stateCode": "SI-112",
      "latitude": 46.53417,
      "longitude": 15.07917
    },
    {
      "id": 3189284,
      "name": "Sv. Primož na Pohorju",
      "nativeName": "Sv. Primož na Pohorju",
      "code": "SI-112-3189284",
      "countryId": 3190538,
      "countryCode": "SI",
      "stateCode": "SI-112",
      "latitude": 46.5497,
      "longitude": 15.16953
    }
  ]
}