{
  "stateId": 3344905,
  "stateCode": "SI-151",
  "countryCode": "SI",
  "cities": [
    {
      "id": 3203550,
      "name": "Braslovče",
      "nativeName": "Braslovče",
      "code": "SI-151-3203550",
      "countryId": 3190538,
      "countryCode": "SI",
      "stateCode": "SI-151",
      "latitude": 46.28972,
      "longitude": 15.03889
    },
    {
      "id": 8987402,
      "name": "Dobrovlje",
      "nativeName": "Dobrovlje",
      "code": "SI-151-8987402",
      "countryId": 3190538,
      "countryCode": "SI",
      "stateCode": "SI-151",
      "latitude": 46.2929,
      "longitude": 14.99111
    },
    {
      "id": 8988556,
      "name": "Glinje",
      "nativeName": "Glinje",
      "code": "SI-151-8988556",
      "countryId": 3190538,
      "countryCode": "SI",
      "stateCode": "SI-151",
      "latitude": 46.26543,
      "longitude": 15.04222
    },
    {
      "id": 3200416,
      "name": "Gomilsko",
      "nativeName": "Gomilsko",
      "code": "SI-151-3200416",
      "countryId": 3190538,
      "countryCode": "SI",
      "stateCode": "SI-151",
      "latitude": 46.25278,
      "longitude": 15.04222
    },
    {
      "id": 8987391,
      "name": "Kamenče",
      "nativeName": "Kamenče",
      "code": "SI-151-8987391",
      "countryId": 3190538,
      "countryCode": "SI",
      "stateCode": "SI-151",
      "latitude": 46.27038,
      "longitude": 15.04136
    },
    {
      "id": 3196623,
      "name": "Letuš",
      "nativeName": "Letuš",
      "code": "SI-151-3196623",
      "countryId": 3190538,
      "countryCode": "SI",
      "stateCode": "SI-151",
      "latitude": 46.31583,
      "longitude": 15.025
    },
    {
      "id": 8989479,
      "name": "Male Braslovče",
      "nativeName": "Male Braslovče",
      "code": "SI-151-8989479",
      "countryId": 3190538,
      "countryCode": "SI",
      "stateCode": "SI-151",
      "latitude": 46.30141,
      "longitude": 15.04404
    },
    {
      "id": 8986877,
      "name": "Parižlje",
      "nativeName": "Parižlje",
      "code": "SI-151-8986877",
      "countryId": 3190538,
      "countryCode": "SI",
      "stateCode": "SI-151",
      "latitude": 46.27973,
      "longitude": 15.05669
    },
    {
      "id": 8988167,
      "name": "Podgorje pri Letušu",
      "nativeName": "Podgorje pri Letušu",
      "code": "SI-151-8988167",
      "countryId": 3190538,
      "countryCode": "SI",
      "stateCode": "SI-151",
      "latitude": 46.31706,
      "longitude": 15.00828
    },
    {
      "id": 3192884,
      "name": "Podvrh",
      "nativeName": "Podvrh",
      "code": "SI-151-3192884",
      "countryId": 3190538,
      "countryCode": "SI",
      "stateCode": "SI-151",
      "latitude": 46.26667,
      "longitude": 15.01667
    },
    {
      "id": 3192801,
      "name": "Poljče",
      "nativeName": "Poljče",
      "code": "SI-151-3192801",
      "countryId": 3190538,
      "countryCode": "SI",
      "stateCode": "SI-151",
      "latitude": 46.26667,
      "longitude": 15.05
    },
    {
      "id": 8987686,
      "name": "Preserje",
      "nativeName": "Preserje",
      "code": "SI-151-8987686",
      "countryId": 3190538,
      "countryCode": "SI",
      "stateCode": "SI-151",
      "latitude": 46.29057,
      "longitude": 15.05296
    },
    {
      "id": 8986989,
      "name": "Rakovlje",
      "nativeName": "Rakovlje",
      "code": "SI-151-8986989",
      "countryId": 3190538,
      "countryCode": "SI",
      "stateCode": "SI-151",
      "latitude": 46.28314,
      "longitude": 15.04134
    },
    {
      "id": 3190223,
      "name": "Spodnje Gorče",
      "nativeName": "Spodnje Gorče",
      "code": "SI-151-3190223",
      "countryId": 3190538,
      "countryCode": "SI",
      "stateCode": "SI-151",
      "latitude": 46.27833,
      "longitude": 15.0375
    },
    {
      "id": 3217216,
      "name": "Topovlje",
      "nativeName": "Topovlje",
      "code": "SI-151-3217216",
      "countryId": 3190538,
      "countryCode": "SI",
      "stateCode": "SI-151",
      "latitude": 46.27278,
      "longitude": 15.06833
    },
    {
      "id": 8987143,
      "name": "Trnava",
      "nativeName": "Trnava",
      "code": "SI-151-8987143",
      "countryId": 3190538,
      "countryCode": "SI",
      "stateCode": "SI-151",
      "latitude": 46.25685,
      "longitude": 15.06254
    },
    {
      "id": 8988275,
      "name": "Zakl",
      "nativeName": "Zakl",
      "code": "SI-151-8988275",
      "countryId": 3190538,
      "countryCode": "SI",
      "stateCode": "SI-151",
      "latitude": 46.26357,
      "longitude": 15.05445
    },
    {
      "id": 3186515,
      "name": "Zgornje Gorče",
      "nativeName": "Zgornje Gorče",
      "code": "SI-151-3186515",
      "countryId": 3190538,
      "countryCode": "SI",
      "stateCode": "SI-151",
      "latitude": 46.29878,
      "longitude": 15.03292
    },
    {
      "id": 3191023,
      "name": "Šentrupert",
      "nativeName": "Šentrupert",
      "code": "SI-151-3191023",
      "countryId": 3190538,
      "countryCode": "SI",
      "stateCode": "SI-151",
      "latitude": 46.25,
      "longitude": 15.06667
    },
    {
      "id": 8987324,
      "name": "Šmatevž",
      "nativeName": "Šmatevž",
      "code": "SI-151-8987324",
      "countryId": 3190538,
      "countryCode": "SI",
      "stateCode": "SI-151",
      "latitude": 46.25904,
      "longitude": 15.03539
    }
  ]
}