{
  "stateId": 3344930,
  "stateCode": "SI-148",
  "countryCode": "SI",
  "cities": [
    {
      "id": 3204296,
      "name": "Benedikt",
      "nativeName": "Benedikt",
      "code": "SI-148-3204296",
      "countryId": 3190538,
      "countryCode": "SI",
      "stateCode": "SI-148",
      "latitude": 46.60861,
      "longitude": 15.88833
    },
    {
      "id": 8987295,
      "name": "Drvanja",
      "nativeName": "Drvanja",
      "code": "SI-148-8987295",
      "countryId": 3190538,
      "countryCode": "SI",
      "stateCode": "SI-148",
      "latitude": 46.63082,
      "longitude": 15.88622
    },
    {
      "id": 8988027,
      "name": "Ločki Vrh",
      "nativeName": "Ločki Vrh",
      "code": "SI-148-8988027",
      "countryId": 3190538,
      "countryCode": "SI",
      "stateCode": "SI-148",
      "latitude": 46.59524,
      "longitude": 15.91213
    },
    {
      "id": 8988978,
      "name": "Negovski Vrh",
      "nativeName": "Negovski Vrh",
      "code": "SI-148-8988978",
      "countryId": 3190538,
      "countryCode": "SI",
      "stateCode": "SI-148",
      "latitude": 46.61072,
      "longitude": 15.90968
    },
    {
      "id": 8987888,
      "name": "Obrat",
      "nativeName": "Obrat",
      "code": "SI-148-8987888",
      "countryId": 3190538,
      "countryCode": "SI",
      "stateCode": "SI-148",
      "latitude": 46.59216,
      "longitude": 15.88968
    },
    {
      "id": 8989502,
      "name": "Spodnja Bačkova",
      "nativeName": "Spodnja Bačkova",
      "code": "SI-148-8989502",
      "countryId": 3190538,
      "countryCode": "SI",
      "stateCode": "SI-148",
      "latitude": 46.63817,
      "longitude": 15.87685
    },
    {
      "id": 8989504,
      "name": "Spodnja Ročica",
      "nativeName": "Spodnja Ročica",
      "code": "SI-148-8989504",
      "countryId": 3190538,
      "countryCode": "SI",
      "stateCode": "SI-148",
      "latitude": 46.61854,
      "longitude": 15.86055
    },
    {
      "id": 8988979,
      "name": "Stara Gora",
      "nativeName": "Stara Gora",
      "code": "SI-148-8988979",
      "countryId": 3190538,
      "countryCode": "SI",
      "stateCode": "SI-148",
      "latitude": 46.59078,
      "longitude": 15.89722
    },
    {
      "id": 8988350,
      "name": "Sv. Trije Kralji v Slov. Gor.",
      "nativeName": "Sv. Trije Kralji v Slov. Gor.",
      "code": "SI-148-8988350",
      "countryId": 3190538,
      "countryCode": "SI",
      "stateCode": "SI-148",
      "latitude": 46.60373,
      "longitude": 15.8952
    },
    {
      "id": 3188742,
      "name": "Trotkova",
      "nativeName": "Trotkova",
      "code": "SI-148-3188742",
      "countryId": 3190538,
      "countryCode": "SI",
      "stateCode": "SI-148",
      "latitude": 46.59954,
      "longitude": 15.90366
    },
    {
      "id": 3188714,
      "name": "Trstenik",
      "nativeName": "Trstenik",
      "code": "SI-148-3188714",
      "countryId": 3190538,
      "countryCode": "SI",
      "stateCode": "SI-148",
      "latitude": 46.62444,
      "longitude": 15.90361
    },
    {
      "id": 3186530,
      "name": "Zgornja Ročica",
      "nativeName": "Zgornja Ročica",
      "code": "SI-148-3186530",
      "countryId": 3190538,
      "countryCode": "SI",
      "stateCode": "SI-148",
      "latitude": 46.63049,
      "longitude": 15.85527
    },
    {
      "id": 3199149,
      "name": "Ihova",
      "nativeName": "Ihova",
      "code": "SI-148-3199149",
      "countryId": 3190538,
      "countryCode": "SI",
      "stateCode": "SI-148",
      "latitude": 46.63139,
      "longitude": 15.90944
    }
  ]
}