{
  "stateId": 3189074,
  "stateCode": "SI-133",
  "countryCode": "SI",
  "cities": [
    {
      "id": 3189075,
      "name": "Velenje",
      "nativeName": "Velenje",
      "code": "SI-133-3189075",
      "countryId": 3190538,
      "countryCode": "SI",
      "stateCode": "SI-133",
      "latitude": 46.35917,
      "longitude": 15.11028
    },
    {
      "id": 3217169,
      "name": "Arnače",
      "nativeName": "Arnače",
      "code": "SI-133-3217169",
      "countryId": 3190538,
      "countryCode": "SI",
      "stateCode": "SI-133",
      "latitude": 46.33694,
      "longitude": 15.12139
    },
    {
      "id": 8987023,
      "name": "Bevče",
      "nativeName": "Bevče",
      "code": "SI-133-8987023",
      "countryId": 3190538,
      "countryCode": "SI",
      "stateCode": "SI-133",
      "latitude": 46.35636,
      "longitude": 15.14384
    },
    {
      "id": 8987005,
      "name": "Hrastovec",
      "nativeName": "Hrastovec",
      "code": "SI-133-8987005",
      "countryId": 3190538,
      "countryCode": "SI",
      "stateCode": "SI-133",
      "latitude": 46.38591,
      "longitude": 15.12032
    },
    {
      "id": 8987396,
      "name": "Janškovo Selo",
      "nativeName": "Janškovo Selo",
      "code": "SI-133-8987396",
      "countryId": 3190538,
      "countryCode": "SI",
      "stateCode": "SI-133",
      "latitude": 46.3477,
      "longitude": 15.19205
    },
    {
      "id": 8986919,
      "name": "Kavče",
      "nativeName": "Kavče",
      "code": "SI-133-8986919",
      "countryId": 3190538,
      "countryCode": "SI",
      "stateCode": "SI-133",
      "latitude": 46.34538,
      "longitude": 15.10242
    },
    {
      "id": 8986968,
      "name": "Laze",
      "nativeName": "Laze",
      "code": "SI-133-8986968",
      "countryId": 3190538,
      "countryCode": "SI",
      "stateCode": "SI-133",
      "latitude": 46.34157,
      "longitude": 15.1332
    },
    {
      "id": 8988721,
      "name": "Lopatnik",
      "nativeName": "Lopatnik",
      "code": "SI-133-8988721",
      "countryId": 3190538,
      "countryCode": "SI",
      "stateCode": "SI-133",
      "latitude": 46.35718,
      "longitude": 15.17579
    },
    {
      "id": 8989765,
      "name": "Ložnica",
      "nativeName": "Ložnica",
      "code": "SI-133-8989765",
      "countryId": 3190538,
      "countryCode": "SI",
      "stateCode": "SI-133",
      "latitude": 46.33673,
      "longitude": 15.09745
    },
    {
      "id": 3193719,
      "name": "Paka pri Velenju",
      "nativeName": "Paka pri Velenju",
      "code": "SI-133-3193719",
      "countryId": 3190538,
      "countryCode": "SI",
      "stateCode": "SI-133",
      "latitude": 46.38306,
      "longitude": 15.16333
    },
    {
      "id": 8989758,
      "name": "Paški Kozjak",
      "nativeName": "Paški Kozjak",
      "code": "SI-133-8989758",
      "countryId": 3190538,
      "countryCode": "SI",
      "stateCode": "SI-133",
      "latitude": 46.37559,
      "longitude": 15.17992
    },
    {
      "id": 8989776,
      "name": "Pirešica",
      "nativeName": "Pirešica",
      "code": "SI-133-8989776",
      "countryId": 3190538,
      "countryCode": "SI",
      "stateCode": "SI-133",
      "latitude": 46.34473,
      "longitude": 15.16152
    },
    {
      "id": 3193197,
      "name": "Plešivec",
      "nativeName": "Plešivec",
      "code": "SI-133-3193197",
      "countryId": 3190538,
      "countryCode": "SI",
      "stateCode": "SI-133",
      "latitude": 46.40917,
      "longitude": 15.105
    },
    {
      "id": 8987374,
      "name": "Podgorje",
      "nativeName": "Podgorje",
      "code": "SI-133-8987374",
      "countryId": 3190538,
      "countryCode": "SI",
      "stateCode": "SI-133",
      "latitude": 46.36028,
      "longitude": 15.075
    },
    {
      "id": 3192990,
      "name": "Podkraj pri Velenju",
      "nativeName": "Podkraj pri Velenju",
      "code": "SI-133-3192990",
      "countryId": 3190538,
      "countryCode": "SI",
      "stateCode": "SI-133",
      "latitude": 46.3525,
      "longitude": 15.08917
    },
    {
      "id": 8987120,
      "name": "Prelska",
      "nativeName": "Prelska",
      "code": "SI-133-8987120",
      "countryId": 3190538,
      "countryCode": "SI",
      "stateCode": "SI-133",
      "latitude": 46.33593,
      "longitude": 15.18577
    },
    {
      "id": 3217170,
      "name": "Salek",
      "nativeName": "Salek",
      "code": "SI-133-3217170",
      "countryId": 3190538,
      "countryCode": "SI",
      "stateCode": "SI-133",
      "latitude": 46.36444,
      "longitude": 15.12722
    },
    {
      "id": 8987279,
      "name": "Silova",
      "nativeName": "Silova",
      "code": "SI-133-8987279",
      "countryId": 3190538,
      "countryCode": "SI",
      "stateCode": "SI-133",
      "latitude": 46.32603,
      "longitude": 15.1215
    },
    {
      "id": 8986996,
      "name": "Vinska Gora",
      "nativeName": "Vinska Gora",
      "code": "SI-133-8986996",
      "countryId": 3190538,
      "countryCode": "SI",
      "stateCode": "SI-133",
      "latitude": 46.34105,
      "longitude": 15.1728
    },
    {
      "id": 3217168,
      "name": "Črnova",
      "nativeName": "Črnova",
      "code": "SI-133-3217168",
      "countryId": 3190538,
      "countryCode": "SI",
      "stateCode": "SI-133",
      "latitude": 46.33,
      "longitude": 15.17639
    },
    {
      "id": 8987409,
      "name": "Šenbric",
      "nativeName": "Šenbric",
      "code": "SI-133-8987409",
      "countryId": 3190538,
      "countryCode": "SI",
      "stateCode": "SI-133",
      "latitude": 46.38059,
      "longitude": 15.1326
    },
    {
      "id": 3190747,
      "name": "Škale",
      "nativeName": "Škale",
      "code": "SI-133-3190747",
      "countryId": 3190538,
      "countryCode": "SI",
      "stateCode": "SI-133",
      "latitude": 46.3756,
      "longitude": 15.10466
    },
    {
      "id": 8987428,
      "name": "Škalske Cirkovce",
      "nativeName": "Škalske Cirkovce",
      "code": "SI-133-8987428",
      "countryId": 3190538,
      "countryCode": "SI",
      "stateCode": "SI-133",
      "latitude": 46.39799,
      "longitude": 15.13118
    },
    {
      "id": 8989828,
      "name": "Šmartinske Cirkovce",
      "nativeName": "Šmartinske Cirkovce",
      "code": "SI-133-8989828",
      "countryId": 3190538,
      "countryCode": "SI",
      "stateCode": "SI-133",
      "latitude": 46.39586,
      "longitude": 15.15243
    }
  ]
}