{
  "stateId": 3344902,
  "stateCode": "SI-175",
  "countryCode": "SI",
  "cities": [
    {
      "id": 3192484,
      "name": "Prevalje",
      "nativeName": "Prevalje",
      "code": "SI-175-3192484",
      "countryId": 3190538,
      "countryCode": "SI",
      "stateCode": "SI-175",
      "latitude": 46.54694,
      "longitude": 14.92083
    },
    {
      "id": 8988276,
      "name": "Belšak",
      "nativeName": "Belšak",
      "code": "SI-175-8988276",
      "countryId": 3190538,
      "countryCode": "SI",
      "stateCode": "SI-175",
      "latitude": 46.58059,
      "longitude": 14.8562
    },
    {
      "id": 8987439,
      "name": "Breznica",
      "nativeName": "Breznica",
      "code": "SI-175-8987439",
      "countryId": 3190538,
      "countryCode": "SI",
      "stateCode": "SI-175",
      "latitude": 46.55822,
      "longitude": 14.9084
    },
    {
      "id": 8987015,
      "name": "Dolga Brda",
      "nativeName": "Dolga Brda",
      "code": "SI-175-8987015",
      "countryId": 3190538,
      "countryCode": "SI",
      "stateCode": "SI-175",
      "latitude": 46.55975,
      "longitude": 14.86544
    },
    {
      "id": 3186541,
      "name": "Jamnica",
      "nativeName": "Jamnica",
      "code": "SI-175-3186541",
      "countryId": 3190538,
      "countryCode": "SI",
      "stateCode": "SI-175",
      "latitude": 46.6,
      "longitude": 14.88333
    },
    {
      "id": 3218540,
      "name": "Kot pri Prevaljah",
      "nativeName": "Kot pri Prevaljah",
      "code": "SI-175-3218540",
      "countryId": 3190538,
      "countryCode": "SI",
      "stateCode": "SI-175",
      "latitude": 46.51361,
      "longitude": 14.92778
    },
    {
      "id": 8986893,
      "name": "Leše",
      "nativeName": "Leše",
      "code": "SI-175-8986893",
      "countryId": 3190538,
      "countryCode": "SI",
      "stateCode": "SI-175",
      "latitude": 46.52846,
      "longitude": 14.89385
    },
    {
      "id": 8987444,
      "name": "Lokovica",
      "nativeName": "Lokovica",
      "code": "SI-175-8987444",
      "countryId": 3190538,
      "countryCode": "SI",
      "stateCode": "SI-175",
      "latitude": 46.55429,
      "longitude": 14.84523
    },
    {
      "id": 3192991,
      "name": "Podkraj",
      "nativeName": "Podkraj",
      "code": "SI-175-3192991",
      "countryId": 3190538,
      "countryCode": "SI",
      "stateCode": "SI-175",
      "latitude": 46.51667,
      "longitude": 14.95
    },
    {
      "id": 3192826,
      "name": "Poljana",
      "nativeName": "Poljana",
      "code": "SI-175-3192826",
      "countryId": 3190538,
      "countryCode": "SI",
      "stateCode": "SI-175",
      "latitude": 46.54528,
      "longitude": 14.87306
    },
    {
      "id": 3189551,
      "name": "Suhi Vrh",
      "nativeName": "Suhi Vrh",
      "code": "SI-175-3189551",
      "countryId": 3190538,
      "countryCode": "SI",
      "stateCode": "SI-175",
      "latitude": 46.58333,
      "longitude": 14.9
    },
    {
      "id": 8987507,
      "name": "Zagrad",
      "nativeName": "Zagrad",
      "code": "SI-175-8987507",
      "countryId": 3190538,
      "countryCode": "SI",
      "stateCode": "SI-175",
      "latitude": 46.53332,
      "longitude": 14.92757
    },
    {
      "id": 3186620,
      "name": "Zelen Breg",
      "nativeName": "Zelen Breg",
      "code": "SI-175-3186620",
      "countryId": 3190538,
      "countryCode": "SI",
      "stateCode": "SI-175",
      "latitude": 46.57978,
      "longitude": 14.93545
    },
    {
      "id": 3191041,
      "name": "Šentanel",
      "nativeName": "Šentanel",
      "code": "SI-175-3191041",
      "countryId": 3190538,
      "countryCode": "SI",
      "stateCode": "SI-175",
      "latitude": 46.56667,
      "longitude": 14.88333
    }
  ]
}