{
  "stateId": 3239062,
  "stateCode": "SI-134",
  "countryCode": "SI",
  "cities": [
    {
      "id": 3188128,
      "name": "Velike Lašče",
      "nativeName": "Velike Lašče",
      "code": "SI-134-3188128",
      "countryId": 3190538,
      "countryCode": "SI",
      "stateCode": "SI-134",
      "latitude": 45.83222,
      "longitude": 14.63639
    },
    {
      "id": 8989281,
      "name": "Adamovo",
      "nativeName": "Adamovo",
      "code": "SI-134-8989281",
      "countryId": 3190538,
      "countryCode": "SI",
      "stateCode": "SI-134",
      "latitude": 45.82327,
      "longitude": 14.60685
    },
    {
      "id": 3218720,
      "name": "Bane",
      "nativeName": "Bane",
      "code": "SI-134-3218720",
      "countryId": 3190538,
      "countryCode": "SI",
      "stateCode": "SI-134",
      "latitude": 45.82194,
      "longitude": 14.56633
    },
    {
      "id": 8988886,
      "name": "Bavdek",
      "nativeName": "Bavdek",
      "code": "SI-134-8988886",
      "countryId": 3190538,
      "countryCode": "SI",
      "stateCode": "SI-134",
      "latitude": 45.83708,
      "longitude": 14.57574
    },
    {
      "id": 8989666,
      "name": "Borovec pri Karlovici",
      "nativeName": "Borovec pri Karlovici",
      "code": "SI-134-8989666",
      "countryId": 3190538,
      "countryCode": "SI",
      "stateCode": "SI-134",
      "latitude": 45.79833,
      "longitude": 14.58547
    },
    {
      "id": 8989335,
      "name": "Boštetje",
      "nativeName": "Boštetje",
      "code": "SI-134-8989335",
      "countryId": 3190538,
      "countryCode": "SI",
      "stateCode": "SI-134",
      "latitude": 45.81892,
      "longitude": 14.54823
    },
    {
      "id": 8989632,
      "name": "Brankovo",
      "nativeName": "Brankovo",
      "code": "SI-134-8989632",
      "countryId": 3190538,
      "countryCode": "SI",
      "stateCode": "SI-134",
      "latitude": 45.83042,
      "longitude": 14.60063
    },
    {
      "id": 10942534,
      "name": "Brlog",
      "nativeName": "Brlog",
      "code": "SI-134-10942534",
      "countryId": 3190538,
      "countryCode": "SI",
      "stateCode": "SI-134",
      "latitude": 45.79841,
      "longitude": 14.56538
    },
    {
      "id": 8989374,
      "name": "Bukovec",
      "nativeName": "Bukovec",
      "code": "SI-134-8989374",
      "countryId": 3190538,
      "countryCode": "SI",
      "stateCode": "SI-134",
      "latitude": 45.85082,
      "longitude": 14.51015
    },
    {
      "id": 8989244,
      "name": "Centa",
      "nativeName": "Centa",
      "code": "SI-134-8989244",
      "countryId": 3190538,
      "countryCode": "SI",
      "stateCode": "SI-134",
      "latitude": 45.85768,
      "longitude": 14.55344
    },
    {
      "id": 8989098,
      "name": "Dednik",
      "nativeName": "Dednik",
      "code": "SI-134-8989098",
      "countryId": 3190538,
      "countryCode": "SI",
      "stateCode": "SI-134",
      "latitude": 45.83743,
      "longitude": 14.55439
    },
    {
      "id": 8989678,
      "name": "Dolenje Kališče",
      "nativeName": "Dolenje Kališče",
      "code": "SI-134-8989678",
      "countryId": 3190538,
      "countryCode": "SI",
      "stateCode": "SI-134",
      "latitude": 45.81535,
      "longitude": 14.58703
    },
    {
      "id": 3201770,
      "name": "Dolnje Retje",
      "nativeName": "Dolnje Retje",
      "code": "SI-134-3201770",
      "countryId": 3190538,
      "countryCode": "SI",
      "stateCode": "SI-134",
      "latitude": 45.82083,
      "longitude": 14.65056
    },
    {
      "id": 8988071,
      "name": "Dolščaki",
      "nativeName": "Dolščaki",
      "code": "SI-134-8988071",
      "countryId": 3190538,
      "countryCode": "SI",
      "stateCode": "SI-134",
      "latitude": 45.84671,
      "longitude": 14.58123
    },
    {
      "id": 3200906,
      "name": "Dvorska Vas",
      "nativeName": "Dvorska Vas",
      "code": "SI-134-3200906",
      "countryId": 3190538,
      "countryCode": "SI",
      "stateCode": "SI-134",
      "latitude": 45.80972,
      "longitude": 14.63583
    },
    {
      "id": 8989358,
      "name": "Gorenje Kališče",
      "nativeName": "Gorenje Kališče",
      "code": "SI-134-8989358",
      "countryId": 3190538,
      "countryCode": "SI",
      "stateCode": "SI-134",
      "latitude": 45.8177,
      "longitude": 14.57771
    },
    {
      "id": 3200083,
      "name": "Gornje Retje",
      "nativeName": "Gornje Retje",
      "code": "SI-134-3200083",
      "countryId": 3190538,
      "countryCode": "SI",
      "stateCode": "SI-134",
      "latitude": 45.81806,
      "longitude": 14.65611
    },
    {
      "id": 8987249,
      "name": "Gradež",
      "nativeName": "Gradež",
      "code": "SI-134-8987249",
      "countryId": 3190538,
      "countryCode": "SI",
      "stateCode": "SI-134",
      "latitude": 45.87834,
      "longitude": 14.62776
    },
    {
      "id": 8989649,
      "name": "Gradišče",
      "nativeName": "Gradišče",
      "code": "SI-134-8989649",
      "countryId": 3190538,
      "countryCode": "SI",
      "stateCode": "SI-134",
      "latitude": 45.84321,
      "longitude": 14.57439
    },
    {
      "id": 8989164,
      "name": "Grm",
      "nativeName": "Grm",
      "code": "SI-134-8989164",
      "countryId": 3190538,
      "countryCode": "SI",
      "stateCode": "SI-134",
      "latitude": 45.84567,
      "longitude": 14.61649
    },
    {
      "id": 8988665,
      "name": "Hlebče",
      "nativeName": "Hlebče",
      "code": "SI-134-8988665",
      "countryId": 3190538,
      "countryCode": "SI",
      "stateCode": "SI-134",
      "latitude": 45.84448,
      "longitude": 14.60963
    },
    {
      "id": 8988709,
      "name": "Hrustovo",
      "nativeName": "Hrustovo",
      "code": "SI-134-8988709",
      "countryId": 3190538,
      "countryCode": "SI",
      "stateCode": "SI-134",
      "latitude": 45.84044,
      "longitude": 14.60608
    },
    {
      "id": 8988996,
      "name": "Jakičevo",
      "nativeName": "Jakičevo",
      "code": "SI-134-8988996",
      "countryId": 3190538,
      "countryCode": "SI",
      "stateCode": "SI-134",
      "latitude": 45.84195,
      "longitude": 14.61505
    },
    {
      "id": 8989904,
      "name": "Javorje",
      "nativeName": "Javorje",
      "code": "SI-134-8989904",
      "countryId": 3190538,
      "countryCode": "SI",
      "stateCode": "SI-134",
      "latitude": 45.86546,
      "longitude": 14.59779
    },
    {
      "id": 8988933,
      "name": "Kaplanovo",
      "nativeName": "Kaplanovo",
      "code": "SI-134-8988933",
      "countryId": 3190538,
      "countryCode": "SI",
      "stateCode": "SI-134",
      "latitude": 45.82126,
      "longitude": 14.59369
    },
    {
      "id": 8988585,
      "name": "Karlovica",
      "nativeName": "Karlovica",
      "code": "SI-134-8988585",
      "countryId": 3190538,
      "countryCode": "SI",
      "stateCode": "SI-134",
      "latitude": 45.80877,
      "longitude": 14.60629
    },
    {
      "id": 8988536,
      "name": "Knej",
      "nativeName": "Knej",
      "code": "SI-134-8988536",
      "countryId": 3190538,
      "countryCode": "SI",
      "stateCode": "SI-134",
      "latitude": 45.84572,
      "longitude": 14.59568
    },
    {
      "id": 8989282,
      "name": "Kot pri Veliki Slevici",
      "nativeName": "Kot pri Veliki Slevici",
      "code": "SI-134-8989282",
      "countryId": 3190538,
      "countryCode": "SI",
      "stateCode": "SI-134",
      "latitude": 45.8118,
      "longitude": 14.61656
    },
    {
      "id": 8989197,
      "name": "Krkovo pri Karlovici",
      "nativeName": "Krkovo pri Karlovici",
      "code": "SI-134-8989197",
      "countryId": 3190538,
      "countryCode": "SI",
      "stateCode": "SI-134",
      "latitude": 45.81473,
      "longitude": 14.60128
    },
    {
      "id": 3197050,
      "name": "Krvava Peč",
      "nativeName": "Krvava Peč",
      "code": "SI-134-3197050",
      "countryId": 3190538,
      "countryCode": "SI",
      "stateCode": "SI-134",
      "latitude": 45.86583,
      "longitude": 14.51472
    },
    {
      "id": 8988537,
      "name": "Kukmaka",
      "nativeName": "Kukmaka",
      "code": "SI-134-8988537",
      "countryId": 3190538,
      "countryCode": "SI",
      "stateCode": "SI-134",
      "latitude": 45.84818,
      "longitude": 14.61907
    },
    {
      "id": 8988627,
      "name": "Laporje",
      "nativeName": "Laporje",
      "code": "SI-134-8988627",
      "countryId": 3190538,
      "countryCode": "SI",
      "stateCode": "SI-134",
      "latitude": 45.86896,
      "longitude": 14.62452
    },
    {
      "id": 8989145,
      "name": "Laze",
      "nativeName": "Laze",
      "code": "SI-134-8989145",
      "countryId": 3190538,
      "countryCode": "SI",
      "stateCode": "SI-134",
      "latitude": 45.85721,
      "longitude": 14.58018
    },
    {
      "id": 8988825,
      "name": "Logarji",
      "nativeName": "Logarji",
      "code": "SI-134-8988825",
      "countryId": 3190538,
      "countryCode": "SI",
      "stateCode": "SI-134",
      "latitude": 45.82684,
      "longitude": 14.5897
    },
    {
      "id": 3195997,
      "name": "Lužarji",
      "nativeName": "Lužarji",
      "code": "SI-134-3195997",
      "countryId": 3190538,
      "countryCode": "SI",
      "stateCode": "SI-134",
      "latitude": 45.79972,
      "longitude": 14.56417
    },
    {
      "id": 3195794,
      "name": "Mala Slevica",
      "nativeName": "Mala Slevica",
      "code": "SI-134-3195794",
      "countryId": 3190538,
      "countryCode": "SI",
      "stateCode": "SI-134",
      "latitude": 45.80972,
      "longitude": 14.62778
    },
    {
      "id": 8987095,
      "name": "Male Lašče",
      "nativeName": "Male Lašče",
      "code": "SI-134-8987095",
      "countryId": 3190538,
      "countryCode": "SI",
      "stateCode": "SI-134",
      "latitude": 45.84279,
      "longitude": 14.63069
    },
    {
      "id": 3195646,
      "name": "Mali Osolnik",
      "nativeName": "Mali Osolnik",
      "code": "SI-134-3195646",
      "countryId": 3190538,
      "countryCode": "SI",
      "stateCode": "SI-134",
      "latitude": 45.86028,
      "longitude": 14.605
    },
    {
      "id": 8988997,
      "name": "Marinčki",
      "nativeName": "Marinčki",
      "code": "SI-134-8988997",
      "countryId": 3190538,
      "countryCode": "SI",
      "stateCode": "SI-134",
      "latitude": 45.83297,
      "longitude": 14.58695
    },
    {
      "id": 3218721,
      "name": "Mački",
      "nativeName": "Mački",
      "code": "SI-134-3218721",
      "countryId": 3190538,
      "countryCode": "SI",
      "stateCode": "SI-134",
      "latitude": 45.84917,
      "longitude": 14.54639
    },
    {
      "id": 8989099,
      "name": "Medvedjek",
      "nativeName": "Medvedjek",
      "code": "SI-134-8989099",
      "countryId": 3190538,
      "countryCode": "SI",
      "stateCode": "SI-134",
      "latitude": 45.81833,
      "longitude": 14.63152
    },
    {
      "id": 8989165,
      "name": "Mohorje",
      "nativeName": "Mohorje",
      "code": "SI-134-8989165",
      "countryId": 3190538,
      "countryCode": "SI",
      "stateCode": "SI-134",
      "latitude": 45.82284,
      "longitude": 14.5413
    },
    {
      "id": 3194585,
      "name": "Naredi",
      "nativeName": "Naredi",
      "code": "SI-134-3194585",
      "countryId": 3190538,
      "countryCode": "SI",
      "stateCode": "SI-134",
      "latitude": 45.81472,
      "longitude": 14.5525
    },
    {
      "id": 8988913,
      "name": "Opalkovo",
      "nativeName": "Opalkovo",
      "code": "SI-134-8988913",
      "countryId": 3190538,
      "countryCode": "SI",
      "stateCode": "SI-134",
      "latitude": 45.8356,
      "longitude": 14.60198
    },
    {
      "id": 8989583,
      "name": "Osredek",
      "nativeName": "Osredek",
      "code": "SI-134-8989583",
      "countryId": 3190538,
      "countryCode": "SI",
      "stateCode": "SI-134",
      "latitude": 45.86172,
      "longitude": 14.5637
    },
    {
      "id": 8989665,
      "name": "Pečki",
      "nativeName": "Pečki",
      "code": "SI-134-8989665",
      "countryId": 3190538,
      "countryCode": "SI",
      "stateCode": "SI-134",
      "latitude": 45.85258,
      "longitude": 14.55663
    },
    {
      "id": 8989336,
      "name": "Plosovo",
      "nativeName": "Plosovo",
      "code": "SI-134-8989336",
      "countryId": 3190538,
      "countryCode": "SI",
      "stateCode": "SI-134",
      "latitude": 45.80285,
      "longitude": 14.60642
    },
    {
      "id": 8988628,
      "name": "Podhojni Hrib",
      "nativeName": "Podhojni Hrib",
      "code": "SI-134-8988628",
      "countryId": 3190538,
      "countryCode": "SI",
      "stateCode": "SI-134",
      "latitude": 45.85421,
      "longitude": 14.56979
    },
    {
      "id": 8989146,
      "name": "Podkogelj",
      "nativeName": "Podkogelj",
      "code": "SI-134-8989146",
      "countryId": 3190538,
      "countryCode": "SI",
      "stateCode": "SI-134",
      "latitude": 45.81133,
      "longitude": 14.59783
    },
    {
      "id": 8989147,
      "name": "Podkraj",
      "nativeName": "Podkraj",
      "code": "SI-134-8989147",
      "countryId": 3190538,
      "countryCode": "SI",
      "stateCode": "SI-134",
      "latitude": 45.81666,
      "longitude": 14.64708
    },
    {
      "id": 8988847,
      "name": "Podlog",
      "nativeName": "Podlog",
      "code": "SI-134-8988847",
      "countryId": 3190538,
      "countryCode": "SI",
      "stateCode": "SI-134",
      "latitude": 45.84981,
      "longitude": 14.60729
    },
    {
      "id": 8989018,
      "name": "Podsmreka pri Velikih Laščah",
      "nativeName": "Podsmreka pri Velikih Laščah",
      "code": "SI-134-8989018",
      "countryId": 3190538,
      "countryCode": "SI",
      "stateCode": "SI-134",
      "latitude": 45.8271,
      "longitude": 14.60792
    },
    {
      "id": 3192907,
      "name": "Podstrmec",
      "nativeName": "Podstrmec",
      "code": "SI-134-3192907",
      "countryId": 3190538,
      "countryCode": "SI",
      "stateCode": "SI-134",
      "latitude": 45.80611,
      "longitude": 14.57333
    },
    {
      "id": 8989883,
      "name": "Podulaka",
      "nativeName": "Podulaka",
      "code": "SI-134-8989883",
      "countryId": 3190538,
      "countryCode": "SI",
      "stateCode": "SI-134",
      "latitude": 45.83599,
      "longitude": 14.61317
    },
    {
      "id": 3192881,
      "name": "Podžaga",
      "nativeName": "Podžaga",
      "code": "SI-134-3192881",
      "countryId": 3190538,
      "countryCode": "SI",
      "stateCode": "SI-134",
      "latitude": 45.8025,
      "longitude": 14.59667
    },
    {
      "id": 8989400,
      "name": "Polzelo",
      "nativeName": "Polzelo",
      "code": "SI-134-8989400",
      "countryId": 3190538,
      "countryCode": "SI",
      "stateCode": "SI-134",
      "latitude": 45.81824,
      "longitude": 14.60606
    },
    {
      "id": 8989047,
      "name": "Poznikovo",
      "nativeName": "Poznikovo",
      "code": "SI-134-8989047",
      "countryId": 3190538,
      "countryCode": "SI",
      "stateCode": "SI-134",
      "latitude": 45.80595,
      "longitude": 14.61037
    },
    {
      "id": 8989019,
      "name": "Prazniki",
      "nativeName": "Prazniki",
      "code": "SI-134-8989019",
      "countryId": 3190538,
      "countryCode": "SI",
      "stateCode": "SI-134",
      "latitude": 45.8682,
      "longitude": 14.60825
    },
    {
      "id": 8989221,
      "name": "Prhajevo",
      "nativeName": "Prhajevo",
      "code": "SI-134-8989221",
      "countryId": 3190538,
      "countryCode": "SI",
      "stateCode": "SI-134",
      "latitude": 45.83915,
      "longitude": 14.6197
    },
    {
      "id": 8988258,
      "name": "Prilesje",
      "nativeName": "Prilesje",
      "code": "SI-134-8988258",
      "countryId": 3190538,
      "countryCode": "SI",
      "stateCode": "SI-134",
      "latitude": 45.81997,
      "longitude": 14.6697
    },
    {
      "id": 8988976,
      "name": "Purkače",
      "nativeName": "Purkače",
      "code": "SI-134-8988976",
      "countryId": 3190538,
      "countryCode": "SI",
      "stateCode": "SI-134",
      "latitude": 45.86495,
      "longitude": 14.5454
    },
    {
      "id": 8988415,
      "name": "Pušče",
      "nativeName": "Pušče",
      "code": "SI-134-8988415",
      "countryId": 3190538,
      "countryCode": "SI",
      "stateCode": "SI-134",
      "latitude": 45.8432,
      "longitude": 14.62402
    },
    {
      "id": 3186234,
      "name": "Rašica",
      "nativeName": "Rašica",
      "code": "SI-134-3186234",
      "countryId": 3190538,
      "countryCode": "SI",
      "stateCode": "SI-134",
      "latitude": 45.855,
      "longitude": 14.62639
    },
    {
      "id": 3191951,
      "name": "Rašića",
      "nativeName": "Rašića",
      "code": "SI-134-3191951",
      "countryId": 3190538,
      "countryCode": "SI",
      "stateCode": "SI-134",
      "latitude": 45.87722,
      "longitude": 14.61333
    },
    {
      "id": 3191605,
      "name": "Rob",
      "nativeName": "Rob",
      "code": "SI-134-3191605",
      "countryId": 3190538,
      "countryCode": "SI",
      "stateCode": "SI-134",
      "latitude": 45.84861,
      "longitude": 14.57222
    },
    {
      "id": 3191408,
      "name": "Rupe",
      "nativeName": "Rupe",
      "code": "SI-134-3191408",
      "countryId": 3190538,
      "countryCode": "SI",
      "stateCode": "SI-134",
      "latitude": 45.82806,
      "longitude": 14.54639
    },
    {
      "id": 3218723,
      "name": "Sekirišče",
      "nativeName": "Sekirišče",
      "code": "SI-134-3218723",
      "countryId": 3190538,
      "countryCode": "SI",
      "stateCode": "SI-134",
      "latitude": 45.86444,
      "longitude": 14.53833
    },
    {
      "id": 8988710,
      "name": "Selo pri Robu",
      "nativeName": "Selo pri Robu",
      "code": "SI-134-8988710",
      "countryId": 3190538,
      "countryCode": "SI",
      "stateCode": "SI-134",
      "latitude": 45.83465,
      "longitude": 14.53021
    },
    {
      "id": 8989316,
      "name": "Sloka Gora",
      "nativeName": "Sloka Gora",
      "code": "SI-134-8989316",
      "countryId": 3190538,
      "countryCode": "SI",
      "stateCode": "SI-134",
      "latitude": 45.89163,
      "longitude": 14.61993
    },
    {
      "id": 8989268,
      "name": "Srnjak",
      "nativeName": "Srnjak",
      "code": "SI-134-8989268",
      "countryId": 3190538,
      "countryCode": "SI",
      "stateCode": "SI-134",
      "latitude": 45.86516,
      "longitude": 14.58228
    },
    {
      "id": 8988376,
      "name": "Srobotnik pri Vel. Laščah",
      "nativeName": "Srobotnik pri Vel. Laščah",
      "code": "SI-134-8988376",
      "countryId": 3190538,
      "countryCode": "SI",
      "stateCode": "SI-134",
      "latitude": 45.82574,
      "longitude": 14.64731
    },
    {
      "id": 3189802,
      "name": "Stope",
      "nativeName": "Stope",
      "code": "SI-134-3189802",
      "countryId": 3190538,
      "countryCode": "SI",
      "stateCode": "SI-134",
      "latitude": 45.83861,
      "longitude": 14.60278
    },
    {
      "id": 8988553,
      "name": "Strletje",
      "nativeName": "Strletje",
      "code": "SI-134-8988553",
      "countryId": 3190538,
      "countryCode": "SI",
      "stateCode": "SI-134",
      "latitude": 45.8487,
      "longitude": 14.55163
    },
    {
      "id": 8989337,
      "name": "Strmec",
      "nativeName": "Strmec",
      "code": "SI-134-8989337",
      "countryId": 3190538,
      "countryCode": "SI",
      "stateCode": "SI-134",
      "latitude": 45.82152,
      "longitude": 14.63885
    },
    {
      "id": 8988796,
      "name": "Tomažini",
      "nativeName": "Tomažini",
      "code": "SI-134-8988796",
      "countryId": 3190538,
      "countryCode": "SI",
      "stateCode": "SI-134",
      "latitude": 45.83801,
      "longitude": 14.58465
    },
    {
      "id": 3188618,
      "name": "Turjak",
      "nativeName": "Turjak",
      "code": "SI-134-3188618",
      "countryId": 3190538,
      "countryCode": "SI",
      "stateCode": "SI-134",
      "latitude": 45.87889,
      "longitude": 14.61528
    },
    {
      "id": 3188518,
      "name": "Ulaka",
      "nativeName": "Ulaka",
      "code": "SI-134-3188518",
      "countryId": 3190538,
      "countryCode": "SI",
      "stateCode": "SI-134",
      "latitude": 45.83056,
      "longitude": 14.61778
    },
    {
      "id": 8989100,
      "name": "Uzmani",
      "nativeName": "Uzmani",
      "code": "SI-134-8989100",
      "countryId": 3190538,
      "countryCode": "SI",
      "stateCode": "SI-134",
      "latitude": 45.8516,
      "longitude": 14.52944
    },
    {
      "id": 3188166,
      "name": "Velika Slevica",
      "nativeName": "Velika Slevica",
      "code": "SI-134-3188166",
      "countryId": 3190538,
      "countryCode": "SI",
      "stateCode": "SI-134",
      "latitude": 45.81472,
      "longitude": 14.61639
    },
    {
      "id": 3188041,
      "name": "Veliki Ločnik",
      "nativeName": "Veliki Ločnik",
      "code": "SI-134-3188041",
      "countryId": 3190538,
      "countryCode": "SI",
      "stateCode": "SI-134",
      "latitude": 45.9,
      "longitude": 14.60222
    },
    {
      "id": 3188026,
      "name": "Veliki Osolnik",
      "nativeName": "Veliki Osolnik",
      "code": "SI-134-3188026",
      "countryId": 3190538,
      "countryCode": "SI",
      "stateCode": "SI-134",
      "latitude": 45.85417,
      "longitude": 14.59778
    },
    {
      "id": 8989901,
      "name": "Vrh",
      "nativeName": "Vrh",
      "code": "SI-134-8989901",
      "countryId": 3190538,
      "countryCode": "SI",
      "stateCode": "SI-134",
      "latitude": 45.82573,
      "longitude": 14.54955
    },
    {
      "id": 3186552,
      "name": "Zgonče",
      "nativeName": "Zgonče",
      "code": "SI-134-3186552",
      "countryId": 3190538,
      "countryCode": "SI",
      "stateCode": "SI-134",
      "latitude": 45.83167,
      "longitude": 14.58611
    },
    {
      "id": 8988887,
      "name": "Četež pri Turjaku",
      "nativeName": "Četež pri Turjaku",
      "code": "SI-134-8988887",
      "countryId": 3190538,
      "countryCode": "SI",
      "stateCode": "SI-134",
      "latitude": 45.87297,
      "longitude": 14.5944
    },
    {
      "id": 8989298,
      "name": "Škamevec",
      "nativeName": "Škamevec",
      "code": "SI-134-8989298",
      "countryId": 3190538,
      "countryCode": "SI",
      "stateCode": "SI-134",
      "latitude": 45.86172,
      "longitude": 14.58424
    },
    {
      "id": 8989603,
      "name": "Škrlovica",
      "nativeName": "Škrlovica",
      "code": "SI-134-8989603",
      "countryId": 3190538,
      "countryCode": "SI",
      "stateCode": "SI-134",
      "latitude": 45.80766,
      "longitude": 14.65028
    },
    {
      "id": 8989283,
      "name": "Ščurki",
      "nativeName": "Ščurki",
      "code": "SI-134-8989283",
      "countryId": 3190538,
      "countryCode": "SI",
      "stateCode": "SI-134",
      "latitude": 45.88178,
      "longitude": 14.5934
    },
    {
      "id": 8989166,
      "name": "Žaga",
      "nativeName": "Žaga",
      "code": "SI-134-8989166",
      "countryId": 3190538,
      "countryCode": "SI",
      "stateCode": "SI-134",
      "latitude": 45.80776,
      "longitude": 14.58809
    }
  ]
}