{
  "stateId": 3344900,
  "stateCode": "SI-179",
  "countryCode": "SI",
  "cities": [
    {
      "id": 3190391,
      "name": "Sodražica",
      "nativeName": "Sodražica",
      "code": "SI-179-3190391",
      "countryId": 3190538,
      "countryCode": "SI",
      "stateCode": "SI-179",
      "latitude": 45.76111,
      "longitude": 14.63556
    },
    {
      "id": 8989379,
      "name": "Betonovo",
      "nativeName": "Betonovo",
      "code": "SI-179-8989379",
      "countryId": 3190538,
      "countryCode": "SI",
      "stateCode": "SI-179",
      "latitude": 45.74659,
      "longitude": 14.57762
    },
    {
      "id": 10942596,
      "name": "Brlog 2",
      "nativeName": "Brlog 2",
      "code": "SI-179-10942596",
      "countryId": 3190538,
      "countryCode": "SI",
      "stateCode": "SI-179",
      "latitude": 45.78674,
      "longitude": 14.55894
    },
    {
      "id": 3200585,
      "name": "Globel",
      "nativeName": "Globel",
      "code": "SI-179-3200585",
      "countryId": 3190538,
      "countryCode": "SI",
      "stateCode": "SI-179",
      "latitude": 45.76056,
      "longitude": 14.60028
    },
    {
      "id": 8989224,
      "name": "Janeži",
      "nativeName": "Janeži",
      "code": "SI-179-8989224",
      "countryId": 3190538,
      "countryCode": "SI",
      "stateCode": "SI-179",
      "latitude": 45.75672,
      "longitude": 14.59157
    },
    {
      "id": 8988430,
      "name": "Jelovec",
      "nativeName": "Jelovec",
      "code": "SI-179-8988430",
      "countryId": 3190538,
      "countryCode": "SI",
      "stateCode": "SI-179",
      "latitude": 45.76609,
      "longitude": 14.61381
    },
    {
      "id": 8989392,
      "name": "Kotel",
      "nativeName": "Kotel",
      "code": "SI-179-8989392",
      "countryId": 3190538,
      "countryCode": "SI",
      "stateCode": "SI-179",
      "latitude": 45.78498,
      "longitude": 14.55328
    },
    {
      "id": 8988667,
      "name": "Kračali",
      "nativeName": "Kračali",
      "code": "SI-179-8988667",
      "countryId": 3190538,
      "countryCode": "SI",
      "stateCode": "SI-179",
      "latitude": 45.75402,
      "longitude": 14.58172
    },
    {
      "id": 8988460,
      "name": "Kržeti",
      "nativeName": "Kržeti",
      "code": "SI-179-8988460",
      "countryId": 3190538,
      "countryCode": "SI",
      "stateCode": "SI-179",
      "latitude": 45.7388,
      "longitude": 14.6086
    },
    {
      "id": 3196487,
      "name": "Lipovšica",
      "nativeName": "Lipovšica",
      "code": "SI-179-3196487",
      "countryId": 3190538,
      "countryCode": "SI",
      "stateCode": "SI-179",
      "latitude": 45.74778,
      "longitude": 14.66306
    },
    {
      "id": 8989341,
      "name": "Nova Štifta",
      "nativeName": "Nova Štifta",
      "code": "SI-179-8989341",
      "countryId": 3190538,
      "countryCode": "SI",
      "stateCode": "SI-179",
      "latitude": 45.74641,
      "longitude": 14.66457
    },
    {
      "id": 3194361,
      "name": "Novi Pot",
      "nativeName": "Novi Pot",
      "code": "SI-179-3194361",
      "countryId": 3190538,
      "countryCode": "SI",
      "stateCode": "SI-179",
      "latitude": 45.78715,
      "longitude": 14.56917
    },
    {
      "id": 8988863,
      "name": "Petrinci",
      "nativeName": "Petrinci",
      "code": "SI-179-8988863",
      "countryId": 3190538,
      "countryCode": "SI",
      "stateCode": "SI-179",
      "latitude": 45.7504,
      "longitude": 14.59182
    },
    {
      "id": 3218703,
      "name": "Podklanec",
      "nativeName": "Podklanec",
      "code": "SI-179-3218703",
      "countryId": 3190538,
      "countryCode": "SI",
      "stateCode": "SI-179",
      "latitude": 45.76778,
      "longitude": 14.58056
    },
    {
      "id": 8989407,
      "name": "Preska",
      "nativeName": "Preska",
      "code": "SI-179-8989407",
      "countryId": 3190538,
      "countryCode": "SI",
      "stateCode": "SI-179",
      "latitude": 45.77258,
      "longitude": 14.65563
    },
    {
      "id": 8989064,
      "name": "Ravni Dol",
      "nativeName": "Ravni Dol",
      "code": "SI-179-8989064",
      "countryId": 3190538,
      "countryCode": "SI",
      "stateCode": "SI-179",
      "latitude": 45.72987,
      "longitude": 14.65337
    },
    {
      "id": 8989225,
      "name": "Sinovica",
      "nativeName": "Sinovica",
      "code": "SI-179-8989225",
      "countryId": 3190538,
      "countryCode": "SI",
      "stateCode": "SI-179",
      "latitude": 45.76765,
      "longitude": 14.66356
    },
    {
      "id": 8989245,
      "name": "Travna Gora",
      "nativeName": "Travna Gora",
      "code": "SI-179-8989245",
      "countryId": 3190538,
      "countryCode": "SI",
      "stateCode": "SI-179",
      "latitude": 45.74114,
      "longitude": 14.64547
    },
    {
      "id": 8987854,
      "name": "Vinice",
      "nativeName": "Vinice",
      "code": "SI-179-8987854",
      "countryId": 3190538,
      "countryCode": "SI",
      "stateCode": "SI-179",
      "latitude": 45.75492,
      "longitude": 14.6696
    },
    {
      "id": 3186805,
      "name": "Zamostec",
      "nativeName": "Zamostec",
      "code": "SI-179-3186805",
      "countryId": 3190538,
      "countryCode": "SI",
      "stateCode": "SI-179",
      "latitude": 45.75833,
      "longitude": 14.64778
    },
    {
      "id": 3186783,
      "name": "Zapotok",
      "nativeName": "Zapotok",
      "code": "SI-179-3186783",
      "countryId": 3190538,
      "countryCode": "SI",
      "stateCode": "SI-179",
      "latitude": 45.76083,
      "longitude": 14.67278
    },
    {
      "id": 3186457,
      "name": "Žimarice",
      "nativeName": "Žimarice",
      "code": "SI-179-3186457",
      "countryId": 3190538,
      "countryCode": "SI",
      "stateCode": "SI-179",
      "latitude": 45.77861,
      "longitude": 14.60139
    }
  ]
}