{
  "stateId": 8133581,
  "stateCode": "SI-197",
  "countryCode": "SI",
  "cities": [
    {
      "id": 3197581,
      "name": "Kostanjevica na Krki",
      "nativeName": "Kostanjevica na Krki",
      "code": "SI-197-3197581",
      "countryId": 3190538,
      "countryCode": "SI",
      "stateCode": "SI-197",
      "latitude": 45.84611,
      "longitude": 15.42222
    },
    {
      "id": 8988851,
      "name": "Avguštine",
      "nativeName": "Avguštine",
      "code": "SI-197-8988851",
      "countryId": 3190538,
      "countryCode": "SI",
      "stateCode": "SI-197",
      "latitude": 45.83782,
      "longitude": 15.44171
    },
    {
      "id": 8987863,
      "name": "Dobe",
      "nativeName": "Dobe",
      "code": "SI-197-8987863",
      "countryId": 3190538,
      "countryCode": "SI",
      "stateCode": "SI-197",
      "latitude": 45.84741,
      "longitude": 15.40167
    },
    {
      "id": 8988634,
      "name": "Dobrava pri Kostanjevici",
      "nativeName": "Dobrava pri Kostanjevici",
      "code": "SI-197-8988634",
      "countryId": 3190538,
      "countryCode": "SI",
      "stateCode": "SI-197",
      "latitude": 45.85154,
      "longitude": 15.39157
    },
    {
      "id": 3201779,
      "name": "Dolnja Prekopa",
      "nativeName": "Dolnja Prekopa",
      "code": "SI-197-3201779",
      "countryId": 3190538,
      "countryCode": "SI",
      "stateCode": "SI-197",
      "latitude": 45.85,
      "longitude": 15.38333
    },
    {
      "id": 8987890,
      "name": "Dolšce",
      "nativeName": "Dolšce",
      "code": "SI-197-8987890",
      "countryId": 3190538,
      "countryCode": "SI",
      "stateCode": "SI-197",
      "latitude": 45.83142,
      "longitude": 15.43196
    },
    {
      "id": 3200584,
      "name": "Globočice pri Kostanjevici",
      "nativeName": "Globočice pri Kostanjevici",
      "code": "SI-197-3200584",
      "countryId": 3190538,
      "countryCode": "SI",
      "stateCode": "SI-197",
      "latitude": 45.84142,
      "longitude": 15.43147
    },
    {
      "id": 3200202,
      "name": "Gornja Prekopa",
      "nativeName": "Gornja Prekopa",
      "code": "SI-197-3200202",
      "countryId": 3190538,
      "countryCode": "SI",
      "stateCode": "SI-197",
      "latitude": 45.84528,
      "longitude": 15.37938
    },
    {
      "id": 8988864,
      "name": "Grič",
      "nativeName": "Grič",
      "code": "SI-197-8988864",
      "countryId": 3190538,
      "countryCode": "SI",
      "stateCode": "SI-197",
      "latitude": 45.82979,
      "longitude": 15.41122
    },
    {
      "id": 3218155,
      "name": "Gruča",
      "nativeName": "Gruča",
      "code": "SI-197-3218155",
      "countryId": 3190538,
      "countryCode": "SI",
      "stateCode": "SI-197",
      "latitude": 45.84576,
      "longitude": 15.37343
    },
    {
      "id": 8989204,
      "name": "Ivanjše",
      "nativeName": "Ivanjše",
      "code": "SI-197-8989204",
      "countryId": 3190538,
      "countryCode": "SI",
      "stateCode": "SI-197",
      "latitude": 45.83075,
      "longitude": 15.4064
    },
    {
      "id": 8988500,
      "name": "Jablance",
      "nativeName": "Jablance",
      "code": "SI-197-8988500",
      "countryId": 3190538,
      "countryCode": "SI",
      "stateCode": "SI-197",
      "latitude": 45.84412,
      "longitude": 15.44637
    },
    {
      "id": 8989302,
      "name": "Karlče",
      "nativeName": "Karlče",
      "code": "SI-197-8989302",
      "countryId": 3190538,
      "countryCode": "SI",
      "stateCode": "SI-197",
      "latitude": 45.85584,
      "longitude": 15.43999
    },
    {
      "id": 8989247,
      "name": "Koprivnik",
      "nativeName": "Koprivnik",
      "code": "SI-197-8989247",
      "countryId": 3190538,
      "countryCode": "SI",
      "stateCode": "SI-197",
      "latitude": 45.87915,
      "longitude": 15.39963
    },
    {
      "id": 8988204,
      "name": "Kočarija",
      "nativeName": "Kočarija",
      "code": "SI-197-8988204",
      "countryId": 3190538,
      "countryCode": "SI",
      "stateCode": "SI-197",
      "latitude": 45.83145,
      "longitude": 15.39906
    },
    {
      "id": 3195745,
      "name": "Male Vodenice",
      "nativeName": "Male Vodenice",
      "code": "SI-197-3195745",
      "countryId": 3190538,
      "countryCode": "SI",
      "stateCode": "SI-197",
      "latitude": 45.81667,
      "longitude": 15.4
    },
    {
      "id": 8988312,
      "name": "Malence",
      "nativeName": "Malence",
      "code": "SI-197-8988312",
      "countryId": 3190538,
      "countryCode": "SI",
      "stateCode": "SI-197",
      "latitude": 45.86213,
      "longitude": 15.40893
    },
    {
      "id": 3194025,
      "name": "Orehovec",
      "nativeName": "Orehovec",
      "code": "SI-197-3194025",
      "countryId": 3190538,
      "countryCode": "SI",
      "stateCode": "SI-197",
      "latitude": 45.82566,
      "longitude": 15.42086
    },
    {
      "id": 3193853,
      "name": "Oštrc",
      "nativeName": "Oštrc",
      "code": "SI-197-3193853",
      "countryId": 3190538,
      "countryCode": "SI",
      "stateCode": "SI-197",
      "latitude": 45.83333,
      "longitude": 15.45
    },
    {
      "id": 8989226,
      "name": "Podstrm",
      "nativeName": "Podstrm",
      "code": "SI-197-8989226",
      "countryId": 3190538,
      "countryCode": "SI",
      "stateCode": "SI-197",
      "latitude": 45.82486,
      "longitude": 15.40514
    },
    {
      "id": 3218154,
      "name": "Robič",
      "nativeName": "Robič",
      "code": "SI-197-3218154",
      "countryId": 3190538,
      "countryCode": "SI",
      "stateCode": "SI-197",
      "latitude": 45.865,
      "longitude": 15.4025
    },
    {
      "id": 8989123,
      "name": "Ržišče",
      "nativeName": "Ržišče",
      "code": "SI-197-8989123",
      "countryId": 3190538,
      "countryCode": "SI",
      "stateCode": "SI-197",
      "latitude": 45.82027,
      "longitude": 15.38326
    },
    {
      "id": 8989066,
      "name": "Sajevce",
      "nativeName": "Sajevce",
      "code": "SI-197-8989066",
      "countryId": 3190538,
      "countryCode": "SI",
      "stateCode": "SI-197",
      "latitude": 45.86955,
      "longitude": 15.42713
    },
    {
      "id": 8988610,
      "name": "Slinovce",
      "nativeName": "Slinovce",
      "code": "SI-197-8988610",
      "countryId": 3190538,
      "countryCode": "SI",
      "stateCode": "SI-197",
      "latitude": 45.85009,
      "longitude": 15.43963
    },
    {
      "id": 3188116,
      "name": "Velike Vodenice",
      "nativeName": "Velike Vodenice",
      "code": "SI-197-3188116",
      "countryId": 3190538,
      "countryCode": "SI",
      "stateCode": "SI-197",
      "latitude": 45.82987,
      "longitude": 15.38566
    },
    {
      "id": 8989287,
      "name": "Vrbje",
      "nativeName": "Vrbje",
      "code": "SI-197-8989287",
      "countryId": 3190538,
      "countryCode": "SI",
      "stateCode": "SI-197",
      "latitude": 45.82565,
      "longitude": 15.47358
    },
    {
      "id": 8989708,
      "name": "Vrtača",
      "nativeName": "Vrtača",
      "code": "SI-197-8989708",
      "countryId": 3190538,
      "countryCode": "SI",
      "stateCode": "SI-197",
      "latitude": 45.82081,
      "longitude": 15.46944
    },
    {
      "id": 8989174,
      "name": "Zaboršt",
      "nativeName": "Zaboršt",
      "code": "SI-197-8989174",
      "countryId": 3190538,
      "countryCode": "SI",
      "stateCode": "SI-197",
      "latitude": 45.83919,
      "longitude": 15.39878
    },
    {
      "id": 8989698,
      "name": "Črešnjevec pri Oštrcu",
      "nativeName": "Črešnjevec pri Oštrcu",
      "code": "SI-197-8989698",
      "countryId": 3190538,
      "countryCode": "SI",
      "stateCode": "SI-197",
      "latitude": 45.81121,
      "longitude": 15.44186
    }
  ]
}