{
  "stateId": 3191679,
  "stateCode": "SI-104",
  "countryCode": "SI",
  "cities": [
    {
      "id": 3191685,
      "name": "Ribnica",
      "nativeName": "Ribnica",
      "code": "SI-104-3191685",
      "countryId": 3190538,
      "countryCode": "SI",
      "stateCode": "SI-104",
      "latitude": 45.73861,
      "longitude": 14.7275
    },
    {
      "id": 8989115,
      "name": "Andol",
      "nativeName": "Andol",
      "code": "SI-104-8989115",
      "countryId": 3190538,
      "countryCode": "SI",
      "stateCode": "SI-104",
      "latitude": 45.78833,
      "longitude": 14.63936
    },
    {
      "id": 3203958,
      "name": "Blate",
      "nativeName": "Blate",
      "code": "SI-104-3203958",
      "countryId": 3190538,
      "countryCode": "SI",
      "stateCode": "SI-104",
      "latitude": 45.69585,
      "longitude": 14.7441
    },
    {
      "id": 8987050,
      "name": "Breg pri Ribnici na Dol.",
      "nativeName": "Breg pri Ribnici na Dol.",
      "code": "SI-104-8987050",
      "countryId": 3190538,
      "countryCode": "SI",
      "stateCode": "SI-104",
      "latitude": 45.75078,
      "longitude": 14.71413
    },
    {
      "id": 8987446,
      "name": "Breže",
      "nativeName": "Breže",
      "code": "SI-104-8987446",
      "countryId": 3190538,
      "countryCode": "SI",
      "stateCode": "SI-104",
      "latitude": 45.76288,
      "longitude": 14.70472
    },
    {
      "id": 8989116,
      "name": "Brinovščica",
      "nativeName": "Brinovščica",
      "code": "SI-104-8989116",
      "countryId": 3190538,
      "countryCode": "SI",
      "stateCode": "SI-104",
      "latitude": 45.78269,
      "longitude": 14.63392
    },
    {
      "id": 8989663,
      "name": "Bukovec pri Poljanah",
      "nativeName": "Bukovec pri Poljanah",
      "code": "SI-104-8989663",
      "countryId": 3190538,
      "countryCode": "SI",
      "stateCode": "SI-104",
      "latitude": 45.81688,
      "longitude": 14.68173
    },
    {
      "id": 8987931,
      "name": "Bukovica",
      "nativeName": "Bukovica",
      "code": "SI-104-8987931",
      "countryId": 3190538,
      "countryCode": "SI",
      "stateCode": "SI-104",
      "latitude": 45.73375,
      "longitude": 14.70534
    },
    {
      "id": 3202200,
      "name": "Dane",
      "nativeName": "Dane",
      "code": "SI-104-3202200",
      "countryId": 3190538,
      "countryCode": "SI",
      "stateCode": "SI-104",
      "latitude": 45.73667,
      "longitude": 14.69417
    },
    {
      "id": 3201849,
      "name": "Dolenja Vas",
      "nativeName": "Dolenja Vas",
      "code": "SI-104-3201849",
      "countryId": 3190538,
      "countryCode": "SI",
      "stateCode": "SI-104",
      "latitude": 45.70611,
      "longitude": 14.75444
    },
    {
      "id": 8988301,
      "name": "Dolenje Podpoljane",
      "nativeName": "Dolenje Podpoljane",
      "code": "SI-104-8988301",
      "countryId": 3190538,
      "countryCode": "SI",
      "stateCode": "SI-104",
      "latitude": 45.80474,
      "longitude": 14.67348
    },
    {
      "id": 3201824,
      "name": "Dolenji Lazi",
      "nativeName": "Dolenji Lazi",
      "code": "SI-104-3201824",
      "countryId": 3190538,
      "countryCode": "SI",
      "stateCode": "SI-104",
      "latitude": 45.76417,
      "longitude": 14.7175
    },
    {
      "id": 8989385,
      "name": "Dule",
      "nativeName": "Dule",
      "code": "SI-104-8989385",
      "countryId": 3190538,
      "countryCode": "SI",
      "stateCode": "SI-104",
      "latitude": 45.78968,
      "longitude": 14.70473
    },
    {
      "id": 8989372,
      "name": "Finkovo",
      "nativeName": "Finkovo",
      "code": "SI-104-8989372",
      "countryId": 3190538,
      "countryCode": "SI",
      "stateCode": "SI-104",
      "latitude": 45.81203,
      "longitude": 14.67397
    },
    {
      "id": 8989332,
      "name": "Gašpinovo",
      "nativeName": "Gašpinovo",
      "code": "SI-104-8989332",
      "countryId": 3190538,
      "countryCode": "SI",
      "stateCode": "SI-104",
      "latitude": 45.78747,
      "longitude": 14.6527
    },
    {
      "id": 8989631,
      "name": "Gorenje Podpoljane",
      "nativeName": "Gorenje Podpoljane",
      "code": "SI-104-8989631",
      "countryId": 3190538,
      "countryCode": "SI",
      "stateCode": "SI-104",
      "latitude": 45.80517,
      "longitude": 14.66436
    },
    {
      "id": 8989589,
      "name": "Gorenji Lazi",
      "nativeName": "Gorenji Lazi",
      "code": "SI-104-8989589",
      "countryId": 3190538,
      "countryCode": "SI",
      "stateCode": "SI-104",
      "latitude": 45.76956,
      "longitude": 14.67597
    },
    {
      "id": 3200382,
      "name": "Goriča Vas",
      "nativeName": "Goriča Vas",
      "code": "SI-104-3200382",
      "countryId": 3190538,
      "countryCode": "SI",
      "stateCode": "SI-104",
      "latitude": 45.73,
      "longitude": 14.73889
    },
    {
      "id": 8989013,
      "name": "Graben",
      "nativeName": "Graben",
      "code": "SI-104-8989013",
      "countryId": 3190538,
      "countryCode": "SI",
      "stateCode": "SI-104",
      "latitude": 45.78317,
      "longitude": 14.65509
    },
    {
      "id": 8989296,
      "name": "Grebenje",
      "nativeName": "Grebenje",
      "code": "SI-104-8989296",
      "countryId": 3190538,
      "countryCode": "SI",
      "stateCode": "SI-104",
      "latitude": 45.79657,
      "longitude": 14.62618
    },
    {
      "id": 8987008,
      "name": "Grič",
      "nativeName": "Grič",
      "code": "SI-104-8987008",
      "countryId": 3190538,
      "countryCode": "SI",
      "stateCode": "SI-104",
      "latitude": 45.75652,
      "longitude": 14.70988
    },
    {
      "id": 3199624,
      "name": "Grčarice",
      "nativeName": "Grčarice",
      "code": "SI-104-3199624",
      "countryId": 3190538,
      "countryCode": "SI",
      "stateCode": "SI-104",
      "latitude": 45.65111,
      "longitude": 14.75472
    },
    {
      "id": 3199623,
      "name": "Grčarske Ravne",
      "nativeName": "Grčarske Ravne",
      "code": "SI-104-3199623",
      "countryId": 3190538,
      "countryCode": "SI",
      "stateCode": "SI-104",
      "latitude": 45.65889,
      "longitude": 14.75278
    },
    {
      "id": 8989117,
      "name": "Hojče",
      "nativeName": "Hojče",
      "code": "SI-104-8989117",
      "countryId": 3190538,
      "countryCode": "SI",
      "stateCode": "SI-104",
      "latitude": 45.78008,
      "longitude": 14.64503
    },
    {
      "id": 8987257,
      "name": "Hrovača",
      "nativeName": "Hrovača",
      "code": "SI-104-8987257",
      "countryId": 3190538,
      "countryCode": "SI",
      "stateCode": "SI-104",
      "latitude": 45.74463,
      "longitude": 14.76086
    },
    {
      "id": 8988765,
      "name": "Hudi Konec",
      "nativeName": "Hudi Konec",
      "code": "SI-104-8988765",
      "countryId": 3190538,
      "countryCode": "SI",
      "stateCode": "SI-104",
      "latitude": 45.77925,
      "longitude": 14.65933
    },
    {
      "id": 3198710,
      "name": "Jelendol",
      "nativeName": "Jelendol",
      "code": "SI-104-3198710",
      "countryId": 3190538,
      "countryCode": "SI",
      "stateCode": "SI-104",
      "latitude": 45.67333,
      "longitude": 14.76361
    },
    {
      "id": 3198704,
      "name": "Jelenov Žleb",
      "nativeName": "Jelenov Žleb",
      "code": "SI-104-3198704",
      "countryId": 3190538,
      "countryCode": "SI",
      "stateCode": "SI-104",
      "latitude": 45.69167,
      "longitude": 14.66667
    },
    {
      "id": 8988929,
      "name": "Junčje",
      "nativeName": "Junčje",
      "code": "SI-104-8988929",
      "countryId": 3190538,
      "countryCode": "SI",
      "stateCode": "SI-104",
      "latitude": 45.79758,
      "longitude": 14.63394
    },
    {
      "id": 3198541,
      "name": "Jurjevica",
      "nativeName": "Jurjevica",
      "code": "SI-104-3198541",
      "countryId": 3190538,
      "countryCode": "SI",
      "stateCode": "SI-104",
      "latitude": 45.75194,
      "longitude": 14.69389
    },
    {
      "id": 8989386,
      "name": "Kot pri Rakitnici",
      "nativeName": "Kot pri Rakitnici",
      "code": "SI-104-8989386",
      "countryId": 3190538,
      "countryCode": "SI",
      "stateCode": "SI-104",
      "latitude": 45.68292,
      "longitude": 14.74601
    },
    {
      "id": 3197531,
      "name": "Kot pri Ribnici",
      "nativeName": "Kot pri Ribnici",
      "code": "SI-104-3197531",
      "countryId": 3190538,
      "countryCode": "SI",
      "stateCode": "SI-104",
      "latitude": 45.74444,
      "longitude": 14.68056
    },
    {
      "id": 8989138,
      "name": "Krnče",
      "nativeName": "Krnče",
      "code": "SI-104-8989138",
      "countryId": 3190538,
      "countryCode": "SI",
      "stateCode": "SI-104",
      "latitude": 45.78813,
      "longitude": 14.64536
    },
    {
      "id": 8989311,
      "name": "Levstiki",
      "nativeName": "Levstiki",
      "code": "SI-104-8989311",
      "countryId": 3190538,
      "countryCode": "SI",
      "stateCode": "SI-104",
      "latitude": 45.79488,
      "longitude": 14.64407
    },
    {
      "id": 3196493,
      "name": "Lipovec",
      "nativeName": "Lipovec",
      "code": "SI-104-3196493",
      "countryId": 3190538,
      "countryCode": "SI",
      "stateCode": "SI-104",
      "latitude": 45.71484,
      "longitude": 14.77692
    },
    {
      "id": 3195882,
      "name": "Makoše",
      "nativeName": "Makoše",
      "code": "SI-104-3195882",
      "countryId": 3190538,
      "countryCode": "SI",
      "stateCode": "SI-104",
      "latitude": 45.72194,
      "longitude": 14.78833
    },
    {
      "id": 3195443,
      "name": "Marolče",
      "nativeName": "Marolče",
      "code": "SI-104-3195443",
      "countryId": 3190538,
      "countryCode": "SI",
      "stateCode": "SI-104",
      "latitude": 45.80056,
      "longitude": 14.64722
    },
    {
      "id": 8989037,
      "name": "Maršiči",
      "nativeName": "Maršiči",
      "code": "SI-104-8989037",
      "countryId": 3190538,
      "countryCode": "SI",
      "stateCode": "SI-104",
      "latitude": 45.79823,
      "longitude": 14.65843
    },
    {
      "id": 3194538,
      "name": "Nemška Vas",
      "nativeName": "Nemška Vas",
      "code": "SI-104-3194538",
      "countryId": 3190538,
      "countryCode": "SI",
      "stateCode": "SI-104",
      "latitude": 45.71722,
      "longitude": 14.74528
    },
    {
      "id": 3193957,
      "name": "Ortnek",
      "nativeName": "Ortnek",
      "code": "SI-104-3193957",
      "countryId": 3190538,
      "countryCode": "SI",
      "stateCode": "SI-104",
      "latitude": 45.78196,
      "longitude": 14.67531
    },
    {
      "id": 3193803,
      "name": "Otavice",
      "nativeName": "Otavice",
      "code": "SI-104-3193803",
      "countryId": 3190538,
      "countryCode": "SI",
      "stateCode": "SI-104",
      "latitude": 45.73244,
      "longitude": 14.77761
    },
    {
      "id": 8989277,
      "name": "Perovo",
      "nativeName": "Perovo",
      "code": "SI-104-8989277",
      "countryId": 3190538,
      "countryCode": "SI",
      "stateCode": "SI-104",
      "latitude": 45.79183,
      "longitude": 14.6149
    },
    {
      "id": 8988604,
      "name": "Praproče",
      "nativeName": "Praproče",
      "code": "SI-104-8988604",
      "countryId": 3190538,
      "countryCode": "SI",
      "stateCode": "SI-104",
      "latitude": 45.79732,
      "longitude": 14.66968
    },
    {
      "id": 3192428,
      "name": "Prigorica",
      "nativeName": "Prigorica",
      "code": "SI-104-3192428",
      "countryId": 3190538,
      "countryCode": "SI",
      "stateCode": "SI-104",
      "latitude": 45.71194,
      "longitude": 14.7525
    },
    {
      "id": 8989671,
      "name": "Pugled pri Karlovici",
      "nativeName": "Pugled pri Karlovici",
      "code": "SI-104-8989671",
      "countryId": 3190538,
      "countryCode": "SI",
      "stateCode": "SI-104",
      "latitude": 45.78968,
      "longitude": 14.60427
    },
    {
      "id": 8989264,
      "name": "Pusti Hrib",
      "nativeName": "Pusti Hrib",
      "code": "SI-104-8989264",
      "countryId": 3190538,
      "countryCode": "SI",
      "stateCode": "SI-104",
      "latitude": 45.79299,
      "longitude": 14.6542
    },
    {
      "id": 3192012,
      "name": "Rakitnica",
      "nativeName": "Rakitnica",
      "code": "SI-104-3192012",
      "countryId": 3190538,
      "countryCode": "SI",
      "stateCode": "SI-104",
      "latitude": 45.69917,
      "longitude": 14.75306
    },
    {
      "id": 8989333,
      "name": "Rigelj pri Ortneku",
      "nativeName": "Rigelj pri Ortneku",
      "code": "SI-104-8989333",
      "countryId": 3190538,
      "countryCode": "SI",
      "stateCode": "SI-104",
      "latitude": 45.79205,
      "longitude": 14.66816
    },
    {
      "id": 8987472,
      "name": "Sajevec",
      "nativeName": "Sajevec",
      "code": "SI-104-8987472",
      "countryId": 3190538,
      "countryCode": "SI",
      "stateCode": "SI-104",
      "latitude": 45.74113,
      "longitude": 14.70403
    },
    {
      "id": 8987651,
      "name": "Slatnik",
      "nativeName": "Slatnik",
      "code": "SI-104-8987651",
      "countryId": 3190538,
      "countryCode": "SI",
      "stateCode": "SI-104",
      "latitude": 45.76388,
      "longitude": 14.68596
    },
    {
      "id": 3189455,
      "name": "Sušje",
      "nativeName": "Sušje",
      "code": "SI-104-3189455",
      "countryId": 3190538,
      "countryCode": "SI",
      "stateCode": "SI-104",
      "latitude": 45.75722,
      "longitude": 14.68611
    },
    {
      "id": 8988236,
      "name": "Sveti Gregor",
      "nativeName": "Sv. Gregor",
      "code": "SI-104-8988236",
      "countryId": 3190538,
      "countryCode": "SI",
      "stateCode": "SI-104",
      "latitude": 45.78322,
      "longitude": 14.64019
    },
    {
      "id": 3188124,
      "name": "Velike Poljane",
      "nativeName": "Velike Poljane",
      "code": "SI-104-3188124",
      "countryId": 3190538,
      "countryCode": "SI",
      "stateCode": "SI-104",
      "latitude": 45.79611,
      "longitude": 14.68278
    },
    {
      "id": 8989139,
      "name": "Vintarji",
      "nativeName": "Vintarji",
      "code": "SI-104-8989139",
      "countryId": 3190538,
      "countryCode": "SI",
      "stateCode": "SI-104",
      "latitude": 45.79462,
      "longitude": 14.59653
    },
    {
      "id": 8989188,
      "name": "Zadniki",
      "nativeName": "Zadniki",
      "code": "SI-104-8989188",
      "countryId": 3190538,
      "countryCode": "SI",
      "stateCode": "SI-104",
      "latitude": 45.78666,
      "longitude": 14.61719
    },
    {
      "id": 3186947,
      "name": "Zadolje",
      "nativeName": "Zadolje",
      "code": "SI-104-3186947",
      "countryId": 3190538,
      "countryCode": "SI",
      "stateCode": "SI-104",
      "latitude": 45.7025,
      "longitude": 14.72833
    },
    {
      "id": 8989077,
      "name": "Zapuže pri Ribnici",
      "nativeName": "Zapuže pri Ribnici",
      "code": "SI-104-8989077",
      "countryId": 3190538,
      "countryCode": "SI",
      "stateCode": "SI-104",
      "latitude": 45.7704,
      "longitude": 14.73057
    },
    {
      "id": 8989265,
      "name": "Zlati Rep",
      "nativeName": "Zlati Rep",
      "code": "SI-104-8989265",
      "countryId": 3190538,
      "countryCode": "SI",
      "stateCode": "SI-104",
      "latitude": 45.80284,
      "longitude": 14.65588
    },
    {
      "id": 8989012,
      "name": "Črnec",
      "nativeName": "Črnec",
      "code": "SI-104-8989012",
      "countryId": 3190538,
      "countryCode": "SI",
      "stateCode": "SI-104",
      "latitude": 45.78778,
      "longitude": 14.62794
    },
    {
      "id": 8988955,
      "name": "Črni Potok pri Vel. Laščah",
      "nativeName": "Črni Potok pri Vel. Laščah",
      "code": "SI-104-8988955",
      "countryId": 3190538,
      "countryCode": "SI",
      "stateCode": "SI-104",
      "latitude": 45.79931,
      "longitude": 14.61477
    },
    {
      "id": 8989312,
      "name": "Škrajnek",
      "nativeName": "Škrajnek",
      "code": "SI-104-8989312",
      "countryId": 3190538,
      "countryCode": "SI",
      "stateCode": "SI-104",
      "latitude": 45.81053,
      "longitude": 14.68495
    },
    {
      "id": 3186392,
      "name": "Žlebič",
      "nativeName": "Žlebič",
      "code": "SI-104-3186392",
      "countryId": 3190538,
      "countryCode": "SI",
      "stateCode": "SI-104",
      "latitude": 45.76528,
      "longitude": 14.69306
    },
    {
      "id": 8989278,
      "name": "Žukovo",
      "nativeName": "Žukovo",
      "code": "SI-104-8989278",
      "countryId": 3190538,
      "countryCode": "SI",
      "stateCode": "SI-104",
      "latitude": 45.80648,
      "longitude": 14.69677
    }
  ]
}