{
  "stateId": 3344914,
  "stateCode": "SI-155",
  "countryCode": "SI",
  "cities": [
    {
      "id": 3201927,
      "name": "Dobrna",
      "nativeName": "Dobrna",
      "code": "SI-155-3201927",
      "countryId": 3190538,
      "countryCode": "SI",
      "stateCode": "SI-155",
      "latitude": 46.3375,
      "longitude": 15.22639
    },
    {
      "id": 8989817,
      "name": "Brdce nad Dobrno",
      "nativeName": "Brdce nad Dobrno",
      "code": "SI-155-8989817",
      "countryId": 3190538,
      "countryCode": "SI",
      "stateCode": "SI-155",
      "latitude": 46.36532,
      "longitude": 15.24369
    },
    {
      "id": 3198105,
      "name": "Klanc",
      "nativeName": "Klanc",
      "code": "SI-155-3198105",
      "countryId": 3190538,
      "countryCode": "SI",
      "stateCode": "SI-155",
      "latitude": 46.35,
      "longitude": 15.21667
    },
    {
      "id": 3217134,
      "name": "Lipje",
      "nativeName": "Lipje",
      "code": "SI-155-3217134",
      "countryId": 3190538,
      "countryCode": "SI",
      "stateCode": "SI-155",
      "latitude": 46.35281,
      "longitude": 15.16003
    },
    {
      "id": 3217240,
      "name": "Loka pri Dobrni",
      "nativeName": "Loka pri Dobrni",
      "code": "SI-155-3217240",
      "countryId": 3190538,
      "countryCode": "SI",
      "stateCode": "SI-155",
      "latitude": 46.35611,
      "longitude": 15.20472
    },
    {
      "id": 8987099,
      "name": "Lokovina",
      "nativeName": "Lokovina",
      "code": "SI-155-8987099",
      "countryId": 3190538,
      "countryCode": "SI",
      "stateCode": "SI-155",
      "latitude": 46.33338,
      "longitude": 15.20816
    },
    {
      "id": 3193623,
      "name": "Parož",
      "nativeName": "Parož",
      "code": "SI-155-3193623",
      "countryId": 3190538,
      "countryCode": "SI",
      "stateCode": "SI-155",
      "latitude": 46.36667,
      "longitude": 15.21667
    },
    {
      "id": 3192354,
      "name": "Pristova",
      "nativeName": "Pristova",
      "code": "SI-155-3192354",
      "countryId": 3190538,
      "countryCode": "SI",
      "stateCode": "SI-155",
      "latitude": 46.32361,
      "longitude": 15.21862
    },
    {
      "id": 8987587,
      "name": "Strmec nad Dobrno",
      "nativeName": "Strmec nad Dobrno",
      "code": "SI-155-8987587",
      "countryId": 3190538,
      "countryCode": "SI",
      "stateCode": "SI-155",
      "latitude": 46.37738,
      "longitude": 15.21083
    },
    {
      "id": 8987352,
      "name": "Vinska Gorica",
      "nativeName": "Vinska Gorica",
      "code": "SI-155-8987352",
      "countryId": 3190538,
      "countryCode": "SI",
      "stateCode": "SI-155",
      "latitude": 46.33051,
      "longitude": 15.23315
    },
    {
      "id": 8987583,
      "name": "Vrba",
      "nativeName": "Vrba",
      "code": "SI-155-8987583",
      "countryId": 3190538,
      "countryCode": "SI",
      "stateCode": "SI-155",
      "latitude": 46.33954,
      "longitude": 15.24511
    },
    {
      "id": 3186703,
      "name": "Zavrh nad Dobrno",
      "nativeName": "Zavrh nad Dobrno",
      "code": "SI-155-3186703",
      "countryId": 3190538,
      "countryCode": "SI",
      "stateCode": "SI-155",
      "latitude": 46.35,
      "longitude": 15.25
    }
  ]
}