{
  "stateId": 3188914,
  "stateCode": "SI-129",
  "countryCode": "SI",
  "cities": [
    {
      "id": 3188915,
      "name": "Trbovlje",
      "nativeName": "Trbovlje",
      "code": "SI-129-3188915",
      "countryId": 3190538,
      "countryCode": "SI",
      "stateCode": "SI-129",
      "latitude": 46.155,
      "longitude": 15.05333
    },
    {
      "id": 3201978,
      "name": "Dobovec",
      "nativeName": "Dobovec",
      "code": "SI-129-3201978",
      "countryId": 3190538,
      "countryCode": "SI",
      "stateCode": "SI-129",
      "latitude": 46.11306,
      "longitude": 15.05722
    },
    {
      "id": 8986998,
      "name": "Gabrsko",
      "nativeName": "Gabrsko",
      "code": "SI-129-8986998",
      "countryId": 3190538,
      "countryCode": "SI",
      "stateCode": "SI-129",
      "latitude": 46.1748,
      "longitude": 15.04814
    },
    {
      "id": 3198044,
      "name": "Ključevica",
      "nativeName": "Ključevica",
      "code": "SI-129-3198044",
      "countryId": 3190538,
      "countryCode": "SI",
      "stateCode": "SI-129",
      "latitude": 46.1,
      "longitude": 15.08333
    },
    {
      "id": 3198001,
      "name": "Knezdol",
      "nativeName": "Knezdol",
      "code": "SI-129-3198001",
      "countryId": 3190538,
      "countryCode": "SI",
      "stateCode": "SI-129",
      "latitude": 46.18333,
      "longitude": 15.03333
    },
    {
      "id": 8987309,
      "name": "Ojstro",
      "nativeName": "Ojstro",
      "code": "SI-129-8987309",
      "countryId": 3190538,
      "countryCode": "SI",
      "stateCode": "SI-129",
      "latitude": 46.15578,
      "longitude": 15.06859
    },
    {
      "id": 8987209,
      "name": "Ostenk",
      "nativeName": "Ostenk",
      "code": "SI-129-8987209",
      "countryId": 3190538,
      "countryCode": "SI",
      "stateCode": "SI-129",
      "latitude": 46.16651,
      "longitude": 15.06956
    },
    {
      "id": 8988018,
      "name": "Planinska Vas",
      "nativeName": "Planinska Vas",
      "code": "SI-129-8988018",
      "countryId": 3190538,
      "countryCode": "SI",
      "stateCode": "SI-129",
      "latitude": 46.16971,
      "longitude": 15.03171
    },
    {
      "id": 3216173,
      "name": "Smodiš",
      "nativeName": "Smodiš",
      "code": "SI-129-3216173",
      "countryId": 3190538,
      "countryCode": "SI",
      "stateCode": "SI-129",
      "latitude": 46.10722,
      "longitude": 15.03972
    },
    {
      "id": 8987875,
      "name": "Sveta Planina",
      "nativeName": "Sveta Planina",
      "code": "SI-129-8987875",
      "countryId": 3190538,
      "countryCode": "SI",
      "stateCode": "SI-129",
      "latitude": 46.17115,
      "longitude": 15.01419
    },
    {
      "id": 3216193,
      "name": "Zadobje",
      "nativeName": "Zadobje",
      "code": "SI-129-3216193",
      "countryId": 3190538,
      "countryCode": "SI",
      "stateCode": "SI-129",
      "latitude": 46.18556,
      "longitude": 15.03361
    },
    {
      "id": 3186699,
      "name": "Završje",
      "nativeName": "Završje",
      "code": "SI-129-3186699",
      "countryId": 3190538,
      "countryCode": "SI",
      "stateCode": "SI-129",
      "latitude": 46.1,
      "longitude": 15.03333
    },
    {
      "id": 3216182,
      "name": "Zgornja Svina",
      "nativeName": "Zgornja Svina",
      "code": "SI-129-3216182",
      "countryId": 3190538,
      "countryCode": "SI",
      "stateCode": "SI-129",
      "latitude": 46.18306,
      "longitude": 15.06861
    },
    {
      "id": 8989016,
      "name": "Čebine",
      "nativeName": "Čebine",
      "code": "SI-129-8989016",
      "countryId": 3190538,
      "countryCode": "SI",
      "stateCode": "SI-129",
      "latitude": 46.16867,
      "longitude": 14.99686
    },
    {
      "id": 3190715,
      "name": "Škofja Riža",
      "nativeName": "Škofja Riža",
      "code": "SI-129-3190715",
      "countryId": 3190538,
      "countryCode": "SI",
      "stateCode": "SI-129",
      "latitude": 46.11681,
      "longitude": 15.04228
    },
    {
      "id": 8987784,
      "name": "Župa",
      "nativeName": "Župa",
      "code": "SI-129-8987784",
      "countryId": 3190538,
      "countryCode": "SI",
      "stateCode": "SI-129",
      "latitude": 46.10422,
      "longitude": 15.08578
    }
  ]
}