{
  "stateId": 3187213,
  "stateCode": "SI-140",
  "countryCode": "SI",
  "cities": [
    {
      "id": 3187214,
      "name": "Vrhnika",
      "nativeName": "Vrhnika",
      "code": "SI-140-3187214",
      "countryId": 3190538,
      "countryCode": "SI",
      "stateCode": "SI-140",
      "latitude": 45.9635,
      "longitude": 14.29484
    },
    {
      "id": 3204250,
      "name": "Bevke",
      "nativeName": "Bevke",
      "code": "SI-140-3204250",
      "countryId": 3190538,
      "countryCode": "SI",
      "stateCode": "SI-140",
      "latitude": 45.98389,
      "longitude": 14.35583
    },
    {
      "id": 8988520,
      "name": "Bistra",
      "nativeName": "Bistra",
      "code": "SI-140-8988520",
      "countryId": 3190538,
      "countryCode": "SI",
      "stateCode": "SI-140",
      "latitude": 45.93627,
      "longitude": 14.33005
    },
    {
      "id": 3203953,
      "name": "Blatna Brezovica",
      "nativeName": "Blatna Brezovica",
      "code": "SI-140-3203953",
      "countryId": 3190538,
      "countryCode": "SI",
      "stateCode": "SI-140",
      "latitude": 45.97972,
      "longitude": 14.34778
    },
    {
      "id": 3201204,
      "name": "Drenov Grič",
      "nativeName": "Drenov Grič",
      "code": "SI-140-3201204",
      "countryId": 3190538,
      "countryCode": "SI",
      "stateCode": "SI-140",
      "latitude": 45.99778,
      "longitude": 14.33278
    },
    {
      "id": 8989061,
      "name": "Jamnik",
      "nativeName": "Jamnik",
      "code": "SI-140-8989061",
      "countryId": 3190538,
      "countryCode": "SI",
      "stateCode": "SI-140",
      "latitude": 45.97934,
      "longitude": 14.24076
    },
    {
      "id": 3218902,
      "name": "Jankar",
      "nativeName": "Jankar",
      "code": "SI-140-3218902",
      "countryId": 3190538,
      "countryCode": "SI",
      "stateCode": "SI-140",
      "latitude": 45.97694,
      "longitude": 14.23722
    },
    {
      "id": 3218903,
      "name": "Jerinov Grič",
      "nativeName": "Jerinov Grič",
      "code": "SI-140-3218903",
      "countryId": 3190538,
      "countryCode": "SI",
      "stateCode": "SI-140",
      "latitude": 45.9525,
      "longitude": 14.23
    },
    {
      "id": 3195832,
      "name": "Mala Ligojna",
      "nativeName": "Mala Ligojna",
      "code": "SI-140-3195832",
      "countryId": 3190538,
      "countryCode": "SI",
      "stateCode": "SI-140",
      "latitude": 45.9929,
      "longitude": 14.30827
    },
    {
      "id": 8989884,
      "name": "Marinčev Grič",
      "nativeName": "Marinčev Grič",
      "code": "SI-140-8989884",
      "countryId": 3190538,
      "countryCode": "SI",
      "stateCode": "SI-140",
      "latitude": 45.96113,
      "longitude": 14.22091
    },
    {
      "id": 8987714,
      "name": "Mirke",
      "nativeName": "Mirke",
      "code": "SI-140-8987714",
      "countryId": 3190538,
      "countryCode": "SI",
      "stateCode": "SI-140",
      "latitude": 45.92804,
      "longitude": 14.29982
    },
    {
      "id": 8987469,
      "name": "Mizni Dol",
      "nativeName": "Mizni Dol",
      "code": "SI-140-8987469",
      "countryId": 3190538,
      "countryCode": "SI",
      "stateCode": "SI-140",
      "latitude": 45.9829,
      "longitude": 14.22422
    },
    {
      "id": 3193729,
      "name": "Padež",
      "nativeName": "Padež",
      "code": "SI-140-3193729",
      "countryId": 3190538,
      "countryCode": "SI",
      "stateCode": "SI-140",
      "latitude": 45.88167,
      "longitude": 14.36389
    },
    {
      "id": 3192984,
      "name": "Podlipa",
      "nativeName": "Podlipa",
      "code": "SI-140-3192984",
      "countryId": 3190538,
      "countryCode": "SI",
      "stateCode": "SI-140",
      "latitude": 46.00694,
      "longitude": 14.225
    },
    {
      "id": 3192858,
      "name": "Pokojišče",
      "nativeName": "Pokojišče",
      "code": "SI-140-3192858",
      "countryId": 3190538,
      "countryCode": "SI",
      "stateCode": "SI-140",
      "latitude": 45.89444,
      "longitude": 14.35611
    },
    {
      "id": 8987808,
      "name": "Prezid",
      "nativeName": "Prezid",
      "code": "SI-140-8987808",
      "countryId": 3190538,
      "countryCode": "SI",
      "stateCode": "SI-140",
      "latitude": 45.95361,
      "longitude": 14.22063
    },
    {
      "id": 3190863,
      "name": "Sinja Gorica",
      "nativeName": "Sinja Gorica",
      "code": "SI-140-3190863",
      "countryId": 3190538,
      "countryCode": "SI",
      "stateCode": "SI-140",
      "latitude": 45.97556,
      "longitude": 14.31833
    },
    {
      "id": 3190440,
      "name": "Smrečje",
      "nativeName": "Smrečje",
      "code": "SI-140-3190440",
      "countryId": 3190538,
      "countryCode": "SI",
      "stateCode": "SI-140",
      "latitude": 46.01361,
      "longitude": 14.195
    },
    {
      "id": 3189989,
      "name": "Stara Vrhnika",
      "nativeName": "Stara Vrhnika",
      "code": "SI-140-3189989",
      "countryId": 3190538,
      "countryCode": "SI",
      "stateCode": "SI-140",
      "latitude": 45.97417,
      "longitude": 14.28111
    },
    {
      "id": 8987499,
      "name": "Strmica",
      "nativeName": "Strmica",
      "code": "SI-140-8987499",
      "countryId": 3190538,
      "countryCode": "SI",
      "stateCode": "SI-140",
      "latitude": 45.95631,
      "longitude": 14.23976
    },
    {
      "id": 8988571,
      "name": "Trčkov Grič",
      "nativeName": "Trčkov Grič",
      "code": "SI-140-8988571",
      "countryId": 3190538,
      "countryCode": "SI",
      "stateCode": "SI-140",
      "latitude": 45.98903,
      "longitude": 14.23804
    },
    {
      "id": 3188213,
      "name": "Velika Ligojna",
      "nativeName": "Velika Ligojna",
      "code": "SI-140-3188213",
      "countryId": 3190538,
      "countryCode": "SI",
      "stateCode": "SI-140",
      "latitude": 45.9925,
      "longitude": 14.29278
    },
    {
      "id": 3187855,
      "name": "Verd",
      "nativeName": "Verd",
      "code": "SI-140-3187855",
      "countryId": 3190538,
      "countryCode": "SI",
      "stateCode": "SI-140",
      "latitude": 45.95667,
      "longitude": 14.30583
    },
    {
      "id": 3186701,
      "name": "Zavrh pri Borovnici",
      "nativeName": "Zavrh pri Borovnici",
      "code": "SI-140-3186701",
      "countryId": 3190538,
      "countryCode": "SI",
      "stateCode": "SI-140",
      "latitude": 45.90278,
      "longitude": 14.34639
    },
    {
      "id": 3186788,
      "name": "Zaplana",
      "nativeName": "Zaplana",
      "code": "SI-140-3186788",
      "countryId": 3190538,
      "countryCode": "SI",
      "stateCode": "SI-140",
      "latitude": 45.97203,
      "longitude": 14.23091
    }
  ]
}