{
  "countryId": 3190538,
  "countryCode": "SI",
  "states": [
    {
      "id": 3204853,
      "name": "Ajdovščina Municipality",
      "nativeName": "Občina Ajdovščina",
      "code": "SI-001",
      "internalCode": "001",
      "countryId": 3190538,
      "countryCode": "SI",
      "latitude": 45.90694,
      "longitude": 13.92861
    },
    {
      "id": 3239282,
      "name": "Beltinci",
      "nativeName": "Beltinci",
      "code": "SI-002",
      "internalCode": "002",
      "countryId": 3190538,
      "countryCode": "SI",
      "latitude": 46.61472,
      "longitude": 16.23222
    },
    {
      "id": 3344930,
      "name": "Benedikt",
      "nativeName": "Benedikt",
      "code": "SI-148",
      "internalCode": "148",
      "countryId": 3190538,
      "countryCode": "SI",
      "latitude": 46.6174,
      "longitude": 15.88913
    },
    {
      "id": 3344912,
      "name": "Bistrica ob Sotli",
      "nativeName": "Bistrica ob Sotli",
      "code": "SI-149",
      "internalCode": "149",
      "countryId": 3190538,
      "countryCode": "SI",
      "latitude": 46.06001,
      "longitude": 15.64725
    },
    {
      "id": 3344899,
      "name": "Bloke",
      "nativeName": "Bloke",
      "code": "SI-150",
      "internalCode": "150",
      "countryId": 3190538,
      "countryCode": "SI",
      "latitude": 45.78559,
      "longitude": 14.50663
    },
    {
      "id": 3239101,
      "name": "Bohinj Municipality",
      "nativeName": "Bohinj",
      "code": "SI-004",
      "internalCode": "004",
      "countryId": 3190538,
      "countryCode": "SI",
      "latitude": 46.295,
      "longitude": 13.92389
    },
    {
      "id": 3239073,
      "name": "Borovnica",
      "nativeName": "Borovnica",
      "code": "SI-005",
      "internalCode": "005",
      "countryId": 3190538,
      "countryCode": "SI",
      "latitude": 45.91444,
      "longitude": 14.37944
    },
    {
      "id": 3239083,
      "name": "Brda",
      "nativeName": "Brda",
      "code": "SI-007",
      "internalCode": "007",
      "countryId": 3190538,
      "countryCode": "SI",
      "latitude": 46.0075,
      "longitude": 13.54333
    },
    {
      "id": 3239071,
      "name": "Brezovica",
      "nativeName": "Brezovica",
      "code": "SI-008",
      "internalCode": "008",
      "countryId": 3190538,
      "countryCode": "SI",
      "latitude": 45.94889,
      "longitude": 14.42444
    },
    {
      "id": 3344938,
      "name": "Cankova",
      "nativeName": "Cankova",
      "code": "SI-152",
      "internalCode": "152",
      "countryId": 3190538,
      "countryCode": "SI",
      "latitude": 46.72889,
      "longitude": 16.03167
    },
    {
      "id": 3202780,
      "name": "Celje",
      "nativeName": "Celje",
      "code": "SI-011",
      "internalCode": "011",
      "countryId": 3190538,
      "countryCode": "SI",
      "latitude": 46.25,
      "longitude": 15.27028
    },
    {
      "id": 3239110,
      "name": "Cerklje na Gorenjskem",
      "nativeName": "Cerklje na Gorenjskem",
      "code": "SI-012",
      "internalCode": "012",
      "countryId": 3190538,
      "countryCode": "SI",
      "latitude": 46.25,
      "longitude": 14.5
    },
    {
      "id": 3239091,
      "name": "Cerkno",
      "nativeName": "Cerkno",
      "code": "SI-014",
      "internalCode": "014",
      "countryId": 3190538,
      "countryCode": "SI",
      "latitude": 46.125,
      "longitude": 13.97306
    },
    {
      "id": 3344929,
      "name": "Cerkvenjak",
      "nativeName": "Cerkvenjak",
      "code": "SI-153",
      "internalCode": "153",
      "countryId": 3190538,
      "countryCode": "SI",
      "latitude": 46.56127,
      "longitude": 15.94199
    },
    {
      "id": 8133580,
      "name": "Cirkulane",
      "nativeName": "Cirkulane",
      "code": "SI-196",
      "internalCode": "196",
      "countryId": 3190538,
      "countryCode": "SI",
      "latitude": 46.34065,
      "longitude": 15.99602
    },
    {
      "id": 3344926,
      "name": "Destrnik",
      "nativeName": "Destrnik",
      "code": "SI-018",
      "internalCode": "018",
      "countryId": 3190538,
      "countryCode": "SI",
      "latitude": 46.48102,
      "longitude": 15.88023
    },
    {
      "id": 3344913,
      "name": "Dobje",
      "nativeName": "Dobje",
      "code": "SI-154",
      "internalCode": "154",
      "countryId": 3190538,
      "countryCode": "SI",
      "latitude": 46.13321,
      "longitude": 15.40135
    },
    {
      "id": 3239193,
      "name": "Dobrepolje",
      "nativeName": "Dobrepolje",
      "code": "SI-020",
      "internalCode": "020",
      "countryId": 3190538,
      "countryCode": "SI",
      "latitude": 45.80444,
      "longitude": 14.74833
    },
    {
      "id": 3344914,
      "name": "Dobrna",
      "nativeName": "Dobrna",
      "code": "SI-155",
      "internalCode": "155",
      "countryId": 3190538,
      "countryCode": "SI",
      "latitude": 46.35437,
      "longitude": 15.22603
    },
    {
      "id": 3239096,
      "name": "Dobrova-Polhov Gradec",
      "nativeName": "Dobrova-Polhov Gradec",
      "code": "SI-021",
      "internalCode": "021",
      "countryId": 3190538,
      "countryCode": "SI",
      "latitude": 46.0635,
      "longitude": 14.30884
    },
    {
      "id": 3344936,
      "name": "Dobrovnik",
      "nativeName": "Dobrovnik",
      "code": "SI-156",
      "internalCode": "156",
      "countryId": 3190538,
      "countryCode": "SI",
      "latitude": 46.65056,
      "longitude": 16.35194
    },
    {
      "id": 3239115,
      "name": "Dol pri Ljubljani",
      "nativeName": "Dol pri Ljubljani",
      "code": "SI-022",
      "internalCode": "022",
      "countryId": 3190538,
      "countryCode": "SI",
      "latitude": 46.0975,
      "longitude": 14.67361
    },
    {
      "id": 3344910,
      "name": "Dolenjske Toplice",
      "nativeName": "Dolenjske Toplice",
      "code": "SI-157",
      "internalCode": "157",
      "countryId": 3190538,
      "countryCode": "SI",
      "latitude": 45.715,
      "longitude": 15.04972
    },
    {
      "id": 3239248,
      "name": "Dornava",
      "nativeName": "Dornava",
      "code": "SI-024",
      "internalCode": "024",
      "countryId": 3190538,
      "countryCode": "SI",
      "latitude": 46.44544,
      "longitude": 15.99048
    },
    {
      "id": 3201252,
      "name": "Dravograd",
      "nativeName": "Dravograd",
      "code": "SI-025",
      "internalCode": "025",
      "countryId": 3190538,
      "countryCode": "SI",
      "latitude": 46.58333,
      "longitude": 15.03333
    },
    {
      "id": 3239216,
      "name": "Duplek",
      "nativeName": "Duplek",
      "code": "SI-026",
      "internalCode": "026",
      "countryId": 3190538,
      "countryCode": "SI",
      "latitude": 46.51556,
      "longitude": 15.77
    },
    {
      "id": 8986279,
      "name": "Gorje",
      "nativeName": "Gorje",
      "code": "SI-207",
      "internalCode": "207",
      "countryId": 3190538,
      "countryCode": "SI",
      "latitude": 46.37924,
      "longitude": 14.06795
    },
    {
      "id": 3200196,
      "name": "Gornja Radgona",
      "nativeName": "Gornja Radgona",
      "code": "SI-029",
      "internalCode": "029",
      "countryId": 3190538,
      "countryCode": "SI",
      "latitude": 46.63489,
      "longitude": 15.95943
    },
    {
      "id": 3239133,
      "name": "Gornji Grad",
      "nativeName": "Gornji Grad",
      "code": "SI-030",
      "internalCode": "030",
      "countryId": 3190538,
      "countryCode": "SI",
      "latitude": 46.28917,
      "longitude": 14.80083
    },
    {
      "id": 3239275,
      "name": "Gornji Petrovci",
      "nativeName": "Gornji Petrovci",
      "code": "SI-031",
      "internalCode": "031",
      "countryId": 3190538,
      "countryCode": "SI",
      "latitude": 46.8175,
      "longitude": 16.21333
    },
    {
      "id": 3344939,
      "name": "Grad",
      "nativeName": "Grad",
      "code": "SI-158",
      "internalCode": "158",
      "countryId": 3190538,
      "countryCode": "SI",
      "latitude": 46.78694,
      "longitude": 16.09833
    },
    {
      "id": 3199522,
      "name": "Grosuplje",
      "nativeName": "Grosuplje",
      "code": "SI-032",
      "internalCode": "032",
      "countryId": 3190538,
      "countryCode": "SI",
      "latitude": 45.93639,
      "longitude": 14.66528
    },
    {
      "id": 3344922,
      "name": "Hajdina",
      "nativeName": "Hajdina",
      "code": "SI-159",
      "internalCode": "159",
      "countryId": 3190538,
      "countryCode": "SI",
      "latitude": 46.41752,
      "longitude": 15.8272
    },
    {
      "id": 3344940,
      "name": "Hodos",
      "nativeName": "Hodos",
      "code": "SI-161",
      "internalCode": "161",
      "countryId": 3190538,
      "countryCode": "SI",
      "latitude": 46.82639,
      "longitude": 16.325
    },
    {
      "id": 3344897,
      "name": "Horjul",
      "nativeName": "Horjul",
      "code": "SI-162",
      "internalCode": "162",
      "countryId": 3190538,
      "countryCode": "SI",
      "latitude": 46.02485,
      "longitude": 14.28471
    },
    {
      "id": 3199296,
      "name": "Hrastnik Municipality",
      "nativeName": "Hrastnik",
      "code": "SI-034",
      "internalCode": "034",
      "countryId": 3190538,
      "countryCode": "SI",
      "latitude": 46.13333,
      "longitude": 15.09972
    },
    {
      "id": 3239050,
      "name": "Hrpelje-Kozina",
      "nativeName": "Hrpelje-Kozina",
      "code": "SI-035",
      "internalCode": "035",
      "countryId": 3190538,
      "countryCode": "SI",
      "latitude": 45.57278,
      "longitude": 14.00472
    },
    {
      "id": 3199169,
      "name": "Idrija",
      "nativeName": "Idrija",
      "code": "SI-036",
      "internalCode": "036",
      "countryId": 3190538,
      "countryCode": "SI",
      "latitude": 46,
      "longitude": 14
    },
    {
      "id": 3239069,
      "name": "Ig Municipality",
      "nativeName": "Ig",
      "code": "SI-037",
      "internalCode": "037",
      "countryId": 3190538,
      "countryCode": "SI",
      "latitude": 45.93583,
      "longitude": 14.51444
    },
    {
      "id": 3199130,
      "name": "Ilirska Bistrica",
      "nativeName": "Ilirska Bistrica",
      "code": "SI-038",
      "internalCode": "038",
      "countryId": 3190538,
      "countryCode": "SI",
      "latitude": 45.5675,
      "longitude": 14.29056
    },
    {
      "id": 3199016,
      "name": "Izola",
      "nativeName": "Izola",
      "code": "SI-040",
      "internalCode": "040",
      "countryId": 3190538,
      "countryCode": "SI",
      "latitude": 45.51123,
      "longitude": 13.65655
    },
    {
      "id": 3198646,
      "name": "Jesenice",
      "nativeName": "Jesenice",
      "code": "SI-041",
      "internalCode": "041",
      "countryId": 3190538,
      "countryCode": "SI",
      "latitude": 46.45253,
      "longitude": 14.07245
    },
    {
      "id": 3344894,
      "name": "Jezersko",
      "nativeName": "Jezersko",
      "code": "SI-163",
      "internalCode": "163",
      "countryId": 3190538,
      "countryCode": "SI",
      "latitude": 46.38925,
      "longitude": 14.48352
    },
    {
      "id": 3198364,
      "name": "Kamnik",
      "nativeName": "Kamnik",
      "code": "SI-043",
      "internalCode": "043",
      "countryId": 3190538,
      "countryCode": "SI",
      "latitude": 46.24406,
      "longitude": 14.66721
    },
    {
      "id": 3239086,
      "name": "Kanal ob Soči Municipality",
      "nativeName": "Občina Kanal ob Soči",
      "code": "SI-044",
      "internalCode": "044",
      "countryId": 3190538,
      "countryCode": "SI",
      "latitude": 46.08972,
      "longitude": 13.64306
    },
    {
      "id": 3239098,
      "name": "Kobarid Municipality",
      "nativeName": "Občina Kobarid",
      "code": "SI-046",
      "internalCode": "046",
      "countryId": 3190538,
      "countryCode": "SI",
      "latitude": 46.22492,
      "longitude": 13.64433
    },
    {
      "id": 3239280,
      "name": "Kobilje",
      "nativeName": "Kobilje",
      "code": "SI-047",
      "internalCode": "047",
      "countryId": 3190538,
      "countryCode": "SI",
      "latitude": 46.68583,
      "longitude": 16.39333
    },
    {
      "id": 3239078,
      "name": "Komen",
      "nativeName": "Komen",
      "code": "SI-049",
      "internalCode": "049",
      "countryId": 3190538,
      "countryCode": "SI",
      "latitude": 45.81861,
      "longitude": 13.74889
    },
    {
      "id": 3344896,
      "name": "Komenda",
      "nativeName": "Komenda",
      "code": "SI-164",
      "internalCode": "164",
      "countryId": 3190538,
      "countryCode": "SI",
      "latitude": 46.20241,
      "longitude": 14.54456
    },
    {
      "id": 3197752,
      "name": "Koper",
      "nativeName": "Koper",
      "code": "SI-050",
      "internalCode": "050",
      "countryId": 3190538,
      "countryCode": "SI",
      "latitude": 45.51833,
      "longitude": 13.82667
    },
    {
      "id": 8133581,
      "name": "Kostanjevica na Krki",
      "nativeName": "Kostanjevica na Krki",
      "code": "SI-197",
      "internalCode": "197",
      "countryId": 3190538,
      "countryCode": "SI",
      "latitude": 45.83399,
      "longitude": 15.41912
    },
    {
      "id": 3344908,
      "name": "Kostel",
      "nativeName": "Kostel",
      "code": "SI-165",
      "internalCode": "165",
      "countryId": 3190538,
      "countryCode": "SI",
      "latitude": 45.48944,
      "longitude": 14.87111
    },
    {
      "id": 3239243,
      "name": "Kozje",
      "nativeName": "Kozje",
      "code": "SI-051",
      "internalCode": "051",
      "countryId": 3190538,
      "countryCode": "SI",
      "latitude": 46.07222,
      "longitude": 15.55694
    },
    {
      "id": 3239105,
      "name": "Kranjska Gora",
      "nativeName": "Kranjska Gora",
      "code": "SI-053",
      "internalCode": "053",
      "countryId": 3190538,
      "countryCode": "SI",
      "latitude": 46.46028,
      "longitude": 13.83861
    },
    {
      "id": 3197146,
      "name": "Krško",
      "nativeName": "Krško",
      "code": "SI-054",
      "internalCode": "054",
      "countryId": 3190538,
      "countryCode": "SI",
      "latitude": 45.95137,
      "longitude": 15.46063
    },
    {
      "id": 3239213,
      "name": "Kungota",
      "nativeName": "Kungota",
      "code": "SI-055",
      "internalCode": "055",
      "countryId": 3190538,
      "countryCode": "SI",
      "latitude": 46.64944,
      "longitude": 15.60972
    },
    {
      "id": 3239272,
      "name": "Kuzma",
      "nativeName": "Kuzma",
      "code": "SI-056",
      "internalCode": "056",
      "countryId": 3190538,
      "countryCode": "SI",
      "latitude": 46.84111,
      "longitude": 16.09528
    },
    {
      "id": 3196759,
      "name": "Laško Municipality",
      "nativeName": "Občina Laško",
      "code": "SI-057",
      "internalCode": "057",
      "countryId": 3190538,
      "countryCode": "SI",
      "latitude": 46.13561,
      "longitude": 15.2529
    },
    {
      "id": 3196684,
      "name": "Lenart",
      "nativeName": "Lenart",
      "code": "SI-058",
      "internalCode": "058",
      "countryId": 3190538,
      "countryCode": "SI",
      "latitude": 46.55799,
      "longitude": 15.81383
    },
    {
      "id": 3344935,
      "name": "Lendava",
      "nativeName": "Lendava",
      "code": "SI-059",
      "internalCode": "059",
      "countryId": 3190538,
      "countryCode": "SI",
      "latitude": 46.5575,
      "longitude": 16.45694
    },
    {
      "id": 3196424,
      "name": "Litija",
      "nativeName": "Litija",
      "code": "SI-060",
      "internalCode": "060",
      "countryId": 3190538,
      "countryCode": "SI",
      "latitude": 46.07445,
      "longitude": 14.90724
    },
    {
      "id": 3239318,
      "name": "Ljubljana",
      "nativeName": "Mestna Občina Ljubljana",
      "code": "SI-061",
      "internalCode": "061",
      "countryId": 3190538,
      "countryCode": "SI",
      "latitude": 46.05918,
      "longitude": 14.50916
    },
    {
      "id": 3239184,
      "name": "Ljubno",
      "nativeName": "Ljubno",
      "code": "SI-062",
      "internalCode": "062",
      "countryId": 3190538,
      "countryCode": "SI",
      "latitude": 46.37389,
      "longitude": 14.83944
    },
    {
      "id": 3196306,
      "name": "Ljutomer",
      "nativeName": "Ljutomer",
      "code": "SI-063",
      "internalCode": "063",
      "countryId": 3190538,
      "countryCode": "SI",
      "latitude": 46.51347,
      "longitude": 16.144
    },
    {
      "id": 3196288,
      "name": "Logatec",
      "nativeName": "Logatec",
      "code": "SI-064",
      "internalCode": "064",
      "countryId": 3190538,
      "countryCode": "SI",
      "latitude": 45.92139,
      "longitude": 14.19583
    },
    {
      "id": 8133582,
      "name": "Log–Dragomer",
      "nativeName": "Log-Dragomer",
      "code": "SI-208",
      "internalCode": "208",
      "countryId": 3190538,
      "countryCode": "SI",
      "latitude": 46.01537,
      "longitude": 14.37474
    },
    {
      "id": 3344918,
      "name": "Lovrenc na Pohorju",
      "nativeName": "Lovrenc na Pohorju",
      "code": "SI-167",
      "internalCode": "167",
      "countryId": 3190538,
      "countryCode": "SI",
      "latitude": 46.5227,
      "longitude": 15.38535
    },
    {
      "id": 3239056,
      "name": "Loška Dolina Municipality",
      "nativeName": "Občina Loška Dolina",
      "code": "SI-065",
      "internalCode": "065",
      "countryId": 3190538,
      "countryCode": "SI",
      "latitude": 45.66611,
      "longitude": 14.50417
    },
    {
      "id": 3239188,
      "name": "Lukovica",
      "nativeName": "Lukovica",
      "code": "SI-068",
      "internalCode": "068",
      "countryId": 3190538,
      "countryCode": "SI",
      "latitude": 46.18333,
      "longitude": 14.76861
    },
    {
      "id": 8133583,
      "name": "Makole",
      "nativeName": "Makole",
      "code": "SI-198",
      "internalCode": "198",
      "countryId": 3190538,
      "countryCode": "SI",
      "latitude": 46.30956,
      "longitude": 15.67628
    },
    {
      "id": 3195505,
      "name": "Maribor City Municipality",
      "nativeName": "Maribor",
      "code": "SI-070",
      "internalCode": "070",
      "countryId": 3190538,
      "countryCode": "SI",
      "latitude": 46.55611,
      "longitude": 15.64306
    },
    {
      "id": 3344925,
      "name": "Markovci",
      "nativeName": "Markovci",
      "code": "SI-168",
      "internalCode": "168",
      "countryId": 3190538,
      "countryCode": "SI",
      "latitude": 46.39208,
      "longitude": 15.95065
    },
    {
      "id": 3239113,
      "name": "Medvode",
      "nativeName": "Medvode",
      "code": "SI-071",
      "internalCode": "071",
      "countryId": 3190538,
      "countryCode": "SI",
      "latitude": 46.13049,
      "longitude": 14.40272
    },
    {
      "id": 3194350,
      "name": "Mestna Občina Novo mesto",
      "nativeName": "Mestna Občina Novo mesto",
      "code": "SI-085",
      "internalCode": "085",
      "countryId": 3190538,
      "countryCode": "SI",
      "latitude": 45.7851,
      "longitude": 15.19833
    },
    {
      "id": 3195213,
      "name": "Metlika",
      "nativeName": "Metlika",
      "code": "SI-073",
      "internalCode": "073",
      "countryId": 3190538,
      "countryCode": "SI",
      "latitude": 45.65645,
      "longitude": 15.31075
    },
    {
      "id": 3239080,
      "name": "Miren-Kostanjevica",
      "nativeName": "Miren-Kostanjevica",
      "code": "SI-075",
      "internalCode": "075",
      "countryId": 3190538,
      "countryCode": "SI",
      "latitude": 45.85138,
      "longitude": 13.63931
    },
    {
      "id": 3344911,
      "name": "Mirna Peč Municipality",
      "nativeName": "Občina Mirna Peč",
      "code": "SI-170",
      "internalCode": "170",
      "countryId": 3190538,
      "countryCode": "SI",
      "latitude": 45.85343,
      "longitude": 15.08434
    },
    {
      "id": 3239207,
      "name": "Mislinja",
      "nativeName": "Mislinja",
      "code": "SI-076",
      "internalCode": "076",
      "countryId": 3190538,
      "countryCode": "SI",
      "latitude": 46.45111,
      "longitude": 15.22389
    },
    {
      "id": 8133584,
      "name": "Mokronog-Trebelno Municipality",
      "nativeName": "Mokronog-Trebelno",
      "code": "SI-199",
      "internalCode": "199",
      "countryId": 3190538,
      "countryCode": "SI",
      "latitude": 45.91531,
      "longitude": 15.16111
    },
    {
      "id": 3239279,
      "name": "Moravske Toplice",
      "nativeName": "Moravske Toplice",
      "code": "SI-078",
      "internalCode": "078",
      "countryId": 3190538,
      "countryCode": "SI",
      "latitude": 46.7175,
      "longitude": 16.27361
    },
    {
      "id": 3194791,
      "name": "Mozirje",
      "nativeName": "Mozirje",
      "code": "SI-079",
      "internalCode": "079",
      "countryId": 3190538,
      "countryCode": "SI",
      "latitude": 46.3612,
      "longitude": 14.95797
    },
    {
      "id": 3194647,
      "name": "Murska Sobota",
      "nativeName": "Murska Sobota",
      "code": "SI-080",
      "internalCode": "080",
      "countryId": 3190538,
      "countryCode": "SI",
      "latitude": 46.65139,
      "longitude": 16.16056
    },
    {
      "id": 3239179,
      "name": "Muta",
      "nativeName": "Muta",
      "code": "SI-081",
      "internalCode": "081",
      "countryId": 3190538,
      "countryCode": "SI",
      "latitude": 46.63056,
      "longitude": 15.13611
    },
    {
      "id": 3239104,
      "name": "Naklo",
      "nativeName": "Naklo",
      "code": "SI-082",
      "internalCode": "082",
      "countryId": 3190538,
      "countryCode": "SI",
      "latitude": 46.29361,
      "longitude": 14.28667
    },
    {
      "id": 3239294,
      "name": "Nazarje",
      "nativeName": "Nazarje",
      "code": "SI-083",
      "internalCode": "083",
      "countryId": 3190538,
      "countryCode": "SI",
      "latitude": 46.28167,
      "longitude": 14.90917
    },
    {
      "id": 3194451,
      "name": "Nova Gorica",
      "nativeName": "Nova Gorica",
      "code": "SI-084",
      "internalCode": "084",
      "countryId": 3190538,
      "countryCode": "SI",
      "latitude": 45.9652,
      "longitude": 13.72805
    },
    {
      "id": 8133579,
      "name": "Občina Apače",
      "nativeName": "Občina Apače",
      "code": "SI-195",
      "internalCode": "195",
      "countryId": 3190538,
      "countryCode": "SI",
      "latitude": 46.69445,
      "longitude": 15.87383
    },
    {
      "id": 3239103,
      "name": "Občina Bled",
      "nativeName": "Občina Bled",
      "code": "SI-003",
      "internalCode": "003",
      "countryId": 3190538,
      "countryCode": "SI",
      "latitude": 46.36825,
      "longitude": 14.11005
    },
    {
      "id": 3239100,
      "name": "Občina Bovec",
      "nativeName": "Občina Bovec",
      "code": "SI-006",
      "internalCode": "006",
      "countryId": 3190538,
      "countryCode": "SI",
      "latitude": 46.33555,
      "longitude": 13.55644
    },
    {
      "id": 3344905,
      "name": "Občina Braslovče",
      "nativeName": "Občina Braslovče",
      "code": "SI-151",
      "internalCode": "151",
      "countryId": 3190538,
      "countryCode": "SI",
      "latitude": 46.27768,
      "longitude": 15.03682
    },
    {
      "id": 3203411,
      "name": "Občina Brežice",
      "nativeName": "Občina Brežice",
      "code": "SI-009",
      "internalCode": "009",
      "countryId": 3190538,
      "countryCode": "SI",
      "latitude": 45.92889,
      "longitude": 15.62806
    },
    {
      "id": 3239051,
      "name": "Občina Divača",
      "nativeName": "Občina Divača",
      "code": "SI-019",
      "internalCode": "019",
      "countryId": 3190538,
      "countryCode": "SI",
      "latitude": 45.68444,
      "longitude": 14.0225
    },
    {
      "id": 3201729,
      "name": "Občina Domžale",
      "nativeName": "Občina Domžale",
      "code": "SI-023",
      "internalCode": "023",
      "countryId": 3190538,
      "countryCode": "SI",
      "latitude": 46.14258,
      "longitude": 14.62277
    },
    {
      "id": 3239095,
      "name": "Občina Gorenja vas-Poljane",
      "nativeName": "Gorenja Vas-Poljane",
      "code": "SI-027",
      "internalCode": "027",
      "countryId": 3190538,
      "countryCode": "SI",
      "latitude": 46.11667,
      "longitude": 14.12556
    },
    {
      "id": 3239245,
      "name": "Občina Gorišnica",
      "nativeName": "Občina Gorišnica",
      "code": "SI-028",
      "internalCode": "028",
      "countryId": 3190538,
      "countryCode": "SI",
      "latitude": 46.40498,
      "longitude": 16.01161
    },
    {
      "id": 3344920,
      "name": "Občina Hoče-Slivnica",
      "nativeName": "Občina Hoče-Slivnica",
      "code": "SI-160",
      "internalCode": "160",
      "countryId": 3190538,
      "countryCode": "SI",
      "latitude": 46.49114,
      "longitude": 15.62378
    },
    {
      "id": 3239191,
      "name": "Občina Ivančna Gorica",
      "nativeName": "Občina Ivančna Gorica",
      "code": "SI-039",
      "internalCode": "039",
      "countryId": 3190538,
      "countryCode": "SI",
      "latitude": 45.91222,
      "longitude": 14.80722
    },
    {
      "id": 3239251,
      "name": "Občina Juršinci",
      "nativeName": "Občina Juršinci",
      "code": "SI-042",
      "internalCode": "042",
      "countryId": 3190538,
      "countryCode": "SI",
      "latitude": 46.4875,
      "longitude": 15.97639
    },
    {
      "id": 3239227,
      "name": "Občina Kidričevo",
      "nativeName": "Občina Kidričevo",
      "code": "SI-045",
      "internalCode": "045",
      "countryId": 3190538,
      "countryCode": "SI",
      "latitude": 46.39889,
      "longitude": 15.75694
    },
    {
      "id": 3197942,
      "name": "Občina Kočevje",
      "nativeName": "Občina Kočevje",
      "code": "SI-048",
      "internalCode": "048",
      "countryId": 3190538,
      "countryCode": "SI",
      "latitude": 45.63028,
      "longitude": 14.90694
    },
    {
      "id": 3344932,
      "name": "Občina Križevci",
      "nativeName": "Občina Križevci",
      "code": "SI-166",
      "internalCode": "166",
      "countryId": 3190538,
      "countryCode": "SI",
      "latitude": 46.56581,
      "longitude": 16.11784
    },
    {
      "id": 3239059,
      "name": "Občina Loški Potok",
      "nativeName": "Občina Loški Potok",
      "code": "SI-066",
      "internalCode": "066",
      "countryId": 3190538,
      "countryCode": "SI",
      "latitude": 45.66,
      "longitude": 14.64528
    },
    {
      "id": 3239134,
      "name": "Občina Luče",
      "nativeName": "Občina Luče",
      "code": "SI-067",
      "internalCode": "067",
      "countryId": 3190538,
      "countryCode": "SI",
      "latitude": 46.35119,
      "longitude": 14.73303
    },
    {
      "id": 3239229,
      "name": "Občina Majšperk",
      "nativeName": "Občina Majšperk",
      "code": "SI-069",
      "internalCode": "069",
      "countryId": 3190538,
      "countryCode": "SI",
      "latitude": 46.33231,
      "longitude": 15.75815
    },
    {
      "id": 3239114,
      "name": "Občina Mengeš",
      "nativeName": "Občina Mengeš",
      "code": "SI-072",
      "internalCode": "072",
      "countryId": 3190538,
      "countryCode": "SI",
      "latitude": 46.16146,
      "longitude": 14.56246
    },
    {
      "id": 3239177,
      "name": "Občina Mežica",
      "nativeName": "Občina Mežica",
      "code": "SI-074",
      "internalCode": "074",
      "countryId": 3190538,
      "countryCode": "SI",
      "latitude": 46.52278,
      "longitude": 14.855
    },
    {
      "id": 3344921,
      "name": "Občina Miklavž na Dravskem Polju",
      "nativeName": "Občina Miklavž na Dravskem Polju",
      "code": "SI-169",
      "internalCode": "169",
      "countryId": 3190538,
      "countryCode": "SI",
      "latitude": 46.48627,
      "longitude": 15.70952
    },
    {
      "id": 3239132,
      "name": "Občina Moravče",
      "nativeName": "Občina Moravče",
      "code": "SI-077",
      "internalCode": "077",
      "countryId": 3190538,
      "countryCode": "SI",
      "latitude": 46.13361,
      "longitude": 14.755
    },
    {
      "id": 3193964,
      "name": "Občina Ormož",
      "nativeName": "Občina Ormož",
      "code": "SI-087",
      "internalCode": "087",
      "countryId": 3190538,
      "countryCode": "SI",
      "latitude": 46.43632,
      "longitude": 16.14099
    },
    {
      "id": 3239241,
      "name": "Občina Podčetrtek",
      "nativeName": "Občina Podčetrtek",
      "code": "SI-092",
      "internalCode": "092",
      "countryId": 3190538,
      "countryCode": "SI",
      "latitude": 46.14476,
      "longitude": 15.57703
    },
    {
      "id": 8133585,
      "name": "Občina Poljčane",
      "nativeName": "Občina Poljčane",
      "code": "SI-200",
      "internalCode": "200",
      "countryId": 3190538,
      "countryCode": "SI",
      "latitude": 46.30275,
      "longitude": 15.59794
    },
    {
      "id": 3239175,
      "name": "Občina Ravne na Koroškem",
      "nativeName": "Občina Ravne na Koroškem",
      "code": "SI-103",
      "internalCode": "103",
      "countryId": 3190538,
      "countryCode": "SI",
      "latitude": 46.53179,
      "longitude": 14.97543
    },
    {
      "id": 3344941,
      "name": "Občina Razkrižje",
      "nativeName": "Občina Razkrižje",
      "code": "SI-176",
      "internalCode": "176",
      "countryId": 3190538,
      "countryCode": "SI",
      "latitude": 46.52382,
      "longitude": 16.27194
    },
    {
      "id": 3239224,
      "name": "Občina Rače-Fram",
      "nativeName": "Občina Rače-Fram",
      "code": "SI-098",
      "internalCode": "098",
      "countryId": 3190538,
      "countryCode": "SI",
      "latitude": 46.45172,
      "longitude": 15.63285
    },
    {
      "id": 3239234,
      "name": "Občina Rogaška Slatina",
      "nativeName": "Občina Rogaška Slatina",
      "code": "SI-106",
      "internalCode": "106",
      "countryId": 3190538,
      "countryCode": "SI",
      "latitude": 46.24667,
      "longitude": 15.62944
    },
    {
      "id": 3239270,
      "name": "Občina Rogašovci",
      "nativeName": "Občina Rogašovci",
      "code": "SI-105",
      "internalCode": "105",
      "countryId": 3190538,
      "countryCode": "SI",
      "latitude": 46.8025,
      "longitude": 16.02444
    },
    {
      "id": 3239195,
      "name": "Občina Semič",
      "nativeName": "Občina Semič",
      "code": "SI-109",
      "internalCode": "109",
      "countryId": 3190538,
      "countryCode": "SI",
      "latitude": 45.65139,
      "longitude": 15.13472
    },
    {
      "id": 3190944,
      "name": "Občina Sežana",
      "nativeName": "Občina Sežana",
      "code": "SI-111",
      "internalCode": "111",
      "countryId": 3190538,
      "countryCode": "SI",
      "latitude": 45.73472,
      "longitude": 13.88639
    },
    {
      "id": 3344900,
      "name": "Občina Sodražica",
      "nativeName": "Občina Sodražica",
      "code": "SI-179",
      "internalCode": "179",
      "countryId": 3190538,
      "countryCode": "SI",
      "latitude": 45.75644,
      "longitude": 14.62213
    },
    {
      "id": 3239226,
      "name": "Občina Starše",
      "nativeName": "Občina Starše",
      "code": "SI-115",
      "internalCode": "115",
      "countryId": 3190538,
      "countryCode": "SI",
      "latitude": 46.4553,
      "longitude": 15.7552
    },
    {
      "id": 3344928,
      "name": "Občina Sveti Andraž v Slovenskih Goricah",
      "nativeName": "Občina Sveti Andraž v Slovenskih Goricah",
      "code": "SI-182",
      "internalCode": "182",
      "countryId": 3190538,
      "countryCode": "SI",
      "latitude": 46.52324,
      "longitude": 15.9528
    },
    {
      "id": 3239259,
      "name": "Občina Sveti Jurij ob Ščavnici",
      "nativeName": "Občina Sveti Jurij ob Ščavnici",
      "code": "SI-116",
      "internalCode": "116",
      "countryId": 3190538,
      "countryCode": "SI",
      "latitude": 46.5675,
      "longitude": 16.02667
    },
    {
      "id": 3344937,
      "name": "Občina Tišina",
      "nativeName": "Občina Tišina",
      "code": "SI-010",
      "internalCode": "010",
      "countryId": 3190538,
      "countryCode": "SI",
      "latitude": 46.66044,
      "longitude": 16.08093
    },
    {
      "id": 3189037,
      "name": "Občina Tolmin",
      "nativeName": "Občina Tolmin",
      "code": "SI-128",
      "internalCode": "128",
      "countryId": 3190538,
      "countryCode": "SI",
      "latitude": 46.17947,
      "longitude": 13.71162
    },
    {
      "id": 3344927,
      "name": "Občina Trnovska vas",
      "nativeName": "Občina Trnovska vas",
      "code": "SI-185",
      "internalCode": "185",
      "countryId": 3190538,
      "countryCode": "SI",
      "latitude": 46.51778,
      "longitude": 15.90444
    },
    {
      "id": 3188687,
      "name": "Občina Tržič",
      "nativeName": "Občina Tržič",
      "code": "SI-131",
      "internalCode": "131",
      "countryId": 3190538,
      "countryCode": "SI",
      "latitude": 46.38417,
      "longitude": 14.32361
    },
    {
      "id": 3239283,
      "name": "Občina Turnišče",
      "nativeName": "Občina Turnišče",
      "code": "SI-132",
      "internalCode": "132",
      "countryId": 3190538,
      "countryCode": "SI",
      "latitude": 46.62194,
      "longitude": 16.31806
    },
    {
      "id": 3239062,
      "name": "Občina Velike Lašče",
      "nativeName": "Občina Velike Lašče",
      "code": "SI-134",
      "internalCode": "134",
      "countryId": 3190538,
      "countryCode": "SI",
      "latitude": 45.83917,
      "longitude": 14.58583
    },
    {
      "id": 3344933,
      "name": "Občina Veržej",
      "nativeName": "Občina Veržej",
      "code": "SI-188",
      "internalCode": "188",
      "countryId": 3190538,
      "countryCode": "SI",
      "latitude": 46.58184,
      "longitude": 16.17121
    },
    {
      "id": 3239247,
      "name": "Občina Zavrč",
      "nativeName": "Občina Zavrč",
      "code": "SI-143",
      "internalCode": "143",
      "countryId": 3190538,
      "countryCode": "SI",
      "latitude": 46.35917,
      "longitude": 16.04528
    },
    {
      "id": 3239286,
      "name": "Občina Črenšovci",
      "nativeName": "Občina Črenšovci",
      "code": "SI-015",
      "internalCode": "015",
      "countryId": 3190538,
      "countryCode": "SI",
      "latitude": 46.55722,
      "longitude": 16.29944
    },
    {
      "id": 3344943,
      "name": "Občina Šalovci",
      "nativeName": "Občina Šalovci",
      "code": "SI-033",
      "internalCode": "033",
      "countryId": 3190538,
      "countryCode": "SI",
      "latitude": 46.83111,
      "longitude": 16.27833
    },
    {
      "id": 3344898,
      "name": "Občina Šempeter-Vrtojba",
      "nativeName": "Občina Šempeter-Vrtojba",
      "code": "SI-183",
      "internalCode": "183",
      "countryId": 3190538,
      "countryCode": "SI",
      "latitude": 45.91194,
      "longitude": 13.65222
    },
    {
      "id": 3239214,
      "name": "Občina Šentilj",
      "nativeName": "Občina Šentilj",
      "code": "SI-118",
      "internalCode": "118",
      "countryId": 3190538,
      "countryCode": "SI",
      "latitude": 46.68833,
      "longitude": 15.7175
    },
    {
      "id": 3239197,
      "name": "Občina Šentjernej",
      "nativeName": "Občina Šentjernej",
      "code": "SI-119",
      "internalCode": "119",
      "countryId": 3190538,
      "countryCode": "SI",
      "latitude": 45.82361,
      "longitude": 15.33361
    },
    {
      "id": 3239111,
      "name": "Občina Šenčur",
      "nativeName": "Občina Šenčur",
      "code": "SI-117",
      "internalCode": "117",
      "countryId": 3190538,
      "countryCode": "SI",
      "latitude": 46.23808,
      "longitude": 14.42326
    },
    {
      "id": 3239199,
      "name": "Občina Škocjan",
      "nativeName": "Občina Škocjan",
      "code": "SI-121",
      "internalCode": "121",
      "countryId": 3190538,
      "countryCode": "SI",
      "latitude": 45.91972,
      "longitude": 15.30139
    },
    {
      "id": 3239066,
      "name": "Občina Škofljica",
      "nativeName": "Občina Škofljica",
      "code": "SI-123",
      "internalCode": "123",
      "countryId": 3190538,
      "countryCode": "SI",
      "latitude": 45.95833,
      "longitude": 14.57722
    },
    {
      "id": 3190509,
      "name": "Občina Šmarje pri Jelšah",
      "nativeName": "Občina Šmarje pri Jelšah",
      "code": "SI-124",
      "internalCode": "124",
      "countryId": 3190538,
      "countryCode": "SI",
      "latitude": 46.21074,
      "longitude": 15.52499
    },
    {
      "id": 3239187,
      "name": "Občina Šmartno ob Paki",
      "nativeName": "Občina Šmartno ob Paki",
      "code": "SI-125",
      "internalCode": "125",
      "countryId": 3190538,
      "countryCode": "SI",
      "latitude": 46.34306,
      "longitude": 15.03056
    },
    {
      "id": 3344942,
      "name": "Občina Šmartno pri Litiji",
      "nativeName": "Občina Šmartno pri Litiji",
      "code": "SI-194",
      "internalCode": "194",
      "countryId": 3190538,
      "countryCode": "SI",
      "latitude": 46.02627,
      "longitude": 14.84264
    },
    {
      "id": 3239185,
      "name": "Občina Šoštanj",
      "nativeName": "Občina Šoštanj",
      "code": "SI-126",
      "internalCode": "126",
      "countryId": 3190538,
      "countryCode": "SI",
      "latitude": 46.41306,
      "longitude": 15.00833
    },
    {
      "id": 3239200,
      "name": "Občina Štore",
      "nativeName": "Občina Štore",
      "code": "SI-127",
      "internalCode": "127",
      "countryId": 3190538,
      "countryCode": "SI",
      "latitude": 46.20111,
      "longitude": 15.32722
    },
    {
      "id": 3186843,
      "name": "Občina Žalec",
      "nativeName": "Občina Žalec",
      "code": "SI-190",
      "internalCode": "190",
      "countryId": 3190538,
      "countryCode": "SI",
      "latitude": 46.25508,
      "longitude": 15.1727
    },
    {
      "id": 3344923,
      "name": "Občina Žetale",
      "nativeName": "Občina Žetale",
      "code": "SI-191",
      "internalCode": "191",
      "countryId": 3190538,
      "countryCode": "SI",
      "latitude": 46.28224,
      "longitude": 15.8058
    },
    {
      "id": 3239087,
      "name": "Občina Žiri",
      "nativeName": "Občina Žiri",
      "code": "SI-147",
      "internalCode": "147",
      "countryId": 3190538,
      "countryCode": "SI",
      "latitude": 46.05167,
      "longitude": 14.11556
    },
    {
      "id": 3344893,
      "name": "Občina Žirovnica",
      "nativeName": "Občina Žirovnica",
      "code": "SI-192",
      "internalCode": "192",
      "countryId": 3190538,
      "countryCode": "SI",
      "latitude": 46.41235,
      "longitude": 14.17567
    },
    {
      "id": 3344909,
      "name": "Občina Žužemberk",
      "nativeName": "Občina Žužemberk",
      "code": "SI-193",
      "internalCode": "193",
      "countryId": 3190538,
      "countryCode": "SI",
      "latitude": 45.80472,
      "longitude": 14.94972
    },
    {
      "id": 3239285,
      "name": "Odranci",
      "nativeName": "Odranci",
      "code": "SI-086",
      "internalCode": "086",
      "countryId": 3190538,
      "countryCode": "SI",
      "latitude": 46.58674,
      "longitude": 16.2731
    },
    {
      "id": 3344915,
      "name": "Oplotnica Municipality",
      "nativeName": "Oplotnica",
      "code": "SI-171",
      "internalCode": "171",
      "countryId": 3190538,
      "countryCode": "SI",
      "latitude": 46.37877,
      "longitude": 15.45228
    },
    {
      "id": 3239061,
      "name": "Osilnica",
      "nativeName": "Osilnica",
      "code": "SI-088",
      "internalCode": "088",
      "countryId": 3190538,
      "countryCode": "SI",
      "latitude": 45.54889,
      "longitude": 14.72833
    },
    {
      "id": 3239215,
      "name": "Pesnica",
      "nativeName": "Pesnica",
      "code": "SI-089",
      "internalCode": "089",
      "countryId": 3190538,
      "countryCode": "SI",
      "latitude": 46.62583,
      "longitude": 15.71278
    },
    {
      "id": 3193340,
      "name": "Piran",
      "nativeName": "Piran",
      "code": "SI-090",
      "internalCode": "090",
      "countryId": 3190538,
      "countryCode": "SI",
      "latitude": 45.48278,
      "longitude": 13.62694
    },
    {
      "id": 3239054,
      "name": "Pivka",
      "nativeName": "Pivka",
      "code": "SI-091",
      "internalCode": "091",
      "countryId": 3190538,
      "countryCode": "SI",
      "latitude": 45.68278,
      "longitude": 14.23556
    },
    {
      "id": 3344924,
      "name": "Podlehnik",
      "nativeName": "Podlehnik",
      "code": "SI-172",
      "internalCode": "172",
      "countryId": 3190538,
      "countryCode": "SI",
      "latitude": 46.31611,
      "longitude": 15.86653
    },
    {
      "id": 3344916,
      "name": "Podvelka",
      "nativeName": "Podvelka",
      "code": "SI-093",
      "internalCode": "093",
      "countryId": 3190538,
      "countryCode": "SI",
      "latitude": 46.60076,
      "longitude": 15.35586
    },
    {
      "id": 3344906,
      "name": "Polzela",
      "nativeName": "Polzela",
      "code": "SI-173",
      "internalCode": "173",
      "countryId": 3190538,
      "countryCode": "SI",
      "latitude": 46.30429,
      "longitude": 15.08452
    },
    {
      "id": 3192672,
      "name": "Postojna",
      "nativeName": "Postojna",
      "code": "SI-094",
      "internalCode": "094",
      "countryId": 3190538,
      "countryCode": "SI",
      "latitude": 45.78556,
      "longitude": 14.17083
    },
    {
      "id": 3344907,
      "name": "Prebold",
      "nativeName": "Prebold",
      "code": "SI-174",
      "internalCode": "174",
      "countryId": 3190538,
      "countryCode": "SI",
      "latitude": 46.2173,
      "longitude": 15.09265
    },
    {
      "id": 3239107,
      "name": "Preddvor",
      "nativeName": "Preddvor",
      "code": "SI-095",
      "internalCode": "095",
      "countryId": 3190538,
      "countryCode": "SI",
      "latitude": 46.32698,
      "longitude": 14.46444
    },
    {
      "id": 3344902,
      "name": "Prevalje",
      "nativeName": "Prevalje",
      "code": "SI-175",
      "internalCode": "175",
      "countryId": 3190538,
      "countryCode": "SI",
      "latitude": 46.55199,
      "longitude": 14.90116
    },
    {
      "id": 3192240,
      "name": "Ptuj",
      "nativeName": "Ptuj",
      "code": "SI-096",
      "internalCode": "096",
      "countryId": 3190538,
      "countryCode": "SI",
      "latitude": 46.43417,
      "longitude": 15.87667
    },
    {
      "id": 3239268,
      "name": "Puconci",
      "nativeName": "Puconci",
      "code": "SI-097",
      "internalCode": "097",
      "countryId": 3190538,
      "countryCode": "SI",
      "latitude": 46.74528,
      "longitude": 16.13889
    },
    {
      "id": 3239262,
      "name": "Radenci",
      "nativeName": "Radenci",
      "code": "SI-100",
      "internalCode": "100",
      "countryId": 3190538,
      "countryCode": "SI",
      "latitude": 46.62722,
      "longitude": 16.04833
    },
    {
      "id": 3239189,
      "name": "Radeče Municipality",
      "nativeName": "Občina Radeče",
      "code": "SI-099",
      "internalCode": "099",
      "countryId": 3190538,
      "countryCode": "SI",
      "latitude": 46.06556,
      "longitude": 15.14083
    },
    {
      "id": 3192120,
      "name": "Radlje ob Dravi",
      "nativeName": "Radlje ob Dravi",
      "code": "SI-101",
      "internalCode": "101",
      "countryId": 3190538,
      "countryCode": "SI",
      "latitude": 46.60725,
      "longitude": 15.25093
    },
    {
      "id": 3192062,
      "name": "Radovljica",
      "nativeName": "Radovljica",
      "code": "SI-102",
      "internalCode": "102",
      "countryId": 3190538,
      "countryCode": "SI",
      "latitude": 46.33778,
      "longitude": 14.19417
    },
    {
      "id": 3191679,
      "name": "Ribnica",
      "nativeName": "Ribnica",
      "code": "SI-104",
      "internalCode": "104",
      "countryId": 3190538,
      "countryCode": "SI",
      "latitude": 45.73738,
      "longitude": 14.71605
    },
    {
      "id": 3344917,
      "name": "Ribnica na Pohorju",
      "nativeName": "Ribnica na Pohorju",
      "code": "SI-177",
      "internalCode": "177",
      "countryId": 3190538,
      "countryCode": "SI",
      "latitude": 46.52533,
      "longitude": 15.26071
    },
    {
      "id": 3239237,
      "name": "Rogatec",
      "nativeName": "Rogatec",
      "code": "SI-107",
      "internalCode": "107",
      "countryId": 3190538,
      "countryCode": "SI",
      "latitude": 46.24194,
      "longitude": 15.74083
    },
    {
      "id": 3239211,
      "name": "Ruše Municipality",
      "nativeName": "Občina Ruše",
      "code": "SI-108",
      "internalCode": "108",
      "countryId": 3190538,
      "countryCode": "SI",
      "latitude": 46.518,
      "longitude": 15.49044
    },
    {
      "id": 3344919,
      "name": "Selnica ob Dravi",
      "nativeName": "Selnica ob Dravi",
      "code": "SI-178",
      "internalCode": "178",
      "countryId": 3190538,
      "countryCode": "SI",
      "latitude": 46.58168,
      "longitude": 15.49539
    },
    {
      "id": 3191028,
      "name": "Sentjur",
      "nativeName": "Občina Šentjur",
      "code": "SI-120",
      "internalCode": "120",
      "countryId": 3190538,
      "countryCode": "SI",
      "latitude": 46.17889,
      "longitude": 15.43056
    },
    {
      "id": 3190949,
      "name": "Sevnica Municipality",
      "nativeName": "Sevnica",
      "code": "SI-110",
      "internalCode": "110",
      "countryId": 3190538,
      "countryCode": "SI",
      "latitude": 46,
      "longitude": 15.3
    },
    {
      "id": 3190535,
      "name": "Slovenj Gradec",
      "nativeName": "Slovenj Gradec",
      "code": "SI-112",
      "internalCode": "112",
      "countryId": 3190538,
      "countryCode": "SI",
      "latitude": 46.48861,
      "longitude": 15.08361
    },
    {
      "id": 3190533,
      "name": "Slovenska Bistrica",
      "nativeName": "Slovenska Bistrica",
      "code": "SI-113",
      "internalCode": "113",
      "countryId": 3190538,
      "countryCode": "SI",
      "latitude": 46.42516,
      "longitude": 15.50667
    },
    {
      "id": 3190529,
      "name": "Slovenske Konjice",
      "nativeName": "Slovenske Konjice",
      "code": "SI-114",
      "internalCode": "114",
      "countryId": 3190538,
      "countryCode": "SI",
      "latitude": 46.325,
      "longitude": 15.45556
    },
    {
      "id": 3344895,
      "name": "Solčava Municipality",
      "nativeName": "Občina Solčava",
      "code": "SI-180",
      "internalCode": "180",
      "countryId": 3190538,
      "countryCode": "SI",
      "latitude": 46.40624,
      "longitude": 14.65911
    },
    {
      "id": 3344931,
      "name": "Sveta Ana Municipality",
      "nativeName": "Sveta Ana",
      "code": "SI-181",
      "internalCode": "181",
      "countryId": 3190538,
      "countryCode": "SI",
      "latitude": 46.64752,
      "longitude": 15.83903
    },
    {
      "id": 8469236,
      "name": "Sveti Jurij v Slovenskih Goricah",
      "nativeName": "Sveti Jurij v Slovenskih Goricah",
      "code": "SI-210",
      "internalCode": "210",
      "countryId": 3190538,
      "countryCode": "SI",
      "latitude": 46.61313,
      "longitude": 15.79251
    },
    {
      "id": 3344904,
      "name": "Tabor",
      "nativeName": "Tabor",
      "code": "SI-184",
      "internalCode": "184",
      "countryId": 3190538,
      "countryCode": "SI",
      "latitude": 46.22235,
      "longitude": 15.01434
    },
    {
      "id": 3188914,
      "name": "Trbovlje",
      "nativeName": "Trbovlje",
      "code": "SI-129",
      "internalCode": "129",
      "countryId": 3190538,
      "countryCode": "SI",
      "latitude": 46.14167,
      "longitude": 15.04222
    },
    {
      "id": 3188885,
      "name": "Trebnje",
      "nativeName": "Trebnje",
      "code": "SI-130",
      "internalCode": "130",
      "countryId": 3190538,
      "countryCode": "SI",
      "latitude": 45.91091,
      "longitude": 14.98773
    },
    {
      "id": 3344901,
      "name": "Trzin",
      "nativeName": "Trzin",
      "code": "SI-186",
      "internalCode": "186",
      "countryId": 3190538,
      "countryCode": "SI",
      "latitude": 46.12527,
      "longitude": 14.55256
    },
    {
      "id": 3189074,
      "name": "Velenje",
      "nativeName": "Velenje",
      "code": "SI-133",
      "internalCode": "133",
      "countryId": 3190538,
      "countryCode": "SI",
      "latitude": 46.36667,
      "longitude": 15.13333
    },
    {
      "id": 3344934,
      "name": "Velika Polana",
      "nativeName": "Velika Polana",
      "code": "SI-187",
      "internalCode": "187",
      "countryId": 3190538,
      "countryCode": "SI",
      "latitude": 46.57861,
      "longitude": 16.35667
    },
    {
      "id": 3239231,
      "name": "Videm",
      "nativeName": "Videm",
      "code": "SI-135",
      "internalCode": "135",
      "countryId": 3190538,
      "countryCode": "SI",
      "latitude": 46.36414,
      "longitude": 15.88128
    },
    {
      "id": 3239075,
      "name": "Vipava",
      "nativeName": "Vipava",
      "code": "SI-136",
      "internalCode": "136",
      "countryId": 3190538,
      "countryCode": "SI",
      "latitude": 45.82361,
      "longitude": 13.98444
    },
    {
      "id": 3239204,
      "name": "Vitanje",
      "nativeName": "Vitanje",
      "code": "SI-137",
      "internalCode": "137",
      "countryId": 3190538,
      "countryCode": "SI",
      "latitude": 46.40306,
      "longitude": 15.29472
    },
    {
      "id": 3239112,
      "name": "Vodice",
      "nativeName": "Vodice",
      "code": "SI-138",
      "internalCode": "138",
      "countryId": 3190538,
      "countryCode": "SI",
      "latitude": 46.17361,
      "longitude": 14.4925
    },
    {
      "id": 3239202,
      "name": "Vojnik",
      "nativeName": "Vojnik",
      "code": "SI-139",
      "internalCode": "139",
      "countryId": 3190538,
      "countryCode": "SI",
      "latitude": 46.31713,
      "longitude": 15.31259
    },
    {
      "id": 3344903,
      "name": "Vransko",
      "nativeName": "Vransko",
      "code": "SI-189",
      "internalCode": "189",
      "countryId": 3190538,
      "countryCode": "SI",
      "latitude": 46.23508,
      "longitude": 14.94972
    },
    {
      "id": 3187213,
      "name": "Vrhnika",
      "nativeName": "Vrhnika",
      "code": "SI-140",
      "internalCode": "140",
      "countryId": 3190538,
      "countryCode": "SI",
      "latitude": 45.9614,
      "longitude": 14.29265
    },
    {
      "id": 3239180,
      "name": "Vuzenica",
      "nativeName": "Vuzenica",
      "code": "SI-141",
      "internalCode": "141",
      "countryId": 3190538,
      "countryCode": "SI",
      "latitude": 46.56889,
      "longitude": 15.15222
    },
    {
      "id": 3186905,
      "name": "Zagorje ob Savi Municipality",
      "nativeName": "Zagorje ob Savi",
      "code": "SI-142",
      "internalCode": "142",
      "countryId": 3190538,
      "countryCode": "SI",
      "latitude": 46.12974,
      "longitude": 14.96583
    },
    {
      "id": 3239205,
      "name": "Zreče Municipality",
      "nativeName": "Občina Zreče",
      "code": "SI-144",
      "internalCode": "144",
      "countryId": 3190538,
      "countryCode": "SI",
      "latitude": 46.39389,
      "longitude": 15.38
    },
    {
      "id": 3239181,
      "name": "Črna na Koroškem Municipality",
      "nativeName": "Občina Črna na Koroškem",
      "code": "SI-016",
      "internalCode": "016",
      "countryId": 3190538,
      "countryCode": "SI",
      "latitude": 46.46417,
      "longitude": 14.82139
    },
    {
      "id": 3202332,
      "name": "Črnomelj Municipality",
      "nativeName": "Občina Črnomelj",
      "code": "SI-017",
      "internalCode": "017",
      "countryId": 3190538,
      "countryCode": "SI",
      "latitude": 45.52389,
      "longitude": 15.19833
    },
    {
      "id": 3190716,
      "name": "Škofja Loka",
      "nativeName": "Občina Škofja Loka",
      "code": "SI-122",
      "internalCode": "122",
      "countryId": 3190538,
      "countryCode": "SI",
      "latitude": 46.16306,
      "longitude": 14.28167
    },
    {
      "id": 3239093,
      "name": "Železniki Municipality",
      "nativeName": "Občina Železniki",
      "code": "SI-146",
      "internalCode": "146",
      "countryId": 3190538,
      "countryCode": "SI",
      "latitude": 46.2125,
      "longitude": 14.10583
    }
  ]
}