{
  "stateId": 1524787,
  "stateCode": "KZ-61",
  "countryCode": "KZ",
  "cities": [
    {
      "id": 1537273,
      "name": "Arys Qalasy",
      "nativeName": "Arys Qalasy",
      "code": "KZ-61-1537273",
      "countryId": 1522867,
      "countryCode": "KZ",
      "stateCode": "KZ-61",
      "latitude": 42.43333,
      "longitude": 68.8
    },
    {
      "id": 1537271,
      "name": "Arys' Gorodskaya Administratsiya",
      "nativeName": "Arys' Gorodskaya Administratsiya",
      "code": "KZ-61-1537271",
      "countryId": 1522867,
      "countryCode": "KZ",
      "stateCode": "KZ-61",
      "latitude": 42.16667,
      "longitude": 68.25
    },
    {
      "id": 1526412,
      "name": "Baydibek District",
      "nativeName": "Rayon Baydibeka",
      "code": "KZ-61-1526412",
      "countryId": 1522867,
      "countryCode": "KZ",
      "stateCode": "KZ-61",
      "latitude": 43,
      "longitude": 69.5
    },
    {
      "id": 8739752,
      "name": "Kazygurt District",
      "nativeName": "Kazygurt District",
      "code": "KZ-61-8739752",
      "countryId": 1522867,
      "countryCode": "KZ",
      "stateCode": "KZ-61",
      "latitude": 41.759,
      "longitude": 69.41
    },
    {
      "id": 1521354,
      "name": "Kazygurtskiy Rayon",
      "nativeName": "Kazygurtskiy Rayon",
      "code": "KZ-61-1521354",
      "countryId": 1522867,
      "countryCode": "KZ",
      "stateCode": "KZ-61",
      "latitude": 41.83333,
      "longitude": 69.75
    },
    {
      "id": 1522812,
      "name": "Kelesskiy Rayon",
      "nativeName": "Kelesskiy Rayon",
      "code": "KZ-61-1522812",
      "countryId": 1522867,
      "countryCode": "KZ",
      "stateCode": "KZ-61",
      "latitude": 41.25,
      "longitude": 68.5
    },
    {
      "id": 1537274,
      "name": "Kentau Gorodskaya Administratsiya",
      "nativeName": "Kentau Gorodskaya Administratsiya",
      "code": "KZ-61-1537274",
      "countryId": 1522867,
      "countryCode": "KZ",
      "stateCode": "KZ-61",
      "latitude": 43.51307,
      "longitude": 68.47184
    },
    {
      "id": 1522640,
      "name": "Kirovskiy Rayon",
      "nativeName": "Kirovskiy Rayon",
      "code": "KZ-61-1522640",
      "countryId": 1522867,
      "countryCode": "KZ",
      "stateCode": "KZ-61",
      "latitude": 40.91667,
      "longitude": 68.16667
    },
    {
      "id": 1520258,
      "name": "Maktaaral’skiy Rayon",
      "nativeName": "Maktaaral’skiy Rayon",
      "code": "KZ-61-1520258",
      "countryId": 1522867,
      "countryCode": "KZ",
      "stateCode": "KZ-61",
      "latitude": 40.7492,
      "longitude": 68.49466
    },
    {
      "id": 1525042,
      "name": "Ordabasy District",
      "nativeName": "Ordabasy Aūdany",
      "code": "KZ-61-1525042",
      "countryId": 1522867,
      "countryCode": "KZ",
      "stateCode": "KZ-61",
      "latitude": 42.58333,
      "longitude": 69.25
    },
    {
      "id": 1521407,
      "name": "Otyrar District",
      "nativeName": "Otrarskiy Rayon",
      "code": "KZ-61-1521407",
      "countryId": 1522867,
      "countryCode": "KZ",
      "stateCode": "KZ-61",
      "latitude": 42.66667,
      "longitude": 67.5
    },
    {
      "id": 12518736,
      "name": "Rayon Sauran",
      "nativeName": "Rayon Sauran",
      "code": "KZ-61-12518736",
      "countryId": 1522867,
      "countryCode": "KZ",
      "stateCode": "KZ-61",
      "latitude": 43.41095,
      "longitude": 68.41851
    },
    {
      "id": 1519675,
      "name": "Saryagash District",
      "nativeName": "Saryagachskiy Rayon",
      "code": "KZ-61-1519675",
      "countryId": 1522867,
      "countryCode": "KZ",
      "stateCode": "KZ-61",
      "latitude": 41.66667,
      "longitude": 68.83333
    },
    {
      "id": 1519452,
      "name": "Sayram District",
      "nativeName": "Sayram Aūdany",
      "code": "KZ-61-1519452",
      "countryId": 1522867,
      "countryCode": "KZ",
      "stateCode": "KZ-61",
      "latitude": 42.41667,
      "longitude": 69.75
    },
    {
      "id": 1524885,
      "name": "Shardara District",
      "nativeName": "Shardarinskiy Rayon",
      "code": "KZ-61-1524885",
      "countryId": 1522867,
      "countryCode": "KZ",
      "stateCode": "KZ-61",
      "latitude": 41.5,
      "longitude": 67.25
    },
    {
      "id": 1518678,
      "name": "Sozak District",
      "nativeName": "Suzakskiy Rayon",
      "code": "KZ-61-1518678",
      "countryId": 1522867,
      "countryCode": "KZ",
      "stateCode": "KZ-61",
      "latitude": 44.83333,
      "longitude": 68.5
    },
    {
      "id": 1521378,
      "name": "Tole Bi District",
      "nativeName": "Tolebiyskiy Rayon",
      "code": "KZ-61-1521378",
      "countryId": 1522867,
      "countryCode": "KZ",
      "stateCode": "KZ-61",
      "latitude": 42.25,
      "longitude": 70.25
    },
    {
      "id": 1517878,
      "name": "Tulkibas District",
      "nativeName": "Tyul’kubasskiy Rayon",
      "code": "KZ-61-1517878",
      "countryId": 1522867,
      "countryCode": "KZ",
      "stateCode": "KZ-61",
      "latitude": 42.5,
      "longitude": 70.25
    },
    {
      "id": 1517946,
      "name": "Turkestan Gorodskaya Administratsiya",
      "nativeName": "Turkestan Gorodskaya Administratsiya",
      "code": "KZ-61-1517946",
      "countryId": 1522867,
      "countryCode": "KZ",
      "stateCode": "KZ-61",
      "latitude": 43.29302,
      "longitude": 68.28881
    },
    {
      "id": 1537276,
      "name": "Türkistan Qalasy",
      "nativeName": "Türkistan Qalasy",
      "code": "KZ-61-1537276",
      "countryId": 1522867,
      "countryCode": "KZ",
      "stateCode": "KZ-61",
      "latitude": 43.33333,
      "longitude": 68.25
    },
    {
      "id": 1524384,
      "name": "Zhetisayskiy Rayon",
      "nativeName": "Zhetisayskiy Rayon",
      "code": "KZ-61-1524384",
      "countryId": 1522867,
      "countryCode": "KZ",
      "stateCode": "KZ-61",
      "latitude": 40.8609,
      "longitude": 68.22871
    }
  ]
}