{
  "stateId": 457889,
  "stateCode": "LV-054",
  "countryCode": "LV",
  "cities": [
    {
      "id": 11352837,
      "name": "Ainaži",
      "nativeName": "Ainaži",
      "code": "LV-054-11352837",
      "countryId": 458258,
      "countryCode": "LV",
      "stateCode": "LV-054",
      "latitude": 57.8586,
      "longitude": 24.3556
    },
    {
      "id": 11352853,
      "name": "Ainažu pagasts",
      "nativeName": "Ainažu pagasts",
      "code": "LV-054-11352853",
      "countryId": 458258,
      "countryCode": "LV",
      "stateCode": "LV-054",
      "latitude": 57.87076,
      "longitude": 24.50208
    },
    {
      "id": 11352442,
      "name": "Aloja",
      "nativeName": "Aloja",
      "code": "LV-054-11352442",
      "countryId": 458258,
      "countryCode": "LV",
      "stateCode": "LV-054",
      "latitude": 57.76795,
      "longitude": 24.87747
    },
    {
      "id": 11352443,
      "name": "Alojas pagasts",
      "nativeName": "Alojas pagasts",
      "code": "LV-054-11352443",
      "countryId": 458258,
      "countryCode": "LV",
      "stateCode": "LV-054",
      "latitude": 57.77819,
      "longitude": 24.83669
    },
    {
      "id": 11352444,
      "name": "Braslavas pagasts",
      "nativeName": "Braslavas pagasts",
      "code": "LV-054-11352444",
      "countryId": 458258,
      "countryCode": "LV",
      "stateCode": "LV-054",
      "latitude": 57.73848,
      "longitude": 25.01919
    },
    {
      "id": 11352445,
      "name": "Brīvzemnieku pagasts",
      "nativeName": "Brīvzemnieku pagasts",
      "code": "LV-054-11352445",
      "countryId": 458258,
      "countryCode": "LV",
      "stateCode": "LV-054",
      "latitude": 57.66994,
      "longitude": 24.95215
    },
    {
      "id": 11352727,
      "name": "Katvaru pagasts",
      "nativeName": "Katvaru pagasts",
      "code": "LV-054-11352727",
      "countryId": 458258,
      "countryCode": "LV",
      "stateCode": "LV-054",
      "latitude": 57.58681,
      "longitude": 24.81068
    },
    {
      "id": 11352880,
      "name": "Liepupes pagasts",
      "nativeName": "Liepupes pagasts",
      "code": "LV-054-11352880",
      "countryId": 458258,
      "countryCode": "LV",
      "stateCode": "LV-054",
      "latitude": 57.48446,
      "longitude": 24.46169
    },
    {
      "id": 11352728,
      "name": "Limbaži",
      "nativeName": "Limbaži",
      "code": "LV-054-11352728",
      "countryId": 458258,
      "countryCode": "LV",
      "stateCode": "LV-054",
      "latitude": 57.51099,
      "longitude": 24.71676
    },
    {
      "id": 11352729,
      "name": "Limbažu pagasts",
      "nativeName": "Limbažu pagasts",
      "code": "LV-054-11352729",
      "countryId": 458258,
      "countryCode": "LV",
      "stateCode": "LV-054",
      "latitude": 57.4655,
      "longitude": 24.69149
    },
    {
      "id": 11352730,
      "name": "Pāles pagasts",
      "nativeName": "Pāles pagasts",
      "code": "LV-054-11352730",
      "countryId": 458258,
      "countryCode": "LV",
      "stateCode": "LV-054",
      "latitude": 57.69498,
      "longitude": 24.71457
    },
    {
      "id": 11352881,
      "name": "Salacgrīva",
      "nativeName": "Salacgrīva",
      "code": "LV-054-11352881",
      "countryId": 458258,
      "countryCode": "LV",
      "stateCode": "LV-054",
      "latitude": 57.75647,
      "longitude": 24.36216
    },
    {
      "id": 11352882,
      "name": "Salacgrīvas pagasts",
      "nativeName": "Salacgrīvas pagasts",
      "code": "LV-054-11352882",
      "countryId": 458258,
      "countryCode": "LV",
      "stateCode": "LV-054",
      "latitude": 57.73022,
      "longitude": 24.48039
    },
    {
      "id": 11352731,
      "name": "Skultes pagasts",
      "nativeName": "Skultes pagasts",
      "code": "LV-054-11352731",
      "countryId": 458258,
      "countryCode": "LV",
      "stateCode": "LV-054",
      "latitude": 57.37217,
      "longitude": 24.50957
    },
    {
      "id": 11352446,
      "name": "Staicele",
      "nativeName": "Staicele",
      "code": "LV-054-11352446",
      "countryId": 458258,
      "countryCode": "LV",
      "stateCode": "LV-054",
      "latitude": 57.83556,
      "longitude": 24.75875
    },
    {
      "id": 11352447,
      "name": "Staiceles pagasts",
      "nativeName": "Staiceles pagasts",
      "code": "LV-054-11352447",
      "countryId": 458258,
      "countryCode": "LV",
      "stateCode": "LV-054",
      "latitude": 57.89022,
      "longitude": 24.73167
    },
    {
      "id": 11352733,
      "name": "Umurgas pagasts",
      "nativeName": "Umurgas pagasts",
      "code": "LV-054-11352733",
      "countryId": 458258,
      "countryCode": "LV",
      "stateCode": "LV-054",
      "latitude": 57.50397,
      "longitude": 24.9121
    },
    {
      "id": 11352734,
      "name": "Vidrižu pagasts",
      "nativeName": "Vidrižu pagasts",
      "code": "LV-054-11352734",
      "countryId": 458258,
      "countryCode": "LV",
      "stateCode": "LV-054",
      "latitude": 57.31571,
      "longitude": 24.64803
    },
    {
      "id": 11352735,
      "name": "Viļķenes pagasts",
      "nativeName": "Viļķenes pagasts",
      "code": "LV-054-11352735",
      "countryId": 458258,
      "countryCode": "LV",
      "stateCode": "LV-054",
      "latitude": 57.6111,
      "longitude": 24.5796
    }
  ]
}