{
  "stateId": 457773,
  "stateCode": "LV-058",
  "countryCode": "LV",
  "cities": [
    {
      "id": 11352525,
      "name": "Blontu pagasts",
      "nativeName": "Blontu pagasts",
      "code": "LV-058-11352525",
      "countryId": 458258,
      "countryCode": "LV",
      "stateCode": "LV-058",
      "latitude": 56.64171,
      "longitude": 27.85826
    },
    {
      "id": 11352742,
      "name": "Briģu pagasts",
      "nativeName": "Briģu pagasts",
      "code": "LV-058-11352742",
      "countryId": 458258,
      "countryCode": "LV",
      "stateCode": "LV-058",
      "latitude": 56.44915,
      "longitude": 28.06754
    },
    {
      "id": 11352526,
      "name": "Ciblas pagasts",
      "nativeName": "Ciblas pagasts",
      "code": "LV-058-11352526",
      "countryId": 458258,
      "countryCode": "LV",
      "stateCode": "LV-058",
      "latitude": 56.53402,
      "longitude": 27.91839
    },
    {
      "id": 11352743,
      "name": "Cirmas pagasts",
      "nativeName": "Cirmas pagasts",
      "code": "LV-058-11352743",
      "countryId": 458258,
      "countryCode": "LV",
      "stateCode": "LV-058",
      "latitude": 56.52112,
      "longitude": 27.58717
    },
    {
      "id": 11352663,
      "name": "Goliševas pagasts",
      "nativeName": "Goliševas pagasts",
      "code": "LV-058-11352663",
      "countryId": 458258,
      "countryCode": "LV",
      "stateCode": "LV-058",
      "latitude": 56.76187,
      "longitude": 27.89136
    },
    {
      "id": 11352744,
      "name": "Isnaudas pagasts",
      "nativeName": "Isnaudas pagasts",
      "code": "LV-058-11352744",
      "countryId": 458258,
      "countryCode": "LV",
      "stateCode": "LV-058",
      "latitude": 56.48466,
      "longitude": 27.81625
    },
    {
      "id": 11352745,
      "name": "Istras pagasts",
      "nativeName": "Istras pagasts",
      "code": "LV-058-11352745",
      "countryId": 458258,
      "countryCode": "LV",
      "stateCode": "LV-058",
      "latitude": 56.24359,
      "longitude": 27.96685
    },
    {
      "id": 11352646,
      "name": "Kārsava",
      "nativeName": "Kārsava",
      "code": "LV-058-11352646",
      "countryId": 458258,
      "countryCode": "LV",
      "stateCode": "LV-058",
      "latitude": 56.78688,
      "longitude": 27.68175
    },
    {
      "id": 11353012,
      "name": "Lauderu pagasts",
      "nativeName": "Lauderu pagasts",
      "code": "LV-058-11353012",
      "countryId": 458258,
      "countryCode": "LV",
      "stateCode": "LV-058",
      "latitude": 56.32198,
      "longitude": 27.96276
    },
    {
      "id": 11352746,
      "name": "Ludza",
      "nativeName": "Ludza",
      "code": "LV-058-11352746",
      "countryId": 458258,
      "countryCode": "LV",
      "stateCode": "LV-058",
      "latitude": 56.54484,
      "longitude": 27.7117
    },
    {
      "id": 11352527,
      "name": "Līdumnieku pagasts",
      "nativeName": "Līdumnieku pagasts",
      "code": "LV-058-11352527",
      "countryId": 458258,
      "countryCode": "LV",
      "stateCode": "LV-058",
      "latitude": 56.57986,
      "longitude": 28.01384
    },
    {
      "id": 11352664,
      "name": "Malnavas pagasts",
      "nativeName": "Malnavas pagasts",
      "code": "LV-058-11352664",
      "countryId": 458258,
      "countryCode": "LV",
      "stateCode": "LV-058",
      "latitude": 56.79818,
      "longitude": 27.76651
    },
    {
      "id": 11352666,
      "name": "Mežvidu pagasts",
      "nativeName": "Mežvidu pagasts",
      "code": "LV-058-11352666",
      "countryId": 458258,
      "countryCode": "LV",
      "stateCode": "LV-058",
      "latitude": 56.69995,
      "longitude": 27.56455
    },
    {
      "id": 11352665,
      "name": "Mērdzenes pagasts",
      "nativeName": "Mērdzenes pagasts",
      "code": "LV-058-11352665",
      "countryId": 458258,
      "countryCode": "LV",
      "stateCode": "LV-058",
      "latitude": 56.69662,
      "longitude": 27.75055
    },
    {
      "id": 11352747,
      "name": "Nirzas pagasts",
      "nativeName": "Nirzas pagasts",
      "code": "LV-058-11352747",
      "countryId": 458258,
      "countryCode": "LV",
      "stateCode": "LV-058",
      "latitude": 56.38982,
      "longitude": 27.92056
    },
    {
      "id": 11353013,
      "name": "Pasienes pagasts",
      "nativeName": "Pasienes pagasts",
      "code": "LV-058-11353013",
      "countryId": 458258,
      "countryCode": "LV",
      "stateCode": "LV-058",
      "latitude": 56.23562,
      "longitude": 28.14588
    },
    {
      "id": 11352749,
      "name": "Pildas pagasts",
      "nativeName": "Pildas pagasts",
      "code": "LV-058-11352749",
      "countryId": 458258,
      "countryCode": "LV",
      "stateCode": "LV-058",
      "latitude": 56.36668,
      "longitude": 27.76749
    },
    {
      "id": 11352750,
      "name": "Pureņu pagasts",
      "nativeName": "Pureņu pagasts",
      "code": "LV-058-11352750",
      "countryId": 458258,
      "countryCode": "LV",
      "stateCode": "LV-058",
      "latitude": 56.46254,
      "longitude": 27.63462
    },
    {
      "id": 11352528,
      "name": "Pušmucovas pagasts",
      "nativeName": "Pušmucovas pagasts",
      "code": "LV-058-11352528",
      "countryId": 458258,
      "countryCode": "LV",
      "stateCode": "LV-058",
      "latitude": 56.64485,
      "longitude": 27.7228
    },
    {
      "id": 11352751,
      "name": "Rundēnu pagasts",
      "nativeName": "Rundēnu pagasts",
      "code": "LV-058-11352751",
      "countryId": 458258,
      "countryCode": "LV",
      "stateCode": "LV-058",
      "latitude": 56.26304,
      "longitude": 27.78287
    },
    {
      "id": 11352668,
      "name": "Salnavas pagasts",
      "nativeName": "Salnavas pagasts",
      "code": "LV-058-11352668",
      "countryId": 458258,
      "countryCode": "LV",
      "stateCode": "LV-058",
      "latitude": 56.81289,
      "longitude": 27.52939
    },
    {
      "id": 11353014,
      "name": "Zaļesjes pagasts",
      "nativeName": "Zaļesjes pagasts",
      "code": "LV-058-11353014",
      "countryId": 458258,
      "countryCode": "LV",
      "stateCode": "LV-058",
      "latitude": 56.35425,
      "longitude": 28.10276
    },
    {
      "id": 11352999,
      "name": "Zilupe",
      "nativeName": "Zilupe",
      "code": "LV-058-11352999",
      "countryId": 458258,
      "countryCode": "LV",
      "stateCode": "LV-058",
      "latitude": 56.39074,
      "longitude": 28.11617
    },
    {
      "id": 11352529,
      "name": "Zvirgzdenes pagasts",
      "nativeName": "Zvirgzdenes pagasts",
      "code": "LV-058-11352529",
      "countryId": 458258,
      "countryCode": "LV",
      "stateCode": "LV-058",
      "latitude": 56.57641,
      "longitude": 27.71248
    },
    {
      "id": 11352748,
      "name": "Ņukšu pagasts",
      "nativeName": "Ņukšu pagasts",
      "code": "LV-058-11352748",
      "countryId": 458258,
      "countryCode": "LV",
      "stateCode": "LV-058",
      "latitude": 56.43283,
      "longitude": 27.70959
    }
  ]
}