{
  "stateId": 457061,
  "stateCode": "LV-067",
  "countryCode": "LV",
  "cities": [
    {
      "id": 11352670,
      "name": "Birzgales pagasts",
      "nativeName": "Birzgales pagasts",
      "code": "LV-067-11352670",
      "countryId": 458258,
      "countryCode": "LV",
      "stateCode": "LV-067",
      "latitude": 56.62642,
      "longitude": 24.77918
    },
    {
      "id": 11352606,
      "name": "Ikšķile",
      "nativeName": "Ikšķile",
      "code": "LV-067-11352606",
      "countryId": 458258,
      "countryCode": "LV",
      "stateCode": "LV-067",
      "latitude": 56.83296,
      "longitude": 24.50293
    },
    {
      "id": 11352708,
      "name": "Jumpravas pagasts",
      "nativeName": "Jumpravas pagasts",
      "code": "LV-067-11352708",
      "countryId": 458258,
      "countryCode": "LV",
      "stateCode": "LV-067",
      "latitude": 56.67194,
      "longitude": 24.97676
    },
    {
      "id": 11352790,
      "name": "Krapes pagasts",
      "nativeName": "Krapes pagasts",
      "code": "LV-067-11352790",
      "countryId": 458258,
      "countryCode": "LV",
      "stateCode": "LV-067",
      "latitude": 56.73751,
      "longitude": 25.19718
    },
    {
      "id": 11352791,
      "name": "Lauberes pagasts",
      "nativeName": "Lauberes pagasts",
      "code": "LV-067-11352791",
      "countryId": 458258,
      "countryCode": "LV",
      "stateCode": "LV-067",
      "latitude": 56.83746,
      "longitude": 25.01419
    },
    {
      "id": 11352677,
      "name": "Lielvārde",
      "nativeName": "Lielvārde",
      "code": "LV-067-11352677",
      "countryId": 458258,
      "countryCode": "LV",
      "stateCode": "LV-067",
      "latitude": 56.71907,
      "longitude": 24.81072
    },
    {
      "id": 11352685,
      "name": "Lielvārdes pagasts",
      "nativeName": "Lielvārdes pagasts",
      "code": "LV-067-11352685",
      "countryId": 458258,
      "countryCode": "LV",
      "stateCode": "LV-067",
      "latitude": 56.71906,
      "longitude": 24.89509
    },
    {
      "id": 11352725,
      "name": "Lēdmanes pagasts",
      "nativeName": "Lēdmanes pagasts",
      "code": "LV-067-11352725",
      "countryId": 458258,
      "countryCode": "LV",
      "stateCode": "LV-067",
      "latitude": 56.76686,
      "longitude": 24.988
    },
    {
      "id": 11352792,
      "name": "Madlienas pagasts",
      "nativeName": "Madlienas pagasts",
      "code": "LV-067-11352792",
      "countryId": 458258,
      "countryCode": "LV",
      "stateCode": "LV-067",
      "latitude": 56.81341,
      "longitude": 25.19492
    },
    {
      "id": 11352793,
      "name": "Mazozolu pagasts",
      "nativeName": "Mazozolu pagasts",
      "code": "LV-067-11352793",
      "countryId": 458258,
      "countryCode": "LV",
      "stateCode": "LV-067",
      "latitude": 56.91856,
      "longitude": 25.46093
    },
    {
      "id": 11352796,
      "name": "Meņģeles pagasts",
      "nativeName": "Meņģeles pagasts",
      "code": "LV-067-11352796",
      "countryId": 458258,
      "countryCode": "LV",
      "stateCode": "LV-067",
      "latitude": 56.81156,
      "longitude": 25.4089
    },
    {
      "id": 11352765,
      "name": "Ogre",
      "nativeName": "Ogre",
      "code": "LV-067-11352765",
      "countryId": 458258,
      "countryCode": "LV",
      "stateCode": "LV-067",
      "latitude": 56.8129,
      "longitude": 24.61782
    },
    {
      "id": 11352797,
      "name": "Ogresgala pagasts",
      "nativeName": "Ogresgala pagasts",
      "code": "LV-067-11352797",
      "countryId": 458258,
      "countryCode": "LV",
      "stateCode": "LV-067",
      "latitude": 56.80707,
      "longitude": 24.72388
    },
    {
      "id": 11352672,
      "name": "Rembates pagasts",
      "nativeName": "Rembates pagasts",
      "code": "LV-067-11352672",
      "countryId": 458258,
      "countryCode": "LV",
      "stateCode": "LV-067",
      "latitude": 56.78007,
      "longitude": 24.82572
    },
    {
      "id": 11352798,
      "name": "Suntažu pagasts",
      "nativeName": "Suntažu pagasts",
      "code": "LV-067-11352798",
      "countryId": 458258,
      "countryCode": "LV",
      "stateCode": "LV-067",
      "latitude": 56.89066,
      "longitude": 24.88473
    },
    {
      "id": 11352799,
      "name": "Taurupes pagasts",
      "nativeName": "Taurupes pagasts",
      "code": "LV-067-11352799",
      "countryId": 458258,
      "countryCode": "LV",
      "stateCode": "LV-067",
      "latitude": 56.90305,
      "longitude": 25.31905
    },
    {
      "id": 11352673,
      "name": "Tomes pagasts",
      "nativeName": "Tomes pagasts",
      "code": "LV-067-11352673",
      "countryId": 458258,
      "countryCode": "LV",
      "stateCode": "LV-067",
      "latitude": 56.74088,
      "longitude": 24.62213
    },
    {
      "id": 11352618,
      "name": "Tīnūžu pagasts",
      "nativeName": "Tīnūžu pagasts",
      "code": "LV-067-11352618",
      "countryId": 458258,
      "countryCode": "LV",
      "stateCode": "LV-067",
      "latitude": 56.8624,
      "longitude": 24.58799
    },
    {
      "id": 11352671,
      "name": "Ķegums",
      "nativeName": "Ķegums",
      "code": "LV-067-11352671",
      "countryId": 458258,
      "countryCode": "LV",
      "stateCode": "LV-067",
      "latitude": 56.74079,
      "longitude": 24.71837
    },
    {
      "id": 11352789,
      "name": "Ķeipenes pagasts",
      "nativeName": "Ķeipenes pagasts",
      "code": "LV-067-11352789",
      "countryId": 458258,
      "countryCode": "LV",
      "stateCode": "LV-067",
      "latitude": 56.90619,
      "longitude": 25.14104
    }
  ]
}