{
  "stateId": 457712,
  "stateCode": "LV-059",
  "countryCode": "LV",
  "cities": [
    {
      "id": 11352752,
      "name": "Aronas pagasts",
      "nativeName": "Aronas pagasts",
      "code": "LV-059-11352752",
      "countryId": 458258,
      "countryCode": "LV",
      "stateCode": "LV-059",
      "latitude": 56.90622,
      "longitude": 26.09668
    },
    {
      "id": 11352753,
      "name": "Barkavas pagasts",
      "nativeName": "Barkavas pagasts",
      "code": "LV-059-11352753",
      "countryId": 458258,
      "countryCode": "LV",
      "stateCode": "LV-059",
      "latitude": 56.73201,
      "longitude": 26.59275
    },
    {
      "id": 11352754,
      "name": "Bērzaunes pagasts",
      "nativeName": "Bērzaunes pagasts",
      "code": "LV-059-11352754",
      "countryId": 458258,
      "countryCode": "LV",
      "stateCode": "LV-059",
      "latitude": 56.83016,
      "longitude": 25.98727
    },
    {
      "id": 11352523,
      "name": "Cesvaine",
      "nativeName": "Cesvaine",
      "code": "LV-059-11352523",
      "countryId": 458258,
      "countryCode": "LV",
      "stateCode": "LV-059",
      "latitude": 56.96513,
      "longitude": 26.31127
    },
    {
      "id": 11352524,
      "name": "Cesvaines pagasts",
      "nativeName": "Cesvaines pagasts",
      "code": "LV-059-11352524",
      "countryId": 458258,
      "countryCode": "LV",
      "stateCode": "LV-059",
      "latitude": 57.00904,
      "longitude": 26.27641
    },
    {
      "id": 11352755,
      "name": "Dzelzavas pagasts",
      "nativeName": "Dzelzavas pagasts",
      "code": "LV-059-11352755",
      "countryId": 458258,
      "countryCode": "LV",
      "stateCode": "LV-059",
      "latitude": 56.99374,
      "longitude": 26.47403
    },
    {
      "id": 11352740,
      "name": "Indrānu pagasts",
      "nativeName": "Indrānu pagasts",
      "code": "LV-059-11352740",
      "countryId": 458258,
      "countryCode": "LV",
      "stateCode": "LV-059",
      "latitude": 56.9225,
      "longitude": 26.67
    },
    {
      "id": 11352591,
      "name": "Jumurdas pagasts",
      "nativeName": "Jumurdas pagasts",
      "code": "LV-059-11352591",
      "countryId": 458258,
      "countryCode": "LV",
      "stateCode": "LV-059",
      "latitude": 56.93994,
      "longitude": 25.7761
    },
    {
      "id": 11352756,
      "name": "Kalsnavas pagasts",
      "nativeName": "Kalsnavas pagasts",
      "code": "LV-059-11352756",
      "countryId": 458258,
      "countryCode": "LV",
      "stateCode": "LV-059",
      "latitude": 56.73111,
      "longitude": 25.93796
    },
    {
      "id": 11352758,
      "name": "Lazdonas pagasts",
      "nativeName": "Lazdonas pagasts",
      "code": "LV-059-11352758",
      "countryId": 458258,
      "countryCode": "LV",
      "stateCode": "LV-059",
      "latitude": 56.82441,
      "longitude": 26.19215
    },
    {
      "id": 11352761,
      "name": "Liezēres pagasts",
      "nativeName": "Liezēres pagasts",
      "code": "LV-059-11352761",
      "countryId": 458258,
      "countryCode": "LV",
      "stateCode": "LV-059",
      "latitude": 57.01881,
      "longitude": 26.03577
    },
    {
      "id": 11352741,
      "name": "Lubāna",
      "nativeName": "Lubāna",
      "code": "LV-059-11352741",
      "countryId": 458258,
      "countryCode": "LV",
      "stateCode": "LV-059",
      "latitude": 56.89846,
      "longitude": 26.72028
    },
    {
      "id": 11352762,
      "name": "Madona",
      "nativeName": "Madona",
      "code": "LV-059-11352762",
      "countryId": 458258,
      "countryCode": "LV",
      "stateCode": "LV-059",
      "latitude": 56.85458,
      "longitude": 26.22387
    },
    {
      "id": 11352763,
      "name": "Mārcienas pagasts",
      "nativeName": "Mārcienas pagasts",
      "code": "LV-059-11352763",
      "countryId": 458258,
      "countryCode": "LV",
      "stateCode": "LV-059",
      "latitude": 56.77373,
      "longitude": 26.10154
    },
    {
      "id": 11352764,
      "name": "Mētrienas pagasts",
      "nativeName": "Mētrienas pagasts",
      "code": "LV-059-11352764",
      "countryId": 458258,
      "countryCode": "LV",
      "stateCode": "LV-059",
      "latitude": 56.6857,
      "longitude": 26.35603
    },
    {
      "id": 11352766,
      "name": "Ošupes pagasts",
      "nativeName": "Ošupes pagasts",
      "code": "LV-059-11352766",
      "countryId": 458258,
      "countryCode": "LV",
      "stateCode": "LV-059",
      "latitude": 56.81609,
      "longitude": 26.76969
    },
    {
      "id": 11352767,
      "name": "Praulienas pagasts",
      "nativeName": "Praulienas pagasts",
      "code": "LV-059-11352767",
      "countryId": 458258,
      "countryCode": "LV",
      "stateCode": "LV-059",
      "latitude": 56.80941,
      "longitude": 26.36949
    },
    {
      "id": 11352760,
      "name": "Sarkaņu pagasts",
      "nativeName": "Sarkaņu pagasts",
      "code": "LV-059-11352760",
      "countryId": 458258,
      "countryCode": "LV",
      "stateCode": "LV-059",
      "latitude": 56.90591,
      "longitude": 26.35701
    },
    {
      "id": 11352592,
      "name": "Sausnējas pagasts",
      "nativeName": "Sausnējas pagasts",
      "code": "LV-059-11352592",
      "countryId": 458258,
      "countryCode": "LV",
      "stateCode": "LV-059",
      "latitude": 56.82914,
      "longitude": 25.6334
    },
    {
      "id": 11352769,
      "name": "Vestienas pagasts",
      "nativeName": "Vestienas pagasts",
      "code": "LV-059-11352769",
      "countryId": 458258,
      "countryCode": "LV",
      "stateCode": "LV-059",
      "latitude": 56.86622,
      "longitude": 25.849
    },
    {
      "id": 11352590,
      "name": "Ērgļu pagasts",
      "nativeName": "Ērgļu pagasts",
      "code": "LV-059-11352590",
      "countryId": 458258,
      "countryCode": "LV",
      "stateCode": "LV-059",
      "latitude": 56.91866,
      "longitude": 25.60756
    },
    {
      "id": 11352757,
      "name": "Ļaudonas pagasts",
      "nativeName": "Ļaudonas pagasts",
      "code": "LV-059-11352757",
      "countryId": 458258,
      "countryCode": "LV",
      "stateCode": "LV-059",
      "latitude": 56.692,
      "longitude": 26.16577
    }
  ]
}