{
  "stateId": 459278,
  "stateCode": "LV-041",
  "countryCode": "LV",
  "cities": [
    {
      "id": 11352802,
      "name": "Cenu pagasts",
      "nativeName": "Cenu pagasts",
      "code": "LV-041-11352802",
      "countryId": 458258,
      "countryCode": "LV",
      "stateCode": "LV-041",
      "latitude": 56.6996,
      "longitude": 23.85347
    },
    {
      "id": 11352640,
      "name": "Elejas pagasts",
      "nativeName": "Elejas pagasts",
      "code": "LV-041-11352640",
      "countryId": 458258,
      "countryCode": "LV",
      "stateCode": "LV-041",
      "latitude": 56.41958,
      "longitude": 23.70162
    },
    {
      "id": 11352641,
      "name": "Glūdas pagasts",
      "nativeName": "Glūdas pagasts",
      "code": "LV-041-11352641",
      "countryId": 458258,
      "countryCode": "LV",
      "stateCode": "LV-041",
      "latitude": 56.61529,
      "longitude": 23.54
    },
    {
      "id": 11352642,
      "name": "Jaunsvirlaukas pagasts",
      "nativeName": "Jaunsvirlaukas pagasts",
      "code": "LV-041-11352642",
      "countryId": 458258,
      "countryCode": "LV",
      "stateCode": "LV-041",
      "latitude": 56.57013,
      "longitude": 23.89188
    },
    {
      "id": 11352549,
      "name": "Kalnciema pagasts",
      "nativeName": "Kalnciema pagasts",
      "code": "LV-041-11352549",
      "countryId": 458258,
      "countryCode": "LV",
      "stateCode": "LV-041",
      "latitude": 56.78718,
      "longitude": 23.60223
    },
    {
      "id": 11352643,
      "name": "Lielplatones pagasts",
      "nativeName": "Lielplatones pagasts",
      "code": "LV-041-11352643",
      "countryId": 458258,
      "countryCode": "LV",
      "stateCode": "LV-041",
      "latitude": 56.45143,
      "longitude": 23.6406
    },
    {
      "id": 11352644,
      "name": "Līvbērzes pagasts",
      "nativeName": "Līvbērzes pagasts",
      "code": "LV-041-11352644",
      "countryId": 458258,
      "countryCode": "LV",
      "stateCode": "LV-041",
      "latitude": 56.70669,
      "longitude": 23.56267
    },
    {
      "id": 11352987,
      "name": "Ozolnieku pagasts",
      "nativeName": "Ozolnieku pagasts",
      "code": "LV-041-11352987",
      "countryId": 458258,
      "countryCode": "LV",
      "stateCode": "LV-041",
      "latitude": 56.69156,
      "longitude": 23.77333
    },
    {
      "id": 11352647,
      "name": "Platones pagasts",
      "nativeName": "Platones pagasts",
      "code": "LV-041-11352647",
      "countryId": 458258,
      "countryCode": "LV",
      "stateCode": "LV-041",
      "latitude": 56.53753,
      "longitude": 23.70732
    },
    {
      "id": 11352803,
      "name": "Salgales pagasts",
      "nativeName": "Salgales pagasts",
      "code": "LV-041-11352803",
      "countryId": 458258,
      "countryCode": "LV",
      "stateCode": "LV-041",
      "latitude": 56.6118,
      "longitude": 23.99362
    },
    {
      "id": 11352648,
      "name": "Sesavas pagasts",
      "nativeName": "Sesavas pagasts",
      "code": "LV-041-11352648",
      "countryId": 458258,
      "countryCode": "LV",
      "stateCode": "LV-041",
      "latitude": 56.40372,
      "longitude": 23.79907
    },
    {
      "id": 11352649,
      "name": "Svētes pagasts",
      "nativeName": "Svētes pagasts",
      "code": "LV-041-11352649",
      "countryId": 458258,
      "countryCode": "LV",
      "stateCode": "LV-041",
      "latitude": 56.56036,
      "longitude": 23.62378
    },
    {
      "id": 11352650,
      "name": "Valgundes pagasts",
      "nativeName": "Valgundes pagasts",
      "code": "LV-041-11352650",
      "countryId": 458258,
      "countryCode": "LV",
      "stateCode": "LV-041",
      "latitude": 56.81372,
      "longitude": 23.62601
    },
    {
      "id": 11352651,
      "name": "Vilces pagasts",
      "nativeName": "Vilces pagasts",
      "code": "LV-041-11352651",
      "countryId": 458258,
      "countryCode": "LV",
      "stateCode": "LV-041",
      "latitude": 56.39306,
      "longitude": 23.5268
    },
    {
      "id": 11352652,
      "name": "Vircavas pagasts",
      "nativeName": "Vircavas pagasts",
      "code": "LV-041-11352652",
      "countryId": 458258,
      "countryCode": "LV",
      "stateCode": "LV-041",
      "latitude": 56.5232,
      "longitude": 23.82912
    },
    {
      "id": 11352654,
      "name": "Zaļenieku pagasts",
      "nativeName": "Zaļenieku pagasts",
      "code": "LV-041-11352654",
      "countryId": 458258,
      "countryCode": "LV",
      "stateCode": "LV-041",
      "latitude": 56.50807,
      "longitude": 23.51205
    }
  ]
}