{
  "stateId": 461613,
  "stateCode": "LV-002",
  "countryCode": "LV",
  "cities": [
    {
      "id": 11352812,
      "name": "Aiviekstes pagasts",
      "nativeName": "Aiviekstes pagasts",
      "code": "LV-002-11352812",
      "countryId": 458258,
      "countryCode": "LV",
      "stateCode": "LV-002",
      "latitude": 56.65915,
      "longitude": 25.79127
    },
    {
      "id": 11352428,
      "name": "Aizkraukle",
      "nativeName": "Aizkraukle",
      "code": "LV-002-11352428",
      "countryId": 458258,
      "countryCode": "LV",
      "stateCode": "LV-002",
      "latitude": 56.59229,
      "longitude": 25.2463
    },
    {
      "id": 11352431,
      "name": "Aizkraukles pagasts",
      "nativeName": "Aizkraukles pagasts",
      "code": "LV-002-11352431",
      "countryId": 458258,
      "countryCode": "LV",
      "stateCode": "LV-002",
      "latitude": 56.6448,
      "longitude": 25.22991
    },
    {
      "id": 11352676,
      "name": "Bebru pagasts",
      "nativeName": "Bebru pagasts",
      "code": "LV-002-11352676",
      "countryId": 458258,
      "countryCode": "LV",
      "stateCode": "LV-002",
      "latitude": 56.73494,
      "longitude": 25.45577
    },
    {
      "id": 11352576,
      "name": "Daudzeses pagasts",
      "nativeName": "Daudzeses pagasts",
      "code": "LV-002-11352576",
      "countryId": 458258,
      "countryCode": "LV",
      "stateCode": "LV-002",
      "latitude": 56.48061,
      "longitude": 25.17296
    },
    {
      "id": 11352667,
      "name": "Iršu pagasts",
      "nativeName": "Iršu pagasts",
      "code": "LV-002-11352667",
      "countryId": 458258,
      "countryCode": "LV",
      "stateCode": "LV-002",
      "latitude": 56.77909,
      "longitude": 25.57063
    },
    {
      "id": 11352588,
      "name": "Jaunjelgava",
      "nativeName": "Jaunjelgava",
      "code": "LV-002-11352588",
      "countryId": 458258,
      "countryCode": "LV",
      "stateCode": "LV-002",
      "latitude": 56.61139,
      "longitude": 25.08186
    },
    {
      "id": 11352593,
      "name": "Jaunjelgavas pagasts",
      "nativeName": "Jaunjelgavas pagasts",
      "code": "LV-002-11352593",
      "countryId": 458258,
      "countryCode": "LV",
      "stateCode": "LV-002",
      "latitude": 56.5946,
      "longitude": 25.07059
    },
    {
      "id": 11352813,
      "name": "Klintaines pagasts",
      "nativeName": "Klintaines pagasts",
      "code": "LV-002-11352813",
      "countryId": 458258,
      "countryCode": "LV",
      "stateCode": "LV-002",
      "latitude": 56.62454,
      "longitude": 25.59423
    },
    {
      "id": 11352686,
      "name": "Kokneses pagasts",
      "nativeName": "Kokneses pagasts",
      "code": "LV-002-11352686",
      "countryId": 458258,
      "countryCode": "LV",
      "stateCode": "LV-002",
      "latitude": 56.66526,
      "longitude": 25.42394
    },
    {
      "id": 11352780,
      "name": "Mazzalves pagasts",
      "nativeName": "Mazzalves pagasts",
      "code": "LV-002-11352780",
      "countryId": 458258,
      "countryCode": "LV",
      "stateCode": "LV-002",
      "latitude": 56.39337,
      "longitude": 25.01351
    },
    {
      "id": 11352781,
      "name": "Neretas pagasts",
      "nativeName": "Neretas pagasts",
      "code": "LV-002-11352781",
      "countryId": 458258,
      "countryCode": "LV",
      "stateCode": "LV-002",
      "latitude": 56.22014,
      "longitude": 25.31497
    },
    {
      "id": 11352783,
      "name": "Pilskalnes pagasts",
      "nativeName": "Pilskalnes pagasts",
      "code": "LV-002-11352783",
      "countryId": 458258,
      "countryCode": "LV",
      "stateCode": "LV-002",
      "latitude": 56.22136,
      "longitude": 25.15866
    },
    {
      "id": 11352787,
      "name": "Pļaviņas",
      "nativeName": "Pļaviņas",
      "code": "LV-002-11352787",
      "countryId": 458258,
      "countryCode": "LV",
      "stateCode": "LV-002",
      "latitude": 56.61837,
      "longitude": 25.72088
    },
    {
      "id": 11352625,
      "name": "Seces pagasts",
      "nativeName": "Seces pagasts",
      "code": "LV-002-11352625",
      "countryId": 458258,
      "countryCode": "LV",
      "stateCode": "LV-002",
      "latitude": 56.53535,
      "longitude": 25.37643
    },
    {
      "id": 11352913,
      "name": "Skrīveru novads",
      "nativeName": "Skrīveru novads",
      "code": "LV-002-11352913",
      "countryId": 458258,
      "countryCode": "LV",
      "stateCode": "LV-002",
      "latitude": 56.67245,
      "longitude": 25.09735
    },
    {
      "id": 11352627,
      "name": "Staburaga pagasts",
      "nativeName": "Staburaga pagasts",
      "code": "LV-002-11352627",
      "countryId": 458258,
      "countryCode": "LV",
      "stateCode": "LV-002",
      "latitude": 56.54237,
      "longitude": 25.51537
    },
    {
      "id": 11352628,
      "name": "Sunākstes pagasts",
      "nativeName": "Sunākstes pagasts",
      "code": "LV-002-11352628",
      "countryId": 458258,
      "countryCode": "LV",
      "stateCode": "LV-002",
      "latitude": 56.46089,
      "longitude": 25.46724
    },
    {
      "id": 11352626,
      "name": "Sērenes pagasts",
      "nativeName": "Sērenes pagasts",
      "code": "LV-002-11352626",
      "countryId": 458258,
      "countryCode": "LV",
      "stateCode": "LV-002",
      "latitude": 56.56822,
      "longitude": 25.1489
    },
    {
      "id": 11352814,
      "name": "Vietalvas pagasts",
      "nativeName": "Vietalvas pagasts",
      "code": "LV-002-11352814",
      "countryId": 458258,
      "countryCode": "LV",
      "stateCode": "LV-002",
      "latitude": 56.74166,
      "longitude": 25.73967
    },
    {
      "id": 11352784,
      "name": "Zalves pagasts",
      "nativeName": "Zalves pagasts",
      "code": "LV-002-11352784",
      "countryId": 458258,
      "countryCode": "LV",
      "stateCode": "LV-002",
      "latitude": 56.33847,
      "longitude": 25.19671
    }
  ]
}