{
  "stateId": 454968,
  "stateCode": "LV-097",
  "countryCode": "LV",
  "cities": [
    {
      "id": 11352926,
      "name": "Abavas pagasts",
      "nativeName": "Abavas pagasts",
      "code": "LV-097-11352926",
      "countryId": 458258,
      "countryCode": "LV",
      "stateCode": "LV-097",
      "latitude": 57.06295,
      "longitude": 22.515
    },
    {
      "id": 11352928,
      "name": "Balgales pagasts",
      "nativeName": "Balgales pagasts",
      "code": "LV-097-11352928",
      "countryId": 458258,
      "countryCode": "LV",
      "stateCode": "LV-097",
      "latitude": 57.18241,
      "longitude": 22.87518
    },
    {
      "id": 11352579,
      "name": "Dundagas pagasts",
      "nativeName": "Dundagas pagasts",
      "code": "LV-097-11352579",
      "countryId": 458258,
      "countryCode": "LV",
      "stateCode": "LV-097",
      "latitude": 57.53975,
      "longitude": 22.38597
    },
    {
      "id": 11352580,
      "name": "Kolkas pagasts",
      "nativeName": "Kolkas pagasts",
      "code": "LV-097-11352580",
      "countryId": 458258,
      "countryCode": "LV",
      "stateCode": "LV-097",
      "latitude": 57.69606,
      "longitude": 22.44505
    },
    {
      "id": 11352932,
      "name": "Laidzes pagasts",
      "nativeName": "Laidzes pagasts",
      "code": "LV-097-11352932",
      "countryId": 458258,
      "countryCode": "LV",
      "stateCode": "LV-097",
      "latitude": 57.29342,
      "longitude": 22.63844
    },
    {
      "id": 11352933,
      "name": "Laucienes pagasts",
      "nativeName": "Laucienes pagasts",
      "code": "LV-097-11352933",
      "countryId": 458258,
      "countryCode": "LV",
      "stateCode": "LV-097",
      "latitude": 57.2437,
      "longitude": 22.82938
    },
    {
      "id": 11352936,
      "name": "Lubes pagasts",
      "nativeName": "Lubes pagasts",
      "code": "LV-097-11352936",
      "countryId": 458258,
      "countryCode": "LV",
      "stateCode": "LV-097",
      "latitude": 57.45003,
      "longitude": 22.64174
    },
    {
      "id": 11352935,
      "name": "Lībagu pagasts",
      "nativeName": "Lībagu pagasts",
      "code": "LV-097-11352935",
      "countryId": 458258,
      "countryCode": "LV",
      "stateCode": "LV-097",
      "latitude": 57.17616,
      "longitude": 22.56355
    },
    {
      "id": 11352776,
      "name": "Mērsraga novads",
      "nativeName": "Mērsraga novads",
      "code": "LV-097-11352776",
      "countryId": 458258,
      "countryCode": "LV",
      "stateCode": "LV-097",
      "latitude": 57.32509,
      "longitude": 23.04031
    },
    {
      "id": 11352869,
      "name": "Rojas novads",
      "nativeName": "Rojas novads",
      "code": "LV-097-11352869",
      "countryId": 458258,
      "countryCode": "LV",
      "stateCode": "LV-097",
      "latitude": 57.49079,
      "longitude": 22.75311
    },
    {
      "id": 11352937,
      "name": "Sabile",
      "nativeName": "Sabile",
      "code": "LV-097-11352937",
      "countryId": 458258,
      "countryCode": "LV",
      "stateCode": "LV-097",
      "latitude": 57.04756,
      "longitude": 22.57147
    },
    {
      "id": 11352938,
      "name": "Stende",
      "nativeName": "Stende",
      "code": "LV-097-11352938",
      "countryId": 458258,
      "countryCode": "LV",
      "stateCode": "LV-097",
      "latitude": 57.14242,
      "longitude": 22.53836
    },
    {
      "id": 11352645,
      "name": "Strazdes pagasts",
      "nativeName": "Strazdes pagasts",
      "code": "LV-097-11352645",
      "countryId": 458258,
      "countryCode": "LV",
      "stateCode": "LV-097",
      "latitude": 57.13973,
      "longitude": 22.7567
    },
    {
      "id": 11352768,
      "name": "Talsi",
      "nativeName": "Talsi",
      "code": "LV-097-11352768",
      "countryId": 458258,
      "countryCode": "LV",
      "stateCode": "LV-097",
      "latitude": 57.24516,
      "longitude": 22.58604
    },
    {
      "id": 11352785,
      "name": "Valdemārpils",
      "nativeName": "Valdemārpils",
      "code": "LV-097-11352785",
      "countryId": 458258,
      "countryCode": "LV",
      "stateCode": "LV-097",
      "latitude": 57.36913,
      "longitude": 22.59312
    },
    {
      "id": 11352939,
      "name": "Valdgales pagasts",
      "nativeName": "Valdgales pagasts",
      "code": "LV-097-11352939",
      "countryId": 458258,
      "countryCode": "LV",
      "stateCode": "LV-097",
      "latitude": 57.35165,
      "longitude": 22.40754
    },
    {
      "id": 11352942,
      "name": "Vandzenes pagasts",
      "nativeName": "Vandzenes pagasts",
      "code": "LV-097-11352942",
      "countryId": 458258,
      "countryCode": "LV",
      "stateCode": "LV-097",
      "latitude": 57.33619,
      "longitude": 22.82518
    },
    {
      "id": 11352943,
      "name": "Virbu pagasts",
      "nativeName": "Virbu pagasts",
      "code": "LV-097-11352943",
      "countryId": 458258,
      "countryCode": "LV",
      "stateCode": "LV-097",
      "latitude": 57.12958,
      "longitude": 22.63177
    },
    {
      "id": 11352927,
      "name": "Ārlavas pagasts",
      "nativeName": "Ārlavas pagasts",
      "code": "LV-097-11352927",
      "countryId": 458258,
      "countryCode": "LV",
      "stateCode": "LV-097",
      "latitude": 57.38197,
      "longitude": 22.67522
    },
    {
      "id": 11352930,
      "name": "Ģibuļu pagasts",
      "nativeName": "Ģibuļu pagasts",
      "code": "LV-097-11352930",
      "countryId": 458258,
      "countryCode": "LV",
      "stateCode": "LV-097",
      "latitude": 57.20794,
      "longitude": 22.37697
    },
    {
      "id": 11352905,
      "name": "Īves pagasts",
      "nativeName": "Īves pagasts",
      "code": "LV-097-11352905",
      "countryId": 458258,
      "countryCode": "LV",
      "stateCode": "LV-097",
      "latitude": 57.43648,
      "longitude": 22.52049
    },
    {
      "id": 11352931,
      "name": "Ķūļciema pagasts",
      "nativeName": "Ķūļciema pagasts",
      "code": "LV-097-11352931",
      "countryId": 458258,
      "countryCode": "LV",
      "stateCode": "LV-097",
      "latitude": 57.24931,
      "longitude": 23.01518
    }
  ]
}