{
  "stateId": 459282,
  "stateCode": "LV-042",
  "countryCode": "LV",
  "cities": [
    {
      "id": 11352982,
      "name": "Aknīste",
      "nativeName": "Aknīste",
      "code": "LV-042-11352982",
      "countryId": 458258,
      "countryCode": "LV",
      "stateCode": "LV-042",
      "latitude": 56.16044,
      "longitude": 25.74498
    },
    {
      "id": 11352439,
      "name": "Aknīstes pagasts",
      "nativeName": "Aknīstes pagasts",
      "code": "LV-042-11352439",
      "countryId": 458258,
      "countryCode": "LV",
      "stateCode": "LV-042",
      "latitude": 56.18111,
      "longitude": 25.75847
    },
    {
      "id": 11352440,
      "name": "Asares pagasts",
      "nativeName": "Asares pagasts",
      "code": "LV-042-11352440",
      "countryId": 458258,
      "countryCode": "LV",
      "stateCode": "LV-042",
      "latitude": 56.13169,
      "longitude": 25.91166
    },
    {
      "id": 11352705,
      "name": "Atašienes pagasts",
      "nativeName": "Atašienes pagasts",
      "code": "LV-042-11352705",
      "countryId": 458258,
      "countryCode": "LV",
      "stateCode": "LV-042",
      "latitude": 56.54548,
      "longitude": 26.45208
    },
    {
      "id": 11352633,
      "name": "Dignājas pagasts",
      "nativeName": "Dignājas pagasts",
      "code": "LV-042-11352633",
      "countryId": 458258,
      "countryCode": "LV",
      "stateCode": "LV-042",
      "latitude": 56.3416,
      "longitude": 26.11131
    },
    {
      "id": 11352634,
      "name": "Dunavas pagasts",
      "nativeName": "Dunavas pagasts",
      "code": "LV-042-11352634",
      "countryId": 458258,
      "countryCode": "LV",
      "stateCode": "LV-042",
      "latitude": 56.19714,
      "longitude": 26.17753
    },
    {
      "id": 11352940,
      "name": "Elkšņu pagasts",
      "nativeName": "Elkšņu pagasts",
      "code": "LV-042-11352940",
      "countryId": 458258,
      "countryCode": "LV",
      "stateCode": "LV-042",
      "latitude": 56.23033,
      "longitude": 25.59995
    },
    {
      "id": 11352441,
      "name": "Gārsenes pagasts",
      "nativeName": "Gārsenes pagasts",
      "code": "LV-042-11352441",
      "countryId": 458258,
      "countryCode": "LV",
      "stateCode": "LV-042",
      "latitude": 56.09821,
      "longitude": 25.77952
    },
    {
      "id": 11352631,
      "name": "Jēkabpils",
      "nativeName": "Jēkabpils",
      "code": "LV-042-11352631",
      "countryId": 458258,
      "countryCode": "LV",
      "stateCode": "LV-042",
      "latitude": 56.50132,
      "longitude": 25.87005
    },
    {
      "id": 11352635,
      "name": "Kalna pagasts",
      "nativeName": "Kalna pagasts",
      "code": "LV-042-11352635",
      "countryId": 458258,
      "countryCode": "LV",
      "stateCode": "LV-042",
      "latitude": 56.33033,
      "longitude": 25.82138
    },
    {
      "id": 11352706,
      "name": "Krustpils pagasts",
      "nativeName": "Krustpils pagasts",
      "code": "LV-042-11352706",
      "countryId": 458258,
      "countryCode": "LV",
      "stateCode": "LV-042",
      "latitude": 56.56856,
      "longitude": 25.82775
    },
    {
      "id": 11352689,
      "name": "Kūku pagasts",
      "nativeName": "Kūku pagasts",
      "code": "LV-042-11352689",
      "countryId": 458258,
      "countryCode": "LV",
      "stateCode": "LV-042",
      "latitude": 56.5191,
      "longitude": 26.01993
    },
    {
      "id": 11352636,
      "name": "Leimaņu pagasts",
      "nativeName": "Leimaņu pagasts",
      "code": "LV-042-11352636",
      "countryId": 458258,
      "countryCode": "LV",
      "stateCode": "LV-042",
      "latitude": 56.29767,
      "longitude": 25.90396
    },
    {
      "id": 11352707,
      "name": "Mežāres pagasts",
      "nativeName": "Mežāres pagasts",
      "code": "LV-042-11352707",
      "countryId": 458258,
      "countryCode": "LV",
      "stateCode": "LV-042",
      "latitude": 56.55556,
      "longitude": 26.22082
    },
    {
      "id": 11352952,
      "name": "Rites pagasts",
      "nativeName": "Rites pagasts",
      "code": "LV-042-11352952",
      "countryId": 458258,
      "countryCode": "LV",
      "stateCode": "LV-042",
      "latitude": 56.19336,
      "longitude": 25.48399
    },
    {
      "id": 11352637,
      "name": "Rubenes pagasts",
      "nativeName": "Rubenes pagasts",
      "code": "LV-042-11352637",
      "countryId": 458258,
      "countryCode": "LV",
      "stateCode": "LV-042",
      "latitude": 56.16604,
      "longitude": 26.00982
    },
    {
      "id": 11352883,
      "name": "Salas pagasts",
      "nativeName": "Salas pagasts",
      "code": "LV-042-11352883",
      "countryId": 458258,
      "countryCode": "LV",
      "stateCode": "LV-042",
      "latitude": 56.44651,
      "longitude": 25.73798
    },
    {
      "id": 11352959,
      "name": "Saukas pagasts",
      "nativeName": "Saukas pagasts",
      "code": "LV-042-11352959",
      "countryId": 458258,
      "countryCode": "LV",
      "stateCode": "LV-042",
      "latitude": 56.28424,
      "longitude": 25.41799
    },
    {
      "id": 11352884,
      "name": "Sēlpils pagasts",
      "nativeName": "Sēlpils pagasts",
      "code": "LV-042-11352884",
      "countryId": 458258,
      "countryCode": "LV",
      "stateCode": "LV-042",
      "latitude": 56.53955,
      "longitude": 25.65595
    },
    {
      "id": 11352710,
      "name": "Variešu pagasts",
      "nativeName": "Variešu pagasts",
      "code": "LV-042-11352710",
      "countryId": 458258,
      "countryCode": "LV",
      "stateCode": "LV-042",
      "latitude": 56.60328,
      "longitude": 26.01515
    },
    {
      "id": 11352772,
      "name": "Viesīte",
      "nativeName": "Viesīte",
      "code": "LV-042-11352772",
      "countryId": 458258,
      "countryCode": "LV",
      "stateCode": "LV-042",
      "latitude": 56.34515,
      "longitude": 25.55663
    },
    {
      "id": 11353005,
      "name": "Viesītes pagasts",
      "nativeName": "Viesītes pagasts",
      "code": "LV-042-11353005",
      "countryId": 458258,
      "countryCode": "LV",
      "stateCode": "LV-042",
      "latitude": 56.3657,
      "longitude": 25.52624
    },
    {
      "id": 11352711,
      "name": "Vīpes pagasts",
      "nativeName": "Vīpes pagasts",
      "code": "LV-042-11352711",
      "countryId": 458258,
      "countryCode": "LV",
      "stateCode": "LV-042",
      "latitude": 56.46962,
      "longitude": 26.11702
    },
    {
      "id": 11352638,
      "name": "Zasas pagasts",
      "nativeName": "Zasas pagasts",
      "code": "LV-042-11352638",
      "countryId": 458258,
      "countryCode": "LV",
      "stateCode": "LV-042",
      "latitude": 56.27301,
      "longitude": 26.02412
    },
    {
      "id": 11352632,
      "name": "Ābeļu pagasts",
      "nativeName": "Ābeļu pagasts",
      "code": "LV-042-11352632",
      "countryId": 458258,
      "countryCode": "LV",
      "stateCode": "LV-042",
      "latitude": 56.43294,
      "longitude": 25.94931
    }
  ]
}