{
  "stateId": 12276858,
  "stateCode": "LV-111",
  "countryCode": "LV",
  "cities": [
    {
      "id": 11352537,
      "name": "Ambeļu pagasts",
      "nativeName": "Ambeļu pagasts",
      "code": "LV-111-11352537",
      "countryId": 458258,
      "countryCode": "LV",
      "stateCode": "LV-111",
      "latitude": 56.03838,
      "longitude": 26.88996
    },
    {
      "id": 11352620,
      "name": "Bebrenes pagasts",
      "nativeName": "Bebrenes pagasts",
      "code": "LV-111-11352620",
      "countryId": 458258,
      "countryCode": "LV",
      "stateCode": "LV-111",
      "latitude": 56.04859,
      "longitude": 26.11347
    },
    {
      "id": 11352545,
      "name": "Biķernieku pagasts",
      "nativeName": "Biķernieku pagasts",
      "code": "LV-111-11352545",
      "countryId": 458258,
      "countryCode": "LV",
      "stateCode": "LV-111",
      "latitude": 55.97039,
      "longitude": 26.86468
    },
    {
      "id": 11352546,
      "name": "Demenes pagasts",
      "nativeName": "Demenes pagasts",
      "code": "LV-111-11352546",
      "countryId": 458258,
      "countryCode": "LV",
      "stateCode": "LV-111",
      "latitude": 55.73619,
      "longitude": 26.59082
    },
    {
      "id": 11352547,
      "name": "Dubnas pagasts",
      "nativeName": "Dubnas pagasts",
      "code": "LV-111-11352547",
      "countryId": 458258,
      "countryCode": "LV",
      "stateCode": "LV-111",
      "latitude": 56.08316,
      "longitude": 26.67278
    },
    {
      "id": 11352621,
      "name": "Dvietes pagasts",
      "nativeName": "Dvietes pagasts",
      "code": "LV-111-11352621",
      "countryId": 458258,
      "countryCode": "LV",
      "stateCode": "LV-111",
      "latitude": 56.10529,
      "longitude": 26.25649
    },
    {
      "id": 11352615,
      "name": "Eglaines pagasts",
      "nativeName": "Eglaines pagasts",
      "code": "LV-111-11352615",
      "countryId": 458258,
      "countryCode": "LV",
      "stateCode": "LV-111",
      "latitude": 55.97115,
      "longitude": 26.05202
    },
    {
      "id": 11352531,
      "name": "Ilūkste",
      "nativeName": "Ilūkste",
      "code": "LV-111-11352531",
      "countryId": 458258,
      "countryCode": "LV",
      "stateCode": "LV-111",
      "latitude": 55.97882,
      "longitude": 26.31149
    },
    {
      "id": 11352550,
      "name": "Kalkūnes pagasts",
      "nativeName": "Kalkūnes pagasts",
      "code": "LV-111-11352550",
      "countryId": 458258,
      "countryCode": "LV",
      "stateCode": "LV-111",
      "latitude": 55.83851,
      "longitude": 26.43367
    },
    {
      "id": 11352551,
      "name": "Kalupes pagasts",
      "nativeName": "Kalupes pagasts",
      "code": "LV-111-11352551",
      "countryId": 458258,
      "countryCode": "LV",
      "stateCode": "LV-111",
      "latitude": 56.08599,
      "longitude": 26.54861
    },
    {
      "id": 11352552,
      "name": "Laucesas pagasts",
      "nativeName": "Laucesas pagasts",
      "code": "LV-111-11352552",
      "countryId": 458258,
      "countryCode": "LV",
      "stateCode": "LV-111",
      "latitude": 55.81516,
      "longitude": 26.54092
    },
    {
      "id": 11352554,
      "name": "Līksnas pagasts",
      "nativeName": "Līksnas pagasts",
      "code": "LV-111-11352554",
      "countryId": 458258,
      "countryCode": "LV",
      "stateCode": "LV-111",
      "latitude": 55.99462,
      "longitude": 26.44842
    },
    {
      "id": 11352555,
      "name": "Maļinovas pagasts",
      "nativeName": "Maļinovas pagasts",
      "code": "LV-111-11352555",
      "countryId": 458258,
      "countryCode": "LV",
      "stateCode": "LV-111",
      "latitude": 55.99376,
      "longitude": 26.67139
    },
    {
      "id": 11352557,
      "name": "Medumu pagasts",
      "nativeName": "Medumu pagasts",
      "code": "LV-111-11352557",
      "countryId": 458258,
      "countryCode": "LV",
      "stateCode": "LV-111",
      "latitude": 55.77211,
      "longitude": 26.35736
    },
    {
      "id": 11352558,
      "name": "Naujenes pagasts",
      "nativeName": "Naujenes pagasts",
      "code": "LV-111-11352558",
      "countryId": 458258,
      "countryCode": "LV",
      "stateCode": "LV-111",
      "latitude": 55.92848,
      "longitude": 26.74433
    },
    {
      "id": 11352559,
      "name": "Nīcgales pagasts",
      "nativeName": "Nīcgales pagasts",
      "code": "LV-111-11352559",
      "countryId": 458258,
      "countryCode": "LV",
      "stateCode": "LV-111",
      "latitude": 56.15107,
      "longitude": 26.40248
    },
    {
      "id": 11352622,
      "name": "Pilskalnes pagasts",
      "nativeName": "Pilskalnes pagasts",
      "code": "LV-111-11352622",
      "countryId": 458258,
      "countryCode": "LV",
      "stateCode": "LV-111",
      "latitude": 56.00236,
      "longitude": 26.23736
    },
    {
      "id": 11352623,
      "name": "Prodes pagasts",
      "nativeName": "Prodes pagasts",
      "code": "LV-111-11352623",
      "countryId": 458258,
      "countryCode": "LV",
      "stateCode": "LV-111",
      "latitude": 56.05164,
      "longitude": 25.92795
    },
    {
      "id": 11352560,
      "name": "Salienas pagasts",
      "nativeName": "Salienas pagasts",
      "code": "LV-111-11352560",
      "countryId": 458258,
      "countryCode": "LV",
      "stateCode": "LV-111",
      "latitude": 55.81199,
      "longitude": 26.89229
    },
    {
      "id": 11352561,
      "name": "Skrudalienas pagasts",
      "nativeName": "Skrudalienas pagasts",
      "code": "LV-111-11352561",
      "countryId": 458258,
      "countryCode": "LV",
      "stateCode": "LV-111",
      "latitude": 55.76293,
      "longitude": 26.74065
    },
    {
      "id": 11352613,
      "name": "Subate",
      "nativeName": "Subate",
      "code": "LV-111-11352613",
      "countryId": 458258,
      "countryCode": "LV",
      "stateCode": "LV-111",
      "latitude": 56.00748,
      "longitude": 25.91066
    },
    {
      "id": 11352562,
      "name": "Sventes pagasts",
      "nativeName": "Sventes pagasts",
      "code": "LV-111-11352562",
      "countryId": 458258,
      "countryCode": "LV",
      "stateCode": "LV-111",
      "latitude": 55.90914,
      "longitude": 26.35162
    },
    {
      "id": 11352563,
      "name": "Tabores pagasts",
      "nativeName": "Tabores pagasts",
      "code": "LV-111-11352563",
      "countryId": 458258,
      "countryCode": "LV",
      "stateCode": "LV-111",
      "latitude": 55.8636,
      "longitude": 26.68564
    },
    {
      "id": 11352564,
      "name": "Vaboles pagasts",
      "nativeName": "Vaboles pagasts",
      "code": "LV-111-11352564",
      "countryId": 458258,
      "countryCode": "LV",
      "stateCode": "LV-111",
      "latitude": 56.02743,
      "longitude": 26.48969
    },
    {
      "id": 11352565,
      "name": "Vecsalienas pagasts",
      "nativeName": "Vecsalienas pagasts",
      "code": "LV-111-11352565",
      "countryId": 458258,
      "countryCode": "LV",
      "stateCode": "LV-111",
      "latitude": 55.84889,
      "longitude": 26.81234
    },
    {
      "id": 11352566,
      "name": "Višķu pagasts",
      "nativeName": "Višķu pagasts",
      "code": "LV-111-11352566",
      "countryId": 458258,
      "countryCode": "LV",
      "stateCode": "LV-111",
      "latitude": 56.06866,
      "longitude": 26.79081
    },
    {
      "id": 11352616,
      "name": "Šēderes pagasts",
      "nativeName": "Šēderes pagasts",
      "code": "LV-111-11352616",
      "countryId": 458258,
      "countryCode": "LV",
      "stateCode": "LV-111",
      "latitude": 55.89117,
      "longitude": 26.21536
    }
  ]
}