{
  "stateId": 8260673,
  "stateCode": "UG-E",
  "countryCode": "UG",
  "cities": [
    {
      "id": 7056276,
      "name": "Amuria District",
      "nativeName": "Amuria District",
      "code": "UG-E-7056276",
      "countryId": 226074,
      "countryCode": "UG",
      "stateCode": "UG-E",
      "latitude": 2.08333,
      "longitude": 33.66667
    },
    {
      "id": 7056279,
      "name": "Budaka District",
      "nativeName": "Budaka District",
      "code": "UG-E-7056279",
      "countryId": 226074,
      "countryCode": "UG",
      "stateCode": "UG-E",
      "latitude": 1.05249,
      "longitude": 33.99221
    },
    {
      "id": 7056280,
      "name": "Bududa District",
      "nativeName": "Bududa District",
      "code": "UG-E-7056280",
      "countryId": 226074,
      "countryCode": "UG",
      "stateCode": "UG-E",
      "latitude": 1.05,
      "longitude": 34.4
    },
    {
      "id": 443783,
      "name": "Bugiri District",
      "nativeName": "Bugiri District",
      "code": "UG-E-443783",
      "countryId": 226074,
      "countryCode": "UG",
      "stateCode": "UG-E",
      "latitude": 0.5333,
      "longitude": 33.79
    },
    {
      "id": 234411,
      "name": "Bukedea District",
      "nativeName": "Bukedea District",
      "code": "UG-E-234411",
      "countryId": 226074,
      "countryCode": "UG",
      "stateCode": "UG-E",
      "latitude": 1.36667,
      "longitude": 34.13333
    },
    {
      "id": 7056296,
      "name": "Bukwo District",
      "nativeName": "Bukwo District",
      "code": "UG-E-7056296",
      "countryId": 226074,
      "countryCode": "UG",
      "stateCode": "UG-E",
      "latitude": 1.27115,
      "longitude": 34.66778
    },
    {
      "id": 8030573,
      "name": "Bulambuli District",
      "nativeName": "Bulambuli District",
      "code": "UG-E-8030573",
      "countryId": 226074,
      "countryCode": "UG",
      "stateCode": "UG-E",
      "latitude": 1.32055,
      "longitude": 34.28062
    },
    {
      "id": 443784,
      "name": "Busia District",
      "nativeName": "Busia District",
      "code": "UG-E-443784",
      "countryId": 226074,
      "countryCode": "UG",
      "stateCode": "UG-E",
      "latitude": 0.41762,
      "longitude": 34.00421
    },
    {
      "id": 7056282,
      "name": "Butaleja District",
      "nativeName": "Butaleja District",
      "code": "UG-E-7056282",
      "countryId": 226074,
      "countryCode": "UG",
      "stateCode": "UG-E",
      "latitude": 0.89076,
      "longitude": 33.94497
    },
    {
      "id": 11887036,
      "name": "Butebo District",
      "nativeName": "Butebo District",
      "code": "UG-E-11887036",
      "countryId": 226074,
      "countryCode": "UG",
      "stateCode": "UG-E",
      "latitude": 1.19659,
      "longitude": 33.92141
    },
    {
      "id": 8030571,
      "name": "Buyende District",
      "nativeName": "Buyende District",
      "code": "UG-E-8030571",
      "countryId": 226074,
      "countryCode": "UG",
      "stateCode": "UG-E",
      "latitude": 1.2663,
      "longitude": 33.14268
    },
    {
      "id": 443334,
      "name": "Iganga District",
      "nativeName": "Iganga District",
      "code": "UG-E-443334",
      "countryId": 226074,
      "countryCode": "UG",
      "stateCode": "UG-E",
      "latitude": 0.7,
      "longitude": 33.5333
    },
    {
      "id": 443335,
      "name": "Jinja District",
      "nativeName": "Jinja District",
      "code": "UG-E-443335",
      "countryId": 226074,
      "countryCode": "UG",
      "stateCode": "UG-E",
      "latitude": 0.511,
      "longitude": 33.315
    },
    {
      "id": 448215,
      "name": "Kaberamaido District",
      "nativeName": "Kaberamaido District",
      "code": "UG-E-448215",
      "countryId": 226074,
      "countryCode": "UG",
      "stateCode": "UG-E",
      "latitude": 1.75732,
      "longitude": 33.22576
    },
    {
      "id": 7056287,
      "name": "Kaliro District",
      "nativeName": "Kaliro District",
      "code": "UG-E-7056287",
      "countryId": 226074,
      "countryCode": "UG",
      "stateCode": "UG-E",
      "latitude": 1.07782,
      "longitude": 33.48763
    },
    {
      "id": 443340,
      "name": "Kamuli District",
      "nativeName": "Kamuli District",
      "code": "UG-E-443340",
      "countryId": 226074,
      "countryCode": "UG",
      "stateCode": "UG-E",
      "latitude": 0.95,
      "longitude": 33.11667
    },
    {
      "id": 443341,
      "name": "Kapchorwa District",
      "nativeName": "Kapchorwa District",
      "code": "UG-E-443341",
      "countryId": 226074,
      "countryCode": "UG",
      "stateCode": "UG-E",
      "latitude": 1.3333,
      "longitude": 34.42
    },
    {
      "id": 443785,
      "name": "Katakwi District",
      "nativeName": "Katakwi District",
      "code": "UG-E-443785",
      "countryId": 226074,
      "countryCode": "UG",
      "stateCode": "UG-E",
      "latitude": 1.92157,
      "longitude": 34.04753
    },
    {
      "id": 8030572,
      "name": "Kibuku District",
      "nativeName": "Kibuku District",
      "code": "UG-E-8030572",
      "countryId": 226074,
      "countryCode": "UG",
      "stateCode": "UG-E",
      "latitude": 1.05,
      "longitude": 33.80879
    },
    {
      "id": 443348,
      "name": "Kumi District",
      "nativeName": "Kumi District",
      "code": "UG-E-443348",
      "countryId": 226074,
      "countryCode": "UG",
      "stateCode": "UG-E",
      "latitude": 1.5,
      "longitude": 33.95
    },
    {
      "id": 8030574,
      "name": "Kween District",
      "nativeName": "Kween District",
      "code": "UG-E-8030574",
      "countryId": 226074,
      "countryCode": "UG",
      "stateCode": "UG-E",
      "latitude": 1.37732,
      "longitude": 34.57456
    },
    {
      "id": 8030588,
      "name": "Luuka District",
      "nativeName": "Luuka District",
      "code": "UG-E-8030588",
      "countryId": 226074,
      "countryCode": "UG",
      "stateCode": "UG-E",
      "latitude": 0.82405,
      "longitude": 33.33251
    },
    {
      "id": 7056291,
      "name": "Manafwa District",
      "nativeName": "Manafwa District",
      "code": "UG-E-7056291",
      "countryId": 226074,
      "countryCode": "UG",
      "stateCode": "UG-E",
      "latitude": 0.88333,
      "longitude": 34.33333
    },
    {
      "id": 448220,
      "name": "Mayuge District",
      "nativeName": "Mayuge District",
      "code": "UG-E-448220",
      "countryId": 226074,
      "countryCode": "UG",
      "stateCode": "UG-E",
      "latitude": 0.269,
      "longitude": 33.561
    },
    {
      "id": 443353,
      "name": "Mbale District",
      "nativeName": "Mbale District",
      "code": "UG-E-443353",
      "countryId": 226074,
      "countryCode": "UG",
      "stateCode": "UG-E",
      "latitude": 1.016,
      "longitude": 34.191
    },
    {
      "id": 8030575,
      "name": "Namayingo District",
      "nativeName": "Namayingo District",
      "code": "UG-E-8030575",
      "countryId": 226074,
      "countryCode": "UG",
      "stateCode": "UG-E",
      "latitude": 0.278,
      "longitude": 33.809
    },
    {
      "id": 11887038,
      "name": "Namisindwa District",
      "nativeName": "Namisindwa District",
      "code": "UG-E-11887038",
      "countryId": 226074,
      "countryCode": "UG",
      "stateCode": "UG-E",
      "latitude": 0.81626,
      "longitude": 34.38245
    },
    {
      "id": 234069,
      "name": "Namutumba District",
      "nativeName": "Namutumba District",
      "code": "UG-E-234069",
      "countryId": 226074,
      "countryCode": "UG",
      "stateCode": "UG-E",
      "latitude": 0.86667,
      "longitude": 33.66667
    },
    {
      "id": 8030570,
      "name": "Ngora District",
      "nativeName": "Ngora District",
      "code": "UG-E-8030570",
      "countryId": 226074,
      "countryCode": "UG",
      "stateCode": "UG-E",
      "latitude": 1.48203,
      "longitude": 33.75832
    },
    {
      "id": 443362,
      "name": "Pallisa District",
      "nativeName": "Pallisa District",
      "code": "UG-E-443362",
      "countryId": 226074,
      "countryCode": "UG",
      "stateCode": "UG-E",
      "latitude": 1.16318,
      "longitude": 33.69594
    },
    {
      "id": 8030569,
      "name": "Serere District",
      "nativeName": "Serere District",
      "code": "UG-E-8030569",
      "countryId": 226074,
      "countryCode": "UG",
      "stateCode": "UG-E",
      "latitude": 1.487,
      "longitude": 33.452
    },
    {
      "id": 448223,
      "name": "Sironko District",
      "nativeName": "Sironko District",
      "code": "UG-E-448223",
      "countryId": 226074,
      "countryCode": "UG",
      "stateCode": "UG-E",
      "latitude": 1.157,
      "longitude": 34.314
    },
    {
      "id": 443365,
      "name": "Soroti District",
      "nativeName": "Soroti District",
      "code": "UG-E-443365",
      "countryId": 226074,
      "countryCode": "UG",
      "stateCode": "UG-E",
      "latitude": 1.78481,
      "longitude": 33.59432
    },
    {
      "id": 443366,
      "name": "Tororo District",
      "nativeName": "Tororo District",
      "code": "UG-E-443366",
      "countryId": 226074,
      "countryCode": "UG",
      "stateCode": "UG-E",
      "latitude": 0.75,
      "longitude": 34.08333
    }
  ]
}