{
  "stateId": 3686431,
  "stateCode": "CO-CHO",
  "countryCode": "CO",
  "cities": [
    {
      "id": 3690573,
      "name": "Acandí",
      "nativeName": "Acandí",
      "code": "CO-CHO-3690573",
      "countryId": 3686110,
      "countryCode": "CO",
      "stateCode": "CO-CHO",
      "latitude": 8.42468,
      "longitude": -77.2928
    },
    {
      "id": 3690070,
      "name": "Alto Baudo",
      "nativeName": "Alto Baudo",
      "code": "CO-CHO-3690070",
      "countryId": 3686110,
      "countryCode": "CO",
      "stateCode": "CO-CHO",
      "latitude": 5.60464,
      "longitude": -77.06975
    },
    {
      "id": 9179541,
      "name": "Atrato",
      "nativeName": "Atrato",
      "code": "CO-CHO-9179541",
      "countryId": 3686110,
      "countryCode": "CO",
      "stateCode": "CO-CHO",
      "latitude": 5.57362,
      "longitude": -76.64063
    },
    {
      "id": 3689337,
      "name": "Bagadó",
      "nativeName": "Bagadó",
      "code": "CO-CHO-3689337",
      "countryId": 3686110,
      "countryCode": "CO",
      "stateCode": "CO-CHO",
      "latitude": 5.52072,
      "longitude": -76.18785
    },
    {
      "id": 3667869,
      "name": "Bahía Solano",
      "nativeName": "Bahía Solano",
      "code": "CO-CHO-3667869",
      "countryId": 3686110,
      "countryCode": "CO",
      "stateCode": "CO-CHO",
      "latitude": 6.2252,
      "longitude": -77.39147
    },
    {
      "id": 3689318,
      "name": "Bajo Baudó",
      "nativeName": "Bajo Baudó",
      "code": "CO-CHO-3689318",
      "countryId": 3686110,
      "countryCode": "CO",
      "stateCode": "CO-CHO",
      "latitude": 4.90181,
      "longitude": -77.22771
    },
    {
      "id": 3688672,
      "name": "Bojaya",
      "nativeName": "Bojaya",
      "code": "CO-CHO-3688672",
      "countryId": 3686110,
      "countryCode": "CO",
      "stateCode": "CO-CHO",
      "latitude": 6.5,
      "longitude": -77.1
    },
    {
      "id": 9179529,
      "name": "Carmen del Darien",
      "nativeName": "Carmen del Darien",
      "code": "CO-CHO-9179529",
      "countryId": 3686110,
      "countryCode": "CO",
      "stateCode": "CO-CHO",
      "latitude": 7.03639,
      "longitude": -76.95222
    },
    {
      "id": 3686003,
      "name": "Condoto",
      "nativeName": "Condoto",
      "code": "CO-CHO-3686003",
      "countryId": 3686110,
      "countryCode": "CO",
      "stateCode": "CO-CHO",
      "latitude": 5.10603,
      "longitude": -76.45161
    },
    {
      "id": 9179552,
      "name": "Cértegui",
      "nativeName": "Cértegui",
      "code": "CO-CHO-9179552",
      "countryId": 3686110,
      "countryCode": "CO",
      "stateCode": "CO-CHO",
      "latitude": 5.4,
      "longitude": -76.6
    },
    {
      "id": 9609519,
      "name": "El Cantón del San Pablo",
      "nativeName": "El Cantón del San Pablo",
      "code": "CO-CHO-9609519",
      "countryId": 3686110,
      "countryCode": "CO",
      "stateCode": "CO-CHO",
      "latitude": 5.35989,
      "longitude": -76.7728
    },
    {
      "id": 3684712,
      "name": "El Carmen de Atrato",
      "nativeName": "El Carmen de Atrato",
      "code": "CO-CHO-3684712",
      "countryId": 3686110,
      "countryCode": "CO",
      "stateCode": "CO-CHO",
      "latitude": 5.83333,
      "longitude": -76.25
    },
    {
      "id": 9609520,
      "name": "El Litoral del San Juan",
      "nativeName": "El Litoral del San Juan",
      "code": "CO-CHO-9609520",
      "countryId": 3686110,
      "countryCode": "CO",
      "stateCode": "CO-CHO",
      "latitude": 4.2507,
      "longitude": -76.96926
    },
    {
      "id": 3680454,
      "name": "Istmina",
      "nativeName": "Istmina",
      "code": "CO-CHO-3680454",
      "countryId": 3686110,
      "countryCode": "CO",
      "stateCode": "CO-CHO",
      "latitude": 4.98772,
      "longitude": -76.80528
    },
    {
      "id": 3680091,
      "name": "Juradó",
      "nativeName": "Juradó",
      "code": "CO-CHO-3680091",
      "countryId": 3686110,
      "countryCode": "CO",
      "stateCode": "CO-CHO",
      "latitude": 7.00425,
      "longitude": -77.65141
    },
    {
      "id": 3676478,
      "name": "Lloró",
      "nativeName": "Lloró",
      "code": "CO-CHO-3676478",
      "countryId": 3686110,
      "countryCode": "CO",
      "stateCode": "CO-CHO",
      "latitude": 5.60109,
      "longitude": -76.37375
    },
    {
      "id": 9179547,
      "name": "Medio Atrato",
      "nativeName": "Medio Atrato",
      "code": "CO-CHO-9179547",
      "countryId": 3686110,
      "countryCode": "CO",
      "stateCode": "CO-CHO",
      "latitude": 5.995,
      "longitude": -76.7825
    },
    {
      "id": 9179553,
      "name": "Medio Baudó",
      "nativeName": "Medio Baudó",
      "code": "CO-CHO-9179553",
      "countryId": 3686110,
      "countryCode": "CO",
      "stateCode": "CO-CHO",
      "latitude": 5.05,
      "longitude": -77.05
    },
    {
      "id": 9179528,
      "name": "Mediosanjuan",
      "nativeName": "Medio San Juan",
      "code": "CO-CHO-9179528",
      "countryId": 3686110,
      "countryCode": "CO",
      "stateCode": "CO-CHO",
      "latitude": 5.09278,
      "longitude": -76.69528
    },
    {
      "id": 3673691,
      "name": "Nuquí",
      "nativeName": "Nuquí",
      "code": "CO-CHO-3673691",
      "countryId": 3686110,
      "countryCode": "CO",
      "stateCode": "CO-CHO",
      "latitude": 5.67014,
      "longitude": -77.28753
    },
    {
      "id": 3673784,
      "name": "Nóvita",
      "nativeName": "Nóvita",
      "code": "CO-CHO-3673784",
      "countryId": 3686110,
      "countryCode": "CO",
      "stateCode": "CO-CHO",
      "latitude": 4.8708,
      "longitude": -76.61885
    },
    {
      "id": 3671117,
      "name": "Quibdó",
      "nativeName": "Quibdó",
      "code": "CO-CHO-3671117",
      "countryId": 3686110,
      "countryCode": "CO",
      "stateCode": "CO-CHO",
      "latitude": 5.76075,
      "longitude": -76.83701
    },
    {
      "id": 3670720,
      "name": "Riosucio",
      "nativeName": "Riosucio",
      "code": "CO-CHO-3670720",
      "countryId": 3686110,
      "countryCode": "CO",
      "stateCode": "CO-CHO",
      "latitude": 7.41667,
      "longitude": -77.16667
    },
    {
      "id": 9179554,
      "name": "Río Iro",
      "nativeName": "Río Iro",
      "code": "CO-CHO-9179554",
      "countryId": 3686110,
      "countryCode": "CO",
      "stateCode": "CO-CHO",
      "latitude": 5.18333,
      "longitude": -76.4833
    },
    {
      "id": 9179548,
      "name": "Río Quito",
      "nativeName": "Río Quito",
      "code": "CO-CHO-9179548",
      "countryId": 3686110,
      "countryCode": "CO",
      "stateCode": "CO-CHO",
      "latitude": 5.51667,
      "longitude": -76.75
    },
    {
      "id": 3669550,
      "name": "San José del Palmar",
      "nativeName": "San José del Palmar",
      "code": "CO-CHO-3669550",
      "countryId": 3686110,
      "countryCode": "CO",
      "stateCode": "CO-CHO",
      "latitude": 4.94657,
      "longitude": -76.22226
    },
    {
      "id": 3667960,
      "name": "Sipí",
      "nativeName": "Sipí",
      "code": "CO-CHO-3667960",
      "countryId": 3686110,
      "countryCode": "CO",
      "stateCode": "CO-CHO",
      "latitude": 4.60257,
      "longitude": -76.51036
    },
    {
      "id": 3667580,
      "name": "Tadó",
      "nativeName": "Tadó",
      "code": "CO-CHO-3667580",
      "countryId": 3686110,
      "countryCode": "CO",
      "stateCode": "CO-CHO",
      "latitude": 5.26345,
      "longitude": -76.5507
    },
    {
      "id": 9172032,
      "name": "Unguía",
      "nativeName": "Unguía",
      "code": "CO-CHO-9172032",
      "countryId": 3686110,
      "countryCode": "CO",
      "stateCode": "CO-CHO",
      "latitude": 8.11118,
      "longitude": -77.10916
    },
    {
      "id": 9179543,
      "name": "Unión Panamericana",
      "nativeName": "Unión Panamericana",
      "code": "CO-CHO-9179543",
      "countryId": 3686110,
      "countryCode": "CO",
      "stateCode": "CO-CHO",
      "latitude": 5.28139,
      "longitude": -76.63
    }
  ]
}