{
  "stateId": 3686880,
  "stateCode": "CO-CES",
  "countryCode": "CO",
  "cities": [
    {
      "id": 3690466,
      "name": "Aguachica",
      "nativeName": "Aguachica",
      "code": "CO-CES-3690466",
      "countryId": 3686110,
      "countryCode": "CO",
      "stateCode": "CO-CES",
      "latitude": 8.24932,
      "longitude": -73.61889
    },
    {
      "id": 3690298,
      "name": "Agustín Codazzi",
      "nativeName": "Agustín Codazzi",
      "code": "CO-CES-3690298",
      "countryId": 3686110,
      "countryCode": "CO",
      "stateCode": "CO-CES",
      "latitude": 9.9485,
      "longitude": -73.22161
    },
    {
      "id": 9172309,
      "name": "Astrea",
      "nativeName": "Astrea",
      "code": "CO-CES-9172309",
      "countryId": 3686110,
      "countryCode": "CO",
      "stateCode": "CO-CES",
      "latitude": 9.48985,
      "longitude": -73.97883
    },
    {
      "id": 9172311,
      "name": "Becerril",
      "nativeName": "Becerril",
      "code": "CO-CES-9172311",
      "countryId": 3686110,
      "countryCode": "CO",
      "stateCode": "CO-CES",
      "latitude": 9.74288,
      "longitude": -73.21746
    },
    {
      "id": 9172312,
      "name": "Bosconia",
      "nativeName": "Bosconia",
      "code": "CO-CES-9172312",
      "countryId": 3686110,
      "countryCode": "CO",
      "stateCode": "CO-CES",
      "latitude": 9.92922,
      "longitude": -73.88856
    },
    {
      "id": 3686586,
      "name": "Chimichagua",
      "nativeName": "Chimichagua",
      "code": "CO-CES-3686586",
      "countryId": 3686110,
      "countryCode": "CO",
      "stateCode": "CO-CES",
      "latitude": 9.2225,
      "longitude": -73.8075
    },
    {
      "id": 3686481,
      "name": "Chiriguaná",
      "nativeName": "Chiriguaná",
      "code": "CO-CES-3686481",
      "countryId": 3686110,
      "countryCode": "CO",
      "stateCode": "CO-CES",
      "latitude": 9.39322,
      "longitude": -73.51883
    },
    {
      "id": 9172314,
      "name": "Curumaní",
      "nativeName": "Curumaní",
      "code": "CO-CES-9172314",
      "countryId": 3686110,
      "countryCode": "CO",
      "stateCode": "CO-CES",
      "latitude": 9.20545,
      "longitude": -73.51988
    },
    {
      "id": 9172363,
      "name": "El Copey",
      "nativeName": "El Copey",
      "code": "CO-CES-9172363",
      "countryId": 3686110,
      "countryCode": "CO",
      "stateCode": "CO-CES",
      "latitude": 10.18544,
      "longitude": -73.93328
    },
    {
      "id": 9172315,
      "name": "El Paso",
      "nativeName": "El Paso",
      "code": "CO-CES-9172315",
      "countryId": 3686110,
      "countryCode": "CO",
      "stateCode": "CO-CES",
      "latitude": 9.65843,
      "longitude": -73.71418
    },
    {
      "id": 3682184,
      "name": "Gamarra",
      "nativeName": "Gamarra",
      "code": "CO-CES-3682184",
      "countryId": 3686110,
      "countryCode": "CO",
      "stateCode": "CO-CES",
      "latitude": 8.32969,
      "longitude": -73.71773
    },
    {
      "id": 3681991,
      "name": "González",
      "nativeName": "González",
      "code": "CO-CES-3681991",
      "countryId": 3686110,
      "countryCode": "CO",
      "stateCode": "CO-CES",
      "latitude": 8.36735,
      "longitude": -73.40032
    },
    {
      "id": 3678913,
      "name": "La Gloria",
      "nativeName": "La Gloria",
      "code": "CO-CES-3678913",
      "countryId": 3686110,
      "countryCode": "CO",
      "stateCode": "CO-CES",
      "latitude": 8.6116,
      "longitude": -73.63045
    },
    {
      "id": 9179887,
      "name": "La Jagua de Ibirico",
      "nativeName": "La Jagua de Ibirico",
      "code": "CO-CES-9179887",
      "countryId": 3686110,
      "countryCode": "CO",
      "stateCode": "CO-CES",
      "latitude": 9.56667,
      "longitude": -73.33333
    },
    {
      "id": 3670673,
      "name": "La Paz",
      "nativeName": "La Paz",
      "code": "CO-CES-3670673",
      "countryId": 3686110,
      "countryCode": "CO",
      "stateCode": "CO-CES",
      "latitude": 10.10487,
      "longitude": -73.22056
    },
    {
      "id": 9172317,
      "name": "Manaure",
      "nativeName": "Manaure",
      "code": "CO-CES-9172317",
      "countryId": 3686110,
      "countryCode": "CO",
      "stateCode": "CO-CES",
      "latitude": 10.40138,
      "longitude": -72.93102
    },
    {
      "id": 9172319,
      "name": "Pailitas",
      "nativeName": "Pailitas",
      "code": "CO-CES-9172319",
      "countryId": 3686110,
      "countryCode": "CO",
      "stateCode": "CO-CES",
      "latitude": 8.9255,
      "longitude": -73.59292
    },
    {
      "id": 9172414,
      "name": "Pelaya",
      "nativeName": "Pelaya",
      "code": "CO-CES-9172414",
      "countryId": 3686110,
      "countryCode": "CO",
      "stateCode": "CO-CES",
      "latitude": 8.77066,
      "longitude": -73.61088
    },
    {
      "id": 9179890,
      "name": "Pueblo Bello",
      "nativeName": "Pueblo Bello",
      "code": "CO-CES-9179890",
      "countryId": 3686110,
      "countryCode": "CO",
      "stateCode": "CO-CES",
      "latitude": 10.41667,
      "longitude": -73.58333
    },
    {
      "id": 3670757,
      "name": "Río de Oro",
      "nativeName": "Río de Oro",
      "code": "CO-CES-3670757",
      "countryId": 3686110,
      "countryCode": "CO",
      "stateCode": "CO-CES",
      "latitude": 8.17879,
      "longitude": -73.51218
    },
    {
      "id": 9073589,
      "name": "San Alberto",
      "nativeName": "San Alberto",
      "code": "CO-CES-9073589",
      "countryId": 3686110,
      "countryCode": "CO",
      "stateCode": "CO-CES",
      "latitude": 7.81435,
      "longitude": -73.45818
    },
    {
      "id": 9172326,
      "name": "San Diego",
      "nativeName": "San Diego",
      "code": "CO-CES-9172326",
      "countryId": 3686110,
      "countryCode": "CO",
      "stateCode": "CO-CES",
      "latitude": 10.23244,
      "longitude": -73.27349
    },
    {
      "id": 9172163,
      "name": "San Martín",
      "nativeName": "San Martín",
      "code": "CO-CES-9172163",
      "countryId": 3686110,
      "countryCode": "CO",
      "stateCode": "CO-CES",
      "latitude": 7.97003,
      "longitude": -73.57247
    },
    {
      "id": 3667529,
      "name": "Tamalameque",
      "nativeName": "Tamalameque",
      "code": "CO-CES-3667529",
      "countryId": 3686110,
      "countryCode": "CO",
      "stateCode": "CO-CES",
      "latitude": 8.86422,
      "longitude": -73.78106
    },
    {
      "id": 9172328,
      "name": "Valledupar",
      "nativeName": "Valledupar",
      "code": "CO-CES-9172328",
      "countryId": 3686110,
      "countryCode": "CO",
      "stateCode": "CO-CES",
      "latitude": 10.35653,
      "longitude": -73.36641
    }
  ]
}