{
  "stateId": 3675686,
  "stateCode": "CO-MAG",
  "countryCode": "CO",
  "cities": [
    {
      "id": 3690173,
      "name": "Algarrobo",
      "nativeName": "Algarrobo",
      "code": "CO-MAG-3690173",
      "countryId": 3686110,
      "countryCode": "CO",
      "stateCode": "CO-MAG",
      "latitude": 10.18553,
      "longitude": -74.06158
    },
    {
      "id": 3689761,
      "name": "Aracataca",
      "nativeName": "Aracataca",
      "code": "CO-MAG-3689761",
      "countryId": 3686110,
      "countryCode": "CO",
      "stateCode": "CO-MAG",
      "latitude": 10.64485,
      "longitude": -73.87265
    },
    {
      "id": 8128837,
      "name": "Ariguaní",
      "nativeName": "Ariguaní",
      "code": "CO-MAG-8128837",
      "countryId": 3686110,
      "countryCode": "CO",
      "stateCode": "CO-MAG",
      "latitude": 9.89383,
      "longitude": -74.13583
    },
    {
      "id": 3686895,
      "name": "Cerro San Antonio",
      "nativeName": "Cerro San Antonio",
      "code": "CO-MAG-3686895",
      "countryId": 3686110,
      "countryCode": "CO",
      "stateCode": "CO-MAG",
      "latitude": 10.29063,
      "longitude": -74.82173
    },
    {
      "id": 9172393,
      "name": "Chibolo",
      "nativeName": "Chibolo",
      "code": "CO-MAG-9172393",
      "countryId": 3686110,
      "countryCode": "CO",
      "stateCode": "CO-MAG",
      "latitude": 10.0825,
      "longitude": -74.50696
    },
    {
      "id": 3686276,
      "name": "Ciénaga",
      "nativeName": "Ciénaga",
      "code": "CO-MAG-3686276",
      "countryId": 3686110,
      "countryCode": "CO",
      "stateCode": "CO-MAG",
      "latitude": 10.83333,
      "longitude": -74.08333
    },
    {
      "id": 9609550,
      "name": "Concordia",
      "nativeName": "Concordia",
      "code": "CO-MAG-9609550",
      "countryId": 3686110,
      "countryCode": "CO",
      "stateCode": "CO-MAG",
      "latitude": 10.23276,
      "longitude": -74.77855
    },
    {
      "id": 3684928,
      "name": "El Banco",
      "nativeName": "El Banco",
      "code": "CO-MAG-3684928",
      "countryId": 3686110,
      "countryCode": "CO",
      "stateCode": "CO-MAG",
      "latitude": 9.12411,
      "longitude": -73.97626
    },
    {
      "id": 3683465,
      "name": "El Piñon",
      "nativeName": "El Piñon",
      "code": "CO-MAG-3683465",
      "countryId": 3686110,
      "countryCode": "CO",
      "stateCode": "CO-MAG",
      "latitude": 10.33333,
      "longitude": -74.66667
    },
    {
      "id": 9609551,
      "name": "El Retén",
      "nativeName": "El Retén",
      "code": "CO-MAG-9609551",
      "countryId": 3686110,
      "countryCode": "CO",
      "stateCode": "CO-MAG",
      "latitude": 10.66114,
      "longitude": -74.32549
    },
    {
      "id": 3682289,
      "name": "Fundación",
      "nativeName": "Fundación",
      "code": "CO-MAG-3682289",
      "countryId": 3686110,
      "countryCode": "CO",
      "stateCode": "CO-MAG",
      "latitude": 10.41667,
      "longitude": -73.91667
    },
    {
      "id": 3681606,
      "name": "Guamal",
      "nativeName": "Guamal",
      "code": "CO-MAG-3681606",
      "countryId": 3686110,
      "countryCode": "CO",
      "stateCode": "CO-MAG",
      "latitude": 9.26079,
      "longitude": -74.13105
    },
    {
      "id": 9609552,
      "name": "Nueva Granada",
      "nativeName": "Nueva Granada",
      "code": "CO-MAG-9609552",
      "countryId": 3686110,
      "countryCode": "CO",
      "stateCode": "CO-MAG",
      "latitude": 9.73588,
      "longitude": -74.32892
    },
    {
      "id": 3672634,
      "name": "Pedraza",
      "nativeName": "Pedraza",
      "code": "CO-MAG-3672634",
      "countryId": 3686110,
      "countryCode": "CO",
      "stateCode": "CO-MAG",
      "latitude": 10.1494,
      "longitude": -74.83634
    },
    {
      "id": 9609553,
      "name": "Pijiño del Carmen",
      "nativeName": "Pijiño del Carmen",
      "code": "CO-MAG-9609553",
      "countryId": 3686110,
      "countryCode": "CO",
      "stateCode": "CO-MAG",
      "latitude": 9.53528,
      "longitude": -74.11992
    },
    {
      "id": 3672094,
      "name": "Pivijay",
      "nativeName": "Pivijay",
      "code": "CO-MAG-3672094",
      "countryId": 3686110,
      "countryCode": "CO",
      "stateCode": "CO-MAG",
      "latitude": 10.43178,
      "longitude": -74.41536
    },
    {
      "id": 3672032,
      "name": "Plato",
      "nativeName": "Plato",
      "code": "CO-MAG-3672032",
      "countryId": 3686110,
      "countryCode": "CO",
      "stateCode": "CO-MAG",
      "latitude": 9.77267,
      "longitude": -74.74548
    },
    {
      "id": 3671628,
      "name": "Puebloviejo",
      "nativeName": "Puebloviejo",
      "code": "CO-MAG-3671628",
      "countryId": 3686110,
      "countryCode": "CO",
      "stateCode": "CO-MAG",
      "latitude": 10.84239,
      "longitude": -74.38538
    },
    {
      "id": 3670898,
      "name": "Remolino",
      "nativeName": "Remolino",
      "code": "CO-MAG-3670898",
      "countryId": 3686110,
      "countryCode": "CO",
      "stateCode": "CO-MAG",
      "latitude": 10.65048,
      "longitude": -74.58442
    },
    {
      "id": 9609554,
      "name": "Sabanas de San Angel",
      "nativeName": "Sabanas de San Angel",
      "code": "CO-MAG-9609554",
      "countryId": 3686110,
      "countryCode": "CO",
      "stateCode": "CO-MAG",
      "latitude": 10.11072,
      "longitude": -74.26007
    },
    {
      "id": 3670371,
      "name": "Salamina",
      "nativeName": "Salamina",
      "code": "CO-MAG-3670371",
      "countryId": 3686110,
      "countryCode": "CO",
      "stateCode": "CO-MAG",
      "latitude": 10.51727,
      "longitude": -74.71942
    },
    {
      "id": 3668979,
      "name": "San Sebastián de Buenavista",
      "nativeName": "San Sebastián de Buenavista",
      "code": "CO-MAG-3668979",
      "countryId": 3686110,
      "countryCode": "CO",
      "stateCode": "CO-MAG",
      "latitude": 9.33242,
      "longitude": -74.2152
    },
    {
      "id": 3668287,
      "name": "San Zenón",
      "nativeName": "San Zenón",
      "code": "CO-MAG-3668287",
      "countryId": 3686110,
      "countryCode": "CO",
      "stateCode": "CO-MAG",
      "latitude": 9.32686,
      "longitude": -74.32914
    },
    {
      "id": 3668928,
      "name": "Santa Ana",
      "nativeName": "Santa Ana",
      "code": "CO-MAG-3668928",
      "countryId": 3686110,
      "countryCode": "CO",
      "stateCode": "CO-MAG",
      "latitude": 9.51484,
      "longitude": -74.3433
    },
    {
      "id": 9609555,
      "name": "Santa Bárbara de Pinto",
      "nativeName": "Santa Bárbara de Pinto",
      "code": "CO-MAG-9609555",
      "countryId": 3686110,
      "countryCode": "CO",
      "stateCode": "CO-MAG",
      "latitude": 9.52107,
      "longitude": -74.64912
    },
    {
      "id": 3668614,
      "name": "Santa Marta",
      "nativeName": "Santa Marta",
      "code": "CO-MAG-3668614",
      "countryId": 3686110,
      "countryCode": "CO",
      "stateCode": "CO-MAG",
      "latitude": 11.24348,
      "longitude": -74.20835
    },
    {
      "id": 3667924,
      "name": "Sitionuevo",
      "nativeName": "Sitionuevo",
      "code": "CO-MAG-3667924",
      "countryId": 3686110,
      "countryCode": "CO",
      "stateCode": "CO-MAG",
      "latitude": 10.88969,
      "longitude": -74.63082
    },
    {
      "id": 3667302,
      "name": "Tenerife",
      "nativeName": "Tenerife",
      "code": "CO-MAG-3667302",
      "countryId": 3686110,
      "countryCode": "CO",
      "stateCode": "CO-MAG",
      "latitude": 9.93201,
      "longitude": -74.73465
    },
    {
      "id": 9609556,
      "name": "Zapayán",
      "nativeName": "Zapayán",
      "code": "CO-MAG-9609556",
      "countryId": 3686110,
      "countryCode": "CO",
      "stateCode": "CO-MAG",
      "latitude": 10.11846,
      "longitude": -74.69143
    },
    {
      "id": 9179913,
      "name": "Zona Bananera",
      "nativeName": "Zona Bananera",
      "code": "CO-MAG-9179913",
      "countryId": 3686110,
      "countryCode": "CO",
      "stateCode": "CO-MAG",
      "latitude": 10.76417,
      "longitude": -74.15722
    }
  ]
}