{
  "stateId": 7521422,
  "stateCode": "YT-97602",
  "countryCode": "YT",
  "cities": [
    {
      "id": 1090119,
      "name": "Bandraboua",
      "nativeName": "Bandraboua",
      "code": "YT-97602-1090119",
      "countryId": 1024031,
      "countryCode": "YT",
      "stateCode": "YT-97602",
      "latitude": -12.7044,
      "longitude": 45.12231
    },
    {
      "id": 10631769,
      "name": "Bouchini",
      "nativeName": "Bouchini",
      "code": "YT-97602-10631769",
      "countryId": 1024031,
      "countryCode": "YT",
      "stateCode": "YT-97602",
      "latitude": -12.68996,
      "longitude": 45.10527
    },
    {
      "id": 1090191,
      "name": "Bouyouni",
      "nativeName": "Bouyouni",
      "code": "YT-97602-1090191",
      "countryId": 1024031,
      "countryCode": "YT",
      "stateCode": "YT-97602",
      "latitude": -12.73462,
      "longitude": 45.13914
    },
    {
      "id": 1090202,
      "name": "Dzoumonyé",
      "nativeName": "Dzoumonyé",
      "code": "YT-97602-1090202",
      "countryId": 1024031,
      "countryCode": "YT",
      "stateCode": "YT-97602",
      "latitude": -12.72076,
      "longitude": 45.11848
    },
    {
      "id": 921895,
      "name": "Dzumogne",
      "nativeName": "Dzumogne",
      "code": "YT-97602-921895",
      "countryId": 1024031,
      "countryCode": "YT",
      "stateCode": "YT-97602",
      "latitude": -12.71667,
      "longitude": 45.11667
    },
    {
      "id": 1090108,
      "name": "Handréma",
      "nativeName": "Handréma",
      "code": "YT-97602-1090108",
      "countryId": 1024031,
      "countryCode": "YT",
      "stateCode": "YT-97602",
      "latitude": -12.68112,
      "longitude": 45.09965
    },
    {
      "id": 1090192,
      "name": "Mitséni",
      "nativeName": "Mitséni",
      "code": "YT-97602-1090192",
      "countryId": 1024031,
      "countryCode": "YT",
      "stateCode": "YT-97602",
      "latitude": -12.73862,
      "longitude": 45.14572
    },
    {
      "id": 1090117,
      "name": "Mtsangamboua",
      "nativeName": "Mtsangamboua",
      "code": "YT-97602-1090117",
      "countryId": 1024031,
      "countryCode": "YT",
      "stateCode": "YT-97602",
      "latitude": -12.69033,
      "longitude": 45.10926
    },
    {
      "id": 1090122,
      "name": "Nyambo",
      "nativeName": "Nyambo",
      "code": "YT-97602-1090122",
      "countryId": 1024031,
      "countryCode": "YT",
      "stateCode": "YT-97602",
      "latitude": -12.7094,
      "longitude": 45.12295
    },
    {
      "id": 921653,
      "name": "Zoumougine",
      "nativeName": "Zoumougine",
      "code": "YT-97602-921653",
      "countryId": 1024031,
      "countryCode": "YT",
      "stateCode": "YT-97602",
      "latitude": -12.73333,
      "longitude": 45.13333
    }
  ]
}