{
  "stateId": 7521427,
  "stateCode": "YT-97607",
  "countryCode": "YT",
  "cities": [
    {
      "id": 921917,
      "name": "Dembeni",
      "nativeName": "Dembeni",
      "code": "YT-97607-921917",
      "countryId": 1024031,
      "countryCode": "YT",
      "stateCode": "YT-97607",
      "latitude": -12.8436,
      "longitude": 45.18436
    },
    {
      "id": 922013,
      "name": "Ajangua",
      "nativeName": "Ajangua",
      "code": "YT-97607-922013",
      "countryId": 1024031,
      "countryCode": "YT",
      "stateCode": "YT-97607",
      "latitude": -12.86667,
      "longitude": 45.21667
    },
    {
      "id": 1090360,
      "name": "Florence",
      "nativeName": "Florence",
      "code": "YT-97607-1090360",
      "countryId": 1024031,
      "countryCode": "YT",
      "stateCode": "YT-97607",
      "latitude": -12.86181,
      "longitude": 45.19464
    },
    {
      "id": 1090361,
      "name": "Hajangoua",
      "nativeName": "Hajangoua",
      "code": "YT-97607-1090361",
      "countryId": 1024031,
      "countryCode": "YT",
      "stateCode": "YT-97607",
      "latitude": -12.86607,
      "longitude": 45.19857
    },
    {
      "id": 1090356,
      "name": "Iloni",
      "nativeName": "Iloni",
      "code": "YT-97607-1090356",
      "countryId": 1024031,
      "countryCode": "YT",
      "stateCode": "YT-97607",
      "latitude": -12.84553,
      "longitude": 45.19037
    },
    {
      "id": 1090306,
      "name": "Ironi Bé",
      "nativeName": "Ironi Bé",
      "code": "YT-97607-1090306",
      "countryId": 1024031,
      "countryCode": "YT",
      "stateCode": "YT-97607",
      "latitude": -12.83212,
      "longitude": 45.19285
    },
    {
      "id": 921859,
      "name": "Ironi Kely",
      "nativeName": "Ironi Kely",
      "code": "YT-97607-921859",
      "countryId": 1024031,
      "countryCode": "YT",
      "stateCode": "YT-97607",
      "latitude": -12.83333,
      "longitude": 45.21667
    },
    {
      "id": 1090362,
      "name": "Maboungani",
      "nativeName": "Maboungani",
      "code": "YT-97607-1090362",
      "countryId": 1024031,
      "countryCode": "YT",
      "stateCode": "YT-97607",
      "latitude": -12.87242,
      "longitude": 45.19981
    },
    {
      "id": 1090308,
      "name": "Ongojou",
      "nativeName": "Ongojou",
      "code": "YT-97607-1090308",
      "countryId": 1024031,
      "countryCode": "YT",
      "stateCode": "YT-97607",
      "latitude": -12.83883,
      "longitude": 45.16012
    },
    {
      "id": 921724,
      "name": "Ongoujou",
      "nativeName": "Ongoujou",
      "code": "YT-97607-921724",
      "countryId": 1024031,
      "countryCode": "YT",
      "stateCode": "YT-97607",
      "latitude": -12.85,
      "longitude": 45.16667
    },
    {
      "id": 1090304,
      "name": "Tsararano",
      "nativeName": "Tsararano",
      "code": "YT-97607-1090304",
      "countryId": 1024031,
      "countryCode": "YT",
      "stateCode": "YT-97607",
      "latitude": -12.83528,
      "longitude": 45.17355
    }
  ]
}