{
  "countryId": 1024031,
  "countryCode": "YT",
  "states": [
    {
      "id": 7521421,
      "name": "Acoua",
      "nativeName": "Acoua",
      "code": "YT-97601",
      "internalCode": "",
      "countryId": 1024031,
      "countryCode": "YT",
      "latitude": -12.72215,
      "longitude": 45.05811
    },
    {
      "id": 7521422,
      "name": "Bandraboua",
      "nativeName": "Bandraboua",
      "code": "YT-97602",
      "internalCode": "",
      "countryId": 1024031,
      "countryCode": "YT",
      "latitude": -12.70222,
      "longitude": 45.12197
    },
    {
      "id": 7521423,
      "name": "Bandrele",
      "nativeName": "Bandrele",
      "code": "YT-97603",
      "internalCode": "",
      "countryId": 1024031,
      "countryCode": "YT",
      "latitude": -12.91113,
      "longitude": 45.19389
    },
    {
      "id": 7521424,
      "name": "Bouéni",
      "nativeName": "Bouéni",
      "code": "YT-97604",
      "internalCode": "",
      "countryId": 1024031,
      "countryCode": "YT",
      "latitude": -12.9092,
      "longitude": 45.07999
    },
    {
      "id": 7521425,
      "name": "Chiconi",
      "nativeName": "Chiconi",
      "code": "YT-97605",
      "internalCode": "",
      "countryId": 1024031,
      "countryCode": "YT",
      "latitude": -12.83072,
      "longitude": 45.11407
    },
    {
      "id": 7521426,
      "name": "Chirongui",
      "nativeName": "Chirongui",
      "code": "YT-97606",
      "internalCode": "",
      "countryId": 1024031,
      "countryCode": "YT",
      "latitude": -12.93497,
      "longitude": 45.15106
    },
    {
      "id": 7521427,
      "name": "Dembeni",
      "nativeName": "Dembeni",
      "code": "YT-97607",
      "internalCode": "",
      "countryId": 1024031,
      "countryCode": "YT",
      "latitude": -12.84302,
      "longitude": 45.18548
    },
    {
      "id": 7521428,
      "name": "Dzaoudzi",
      "nativeName": "Dzaoudzi",
      "code": "YT-97608",
      "internalCode": "",
      "countryId": 1024031,
      "countryCode": "YT",
      "latitude": -12.77832,
      "longitude": 45.28367
    },
    {
      "id": 7521429,
      "name": "Kani-Kéli",
      "nativeName": "Kani-Kéli",
      "code": "YT-97609",
      "internalCode": "",
      "countryId": 1024031,
      "countryCode": "YT",
      "latitude": -12.95471,
      "longitude": 45.106
    },
    {
      "id": 7521430,
      "name": "Koungou",
      "nativeName": "Koungou",
      "code": "YT-97610",
      "internalCode": "",
      "countryId": 1024031,
      "countryCode": "YT",
      "latitude": -12.73513,
      "longitude": 45.20591
    },
    {
      "id": 7521433,
      "name": "M'Tsangamouji",
      "nativeName": "M'Tsangamouji",
      "code": "YT-97613",
      "internalCode": "",
      "countryId": 1024031,
      "countryCode": "YT",
      "latitude": -12.75982,
      "longitude": 45.08454
    },
    {
      "id": 7521431,
      "name": "Mamoudzou",
      "nativeName": "Mamoudzou",
      "code": "YT-97611",
      "internalCode": "",
      "countryId": 1024031,
      "countryCode": "YT",
      "latitude": -12.77966,
      "longitude": 45.22831
    },
    {
      "id": 7521432,
      "name": "Mtsamboro",
      "nativeName": "Mtsamboro",
      "code": "YT-97612",
      "internalCode": "",
      "countryId": 1024031,
      "countryCode": "YT",
      "latitude": -12.70013,
      "longitude": 45.06918
    },
    {
      "id": 7521434,
      "name": "Ouangani",
      "nativeName": "Ouangani",
      "code": "YT-97614",
      "internalCode": "",
      "countryId": 1024031,
      "countryCode": "YT",
      "latitude": -12.84728,
      "longitude": 45.1369
    },
    {
      "id": 7521435,
      "name": "Pamandzi",
      "nativeName": "Pamandzi",
      "code": "YT-97615",
      "internalCode": "",
      "countryId": 1024031,
      "countryCode": "YT",
      "latitude": -12.79489,
      "longitude": 45.28195
    },
    {
      "id": 7521436,
      "name": "Sada",
      "nativeName": "Sada",
      "code": "YT-97616",
      "internalCode": "",
      "countryId": 1024031,
      "countryCode": "YT",
      "latitude": -12.85046,
      "longitude": 45.10291
    },
    {
      "id": 7521437,
      "name": "Tsingoni",
      "nativeName": "Tsingoni",
      "code": "YT-97617",
      "internalCode": "",
      "countryId": 1024031,
      "countryCode": "YT",
      "latitude": -12.78845,
      "longitude": 45.10463
    }
  ]
}