{
  "stateId": 617715,
  "stateCode": "MD-AN",
  "countryCode": "MD",
  "cities": [
    {
      "id": 617702,
      "name": "Anenii Noi",
      "nativeName": "Anenii Noi",
      "code": "MD-AN-617702",
      "countryId": 617790,
      "countryCode": "MD",
      "stateCode": "MD-AN",
      "latitude": 46.87839,
      "longitude": 29.23483
    },
    {
      "id": 829921,
      "name": "Albiniţa",
      "nativeName": "Albiniţa",
      "code": "MD-AN-829921",
      "countryId": 617790,
      "countryCode": "MD",
      "stateCode": "MD-AN",
      "latitude": 46.89165,
      "longitude": 29.1842
    },
    {
      "id": 618632,
      "name": "Asnăşeni",
      "nativeName": "Asnăşeni",
      "code": "MD-AN-618632",
      "countryId": 617790,
      "countryCode": "MD",
      "stateCode": "MD-AN",
      "latitude": 46.99472,
      "longitude": 29.23194
    },
    {
      "id": 618606,
      "name": "Balmaz",
      "nativeName": "Balmaz",
      "code": "MD-AN-618606",
      "countryId": 617790,
      "countryCode": "MD",
      "stateCode": "MD-AN",
      "latitude": 46.79774,
      "longitude": 29.28533
    },
    {
      "id": 618596,
      "name": "Barcareni",
      "nativeName": "Barcareni",
      "code": "MD-AN-618596",
      "countryId": 617790,
      "countryCode": "MD",
      "stateCode": "MD-AN",
      "latitude": 46.78278,
      "longitude": 29.17722
    },
    {
      "id": 618591,
      "name": "Batîc",
      "nativeName": "Batîc",
      "code": "MD-AN-618591",
      "countryId": 617790,
      "countryCode": "MD",
      "stateCode": "MD-AN",
      "latitude": 46.79614,
      "longitude": 29.19053
    },
    {
      "id": 618575,
      "name": "Beriozchi",
      "nativeName": "Beriozchi",
      "code": "MD-AN-618575",
      "countryId": 617790,
      "countryCode": "MD",
      "stateCode": "MD-AN",
      "latitude": 46.87197,
      "longitude": 29.25785
    },
    {
      "id": 618527,
      "name": "Botnăreşti",
      "nativeName": "Botnăreşti",
      "code": "MD-AN-618527",
      "countryId": 617790,
      "countryCode": "MD",
      "stateCode": "MD-AN",
      "latitude": 46.93004,
      "longitude": 29.15988
    },
    {
      "id": 829920,
      "name": "Botnăreştii Noi",
      "nativeName": "Botnăreştii Noi",
      "code": "MD-AN-829920",
      "countryId": 617790,
      "countryCode": "MD",
      "stateCode": "MD-AN",
      "latitude": 46.92158,
      "longitude": 29.16597
    },
    {
      "id": 618486,
      "name": "Bulboaca",
      "nativeName": "Bulboaca",
      "code": "MD-AN-618486",
      "countryId": 617790,
      "countryCode": "MD",
      "stateCode": "MD-AN",
      "latitude": 46.88379,
      "longitude": 29.30809
    },
    {
      "id": 618161,
      "name": "Calfa",
      "nativeName": "Calfa",
      "code": "MD-AN-618161",
      "countryId": 617790,
      "countryCode": "MD",
      "stateCode": "MD-AN",
      "latitude": 46.9046,
      "longitude": 29.38049
    },
    {
      "id": 829928,
      "name": "Calfa Nouă",
      "nativeName": "Calfa Nouă",
      "code": "MD-AN-829928",
      "countryId": 617790,
      "countryCode": "MD",
      "stateCode": "MD-AN",
      "latitude": 46.91419,
      "longitude": 29.35824
    },
    {
      "id": 618078,
      "name": "Chirca",
      "nativeName": "Chirca",
      "code": "MD-AN-618078",
      "countryId": 617790,
      "countryCode": "MD",
      "stateCode": "MD-AN",
      "latitude": 46.92148,
      "longitude": 29.10925
    },
    {
      "id": 618446,
      "name": "Ciobanovca",
      "nativeName": "Ciobanovca",
      "code": "MD-AN-618446",
      "countryId": 617790,
      "countryCode": "MD",
      "stateCode": "MD-AN",
      "latitude": 46.81484,
      "longitude": 29.19331
    },
    {
      "id": 617732,
      "name": "Cobusca Nouă",
      "nativeName": "Cobusca Nouă",
      "code": "MD-AN-617732",
      "countryId": 617790,
      "countryCode": "MD",
      "stateCode": "MD-AN",
      "latitude": 46.93303,
      "longitude": 29.20798
    },
    {
      "id": 617353,
      "name": "Cobusca Veche",
      "nativeName": "Cobusca Veche",
      "code": "MD-AN-617353",
      "countryId": 617790,
      "countryCode": "MD",
      "stateCode": "MD-AN",
      "latitude": 46.96923,
      "longitude": 29.1814
    },
    {
      "id": 617975,
      "name": "Crasnogorca",
      "nativeName": "Crasnogorca",
      "code": "MD-AN-617975",
      "countryId": 617790,
      "countryCode": "MD",
      "stateCode": "MD-AN",
      "latitude": 46.96396,
      "longitude": 29.4603
    },
    {
      "id": 617967,
      "name": "Creţoaia",
      "nativeName": "Creţoaia",
      "code": "MD-AN-617967",
      "countryId": 617790,
      "countryCode": "MD",
      "stateCode": "MD-AN",
      "latitude": 46.86627,
      "longitude": 29.13431
    },
    {
      "id": 618397,
      "name": "Delacău",
      "nativeName": "Delacău",
      "code": "MD-AN-618397",
      "countryId": 617790,
      "countryCode": "MD",
      "stateCode": "MD-AN",
      "latitude": 47.09903,
      "longitude": 29.30487
    },
    {
      "id": 618396,
      "name": "Delacău",
      "nativeName": "Delacău",
      "code": "MD-AN-618396",
      "countryId": 617790,
      "countryCode": "MD",
      "stateCode": "MD-AN",
      "latitude": 47.12854,
      "longitude": 29.29906
    },
    {
      "id": 618332,
      "name": "Floreni",
      "nativeName": "Floreni",
      "code": "MD-AN-618332",
      "countryId": 617790,
      "countryCode": "MD",
      "stateCode": "MD-AN",
      "latitude": 46.93709,
      "longitude": 28.99201
    },
    {
      "id": 618330,
      "name": "Floreşti",
      "nativeName": "Floreşti",
      "code": "MD-AN-618330",
      "countryId": 617790,
      "countryCode": "MD",
      "stateCode": "MD-AN",
      "latitude": 46.99744,
      "longitude": 29.18092
    },
    {
      "id": 618352,
      "name": "Geamănă",
      "nativeName": "Geamănă",
      "code": "MD-AN-618352",
      "countryId": 617790,
      "countryCode": "MD",
      "stateCode": "MD-AN",
      "latitude": 46.82143,
      "longitude": 29.13953
    },
    {
      "id": 618217,
      "name": "Gura Bîcului",
      "nativeName": "Gura Bîcului",
      "code": "MD-AN-618217",
      "countryId": 617790,
      "countryCode": "MD",
      "stateCode": "MD-AN",
      "latitude": 46.92981,
      "longitude": 29.45984
    },
    {
      "id": 618308,
      "name": "Gălileşti",
      "nativeName": "Gălileşti",
      "code": "MD-AN-618308",
      "countryId": 617790,
      "countryCode": "MD",
      "stateCode": "MD-AN",
      "latitude": 46.90583,
      "longitude": 29.345
    },
    {
      "id": 618207,
      "name": "Hîrbovăţ",
      "nativeName": "Hîrbovăţ",
      "code": "MD-AN-618207",
      "countryId": 617790,
      "countryCode": "MD",
      "stateCode": "MD-AN",
      "latitude": 46.84298,
      "longitude": 29.36004
    },
    {
      "id": 829965,
      "name": "Hîrbovăţul Nou",
      "nativeName": "Hîrbovăţul Nou",
      "code": "MD-AN-829965",
      "countryId": 617790,
      "countryCode": "MD",
      "stateCode": "MD-AN",
      "latitude": 46.83266,
      "longitude": 29.27793
    },
    {
      "id": 617921,
      "name": "Larga",
      "nativeName": "Larga",
      "code": "MD-AN-617921",
      "countryId": 617790,
      "countryCode": "MD",
      "stateCode": "MD-AN",
      "latitude": 46.76275,
      "longitude": 29.1608
    },
    {
      "id": 617866,
      "name": "Maximovca",
      "nativeName": "Maximovca",
      "code": "MD-AN-617866",
      "countryId": 617790,
      "countryCode": "MD",
      "stateCode": "MD-AN",
      "latitude": 47.00948,
      "longitude": 29.01664
    },
    {
      "id": 617822,
      "name": "Mereni",
      "nativeName": "Mereni",
      "code": "MD-AN-617822",
      "countryId": 617790,
      "countryCode": "MD",
      "stateCode": "MD-AN",
      "latitude": 46.96278,
      "longitude": 29.05599
    },
    {
      "id": 617823,
      "name": "Merenii Noi",
      "nativeName": "Merenii Noi",
      "code": "MD-AN-617823",
      "countryId": 617790,
      "countryCode": "MD",
      "stateCode": "MD-AN",
      "latitude": 46.92594,
      "longitude": 29.0624
    },
    {
      "id": 617800,
      "name": "Mirnoe",
      "nativeName": "Mirnoe",
      "code": "MD-AN-617800",
      "countryId": 617790,
      "countryCode": "MD",
      "stateCode": "MD-AN",
      "latitude": 46.80283,
      "longitude": 29.22688
    },
    {
      "id": 617762,
      "name": "Nicolaevca",
      "nativeName": "Nicolaevca",
      "code": "MD-AN-617762",
      "countryId": 617790,
      "countryCode": "MD",
      "stateCode": "MD-AN",
      "latitude": 46.76889,
      "longitude": 29.1959
    },
    {
      "id": 617649,
      "name": "Ochiul Roşu",
      "nativeName": "Ochiul Roşu",
      "code": "MD-AN-617649",
      "countryId": 617790,
      "countryCode": "MD",
      "stateCode": "MD-AN",
      "latitude": 46.76781,
      "longitude": 29.10981
    },
    {
      "id": 617594,
      "name": "Petrovca",
      "nativeName": "Petrovca",
      "code": "MD-AN-617594",
      "countryId": 617790,
      "countryCode": "MD",
      "stateCode": "MD-AN",
      "latitude": 46.97568,
      "longitude": 29.0857
    },
    {
      "id": 617544,
      "name": "Puhăceni",
      "nativeName": "Puhăceni",
      "code": "MD-AN-617544",
      "countryId": 617790,
      "countryCode": "MD",
      "stateCode": "MD-AN",
      "latitude": 47.08949,
      "longitude": 29.34655
    },
    {
      "id": 617636,
      "name": "Pădureț",
      "nativeName": "Pădureț",
      "code": "MD-AN-617636",
      "countryId": 617790,
      "countryCode": "MD",
      "stateCode": "MD-AN",
      "latitude": 46.78299,
      "longitude": 29.20054
    },
    {
      "id": 617495,
      "name": "Roşcani",
      "nativeName": "Roşcani",
      "code": "MD-AN-617495",
      "countryId": 617790,
      "countryCode": "MD",
      "stateCode": "MD-AN",
      "latitude": 46.89534,
      "longitude": 29.30884
    },
    {
      "id": 824139,
      "name": "Ruseni",
      "nativeName": "Ruseni",
      "code": "MD-AN-824139",
      "countryId": 617790,
      "countryCode": "MD",
      "stateCode": "MD-AN",
      "latitude": 46.88654,
      "longitude": 29.19588
    },
    {
      "id": 617474,
      "name": "Sagaidac",
      "nativeName": "Sagaidac",
      "code": "MD-AN-617474",
      "countryId": 617790,
      "countryCode": "MD",
      "stateCode": "MD-AN",
      "latitude": 47.02609,
      "longitude": 29.02755
    },
    {
      "id": 617468,
      "name": "Salcia",
      "nativeName": "Salcia",
      "code": "MD-AN-617468",
      "countryId": 617790,
      "countryCode": "MD",
      "stateCode": "MD-AN",
      "latitude": 46.94426,
      "longitude": 29.16979
    },
    {
      "id": 617397,
      "name": "Scroafa",
      "nativeName": "Scroafa",
      "code": "MD-AN-617397",
      "countryId": 617790,
      "countryCode": "MD",
      "stateCode": "MD-AN",
      "latitude": 46.77889,
      "longitude": 29.25417
    },
    {
      "id": 617374,
      "name": "Socoleni",
      "nativeName": "Socoleni",
      "code": "MD-AN-617374",
      "countryId": 617790,
      "countryCode": "MD",
      "stateCode": "MD-AN",
      "latitude": 46.90736,
      "longitude": 29.18907
    },
    {
      "id": 617362,
      "name": "Speia",
      "nativeName": "Speia",
      "code": "MD-AN-617362",
      "countryId": 617790,
      "countryCode": "MD",
      "stateCode": "MD-AN",
      "latitude": 47.01005,
      "longitude": 29.29798
    },
    {
      "id": 617251,
      "name": "Teliţa",
      "nativeName": "Teliţa",
      "code": "MD-AN-617251",
      "countryId": 617790,
      "countryCode": "MD",
      "stateCode": "MD-AN",
      "latitude": 46.95708,
      "longitude": 29.3068
    },
    {
      "id": 829968,
      "name": "Teliţa Nouă",
      "nativeName": "Teliţa Nouă",
      "code": "MD-AN-829968",
      "countryId": 617790,
      "countryCode": "MD",
      "stateCode": "MD-AN",
      "latitude": 46.98111,
      "longitude": 29.28601
    },
    {
      "id": 617232,
      "name": "Tocmagiu",
      "nativeName": "Tocmagiu",
      "code": "MD-AN-617232",
      "countryId": 617790,
      "countryCode": "MD",
      "stateCode": "MD-AN",
      "latitude": 46.94462,
      "longitude": 29.37822
    },
    {
      "id": 617236,
      "name": "Todireşti",
      "nativeName": "Todireşti",
      "code": "MD-AN-617236",
      "countryId": 617790,
      "countryCode": "MD",
      "stateCode": "MD-AN",
      "latitude": 46.90922,
      "longitude": 29.08313
    },
    {
      "id": 617705,
      "name": "Troiţa Nouă",
      "nativeName": "Troiţa Nouă",
      "code": "MD-AN-617705",
      "countryId": 617790,
      "countryCode": "MD",
      "stateCode": "MD-AN",
      "latitude": 46.79089,
      "longitude": 29.26297
    },
    {
      "id": 617149,
      "name": "Varniţa",
      "nativeName": "Varniţa",
      "code": "MD-AN-617149",
      "countryId": 617790,
      "countryCode": "MD",
      "stateCode": "MD-AN",
      "latitude": 46.86606,
      "longitude": 29.46636
    },
    {
      "id": 829925,
      "name": "Varniţa Nouă",
      "nativeName": "Varniţa Nouă",
      "code": "MD-AN-829925",
      "countryId": 617790,
      "countryCode": "MD",
      "stateCode": "MD-AN",
      "latitude": 46.92607,
      "longitude": 29.2682
    },
    {
      "id": 617038,
      "name": "Zolotievca",
      "nativeName": "Zolotievca",
      "code": "MD-AN-617038",
      "countryId": 617790,
      "countryCode": "MD",
      "stateCode": "MD-AN",
      "latitude": 46.73833,
      "longitude": 29.18925
    },
    {
      "id": 617426,
      "name": "Şerpeni",
      "nativeName": "Şerpeni",
      "code": "MD-AN-617426",
      "countryId": 617790,
      "countryCode": "MD",
      "stateCode": "MD-AN",
      "latitude": 47.02199,
      "longitude": 29.35083
    },
    {
      "id": 617196,
      "name": "Ţînţăreni",
      "nativeName": "Ţînţăreni",
      "code": "MD-AN-617196",
      "countryId": 617790,
      "countryCode": "MD",
      "stateCode": "MD-AN",
      "latitude": 46.90294,
      "longitude": 29.13528
    }
  ]
}