{
  "stateId": 618069,
  "stateCode": "MD-CU",
  "countryCode": "MD",
  "cities": [
    {
      "id": 618426,
      "name": "Chisinau",
      "nativeName": "Chisinau",
      "code": "MD-CU-618426",
      "countryId": 617790,
      "countryCode": "MD",
      "stateCode": "MD-CU",
      "latitude": 47.00556,
      "longitude": 28.8575
    },
    {
      "id": 618501,
      "name": "Bubuieci",
      "nativeName": "Bubuieci",
      "code": "MD-CU-618501",
      "countryId": 617790,
      "countryCode": "MD",
      "stateCode": "MD-CU",
      "latitude": 46.98658,
      "longitude": 28.93993
    },
    {
      "id": 618496,
      "name": "Budeşti",
      "nativeName": "Budeşti",
      "code": "MD-CU-618496",
      "countryId": 617790,
      "countryCode": "MD",
      "stateCode": "MD-CU",
      "latitude": 47.06601,
      "longitude": 29.00461
    },
    {
      "id": 829807,
      "name": "Buneţi",
      "nativeName": "Buneţi",
      "code": "MD-CU-829807",
      "countryId": 617790,
      "countryCode": "MD",
      "stateCode": "MD-CU",
      "latitude": 47.08337,
      "longitude": 28.90945
    },
    {
      "id": 829664,
      "name": "Bîc",
      "nativeName": "Bîc",
      "code": "MD-CU-829664",
      "countryId": 617790,
      "countryCode": "MD",
      "stateCode": "MD-CU",
      "latitude": 46.965,
      "longitude": 28.93727
    },
    {
      "id": 618627,
      "name": "Băcioi",
      "nativeName": "Băcioi",
      "code": "MD-CU-618627",
      "countryId": 617790,
      "countryCode": "MD",
      "stateCode": "MD-CU",
      "latitude": 46.91404,
      "longitude": 28.89908
    },
    {
      "id": 617129,
      "name": "Bălţata de Sus",
      "nativeName": "Bălţata de Sus",
      "code": "MD-CU-617129",
      "countryId": 617790,
      "countryCode": "MD",
      "stateCode": "MD-CU",
      "latitude": 47.0658,
      "longitude": 29.03504
    },
    {
      "id": 618127,
      "name": "Cartuşe",
      "nativeName": "Cartuşe",
      "code": "MD-CU-618127",
      "countryId": 617790,
      "countryCode": "MD",
      "stateCode": "MD-CU",
      "latitude": 47.01583,
      "longitude": 28.74111
    },
    {
      "id": 829806,
      "name": "Ceroborta",
      "nativeName": "Ceroborta",
      "code": "MD-CU-829806",
      "countryId": 617790,
      "countryCode": "MD",
      "stateCode": "MD-CU",
      "latitude": 47.09441,
      "longitude": 28.95245
    },
    {
      "id": 829808,
      "name": "Cheltuitori",
      "nativeName": "Cheltuitori",
      "code": "MD-CU-829808",
      "countryId": 617790,
      "countryCode": "MD",
      "stateCode": "MD-CU",
      "latitude": 47.06507,
      "longitude": 28.92464
    },
    {
      "id": 618108,
      "name": "Chetrosu",
      "nativeName": "Chetrosu",
      "code": "MD-CU-618108",
      "countryId": 617790,
      "countryCode": "MD",
      "stateCode": "MD-CU",
      "latitude": 46.92152,
      "longitude": 29.03815
    },
    {
      "id": 824153,
      "name": "Ciorescu",
      "nativeName": "Ciorescu",
      "code": "MD-CU-824153",
      "countryId": 617790,
      "countryCode": "MD",
      "stateCode": "MD-CU",
      "latitude": 47.13,
      "longitude": 28.88937
    },
    {
      "id": 618054,
      "name": "Codru",
      "nativeName": "Codru",
      "code": "MD-CU-618054",
      "countryId": 617790,
      "countryCode": "MD",
      "stateCode": "MD-CU",
      "latitude": 46.97648,
      "longitude": 28.819
    },
    {
      "id": 618045,
      "name": "Coloniţa",
      "nativeName": "Coloniţa",
      "code": "MD-CU-618045",
      "countryId": 617790,
      "countryCode": "MD",
      "stateCode": "MD-CU",
      "latitude": 47.04238,
      "longitude": 28.95666
    },
    {
      "id": 865514,
      "name": "Costiujeni",
      "nativeName": "Costiujeni",
      "code": "MD-CU-865514",
      "countryId": 617790,
      "countryCode": "MD",
      "stateCode": "MD-CU",
      "latitude": 46.955,
      "longitude": 28.82944
    },
    {
      "id": 617965,
      "name": "Cricova",
      "nativeName": "Cricova",
      "code": "MD-CU-617965",
      "countryId": 617790,
      "countryCode": "MD",
      "stateCode": "MD-CU",
      "latitude": 47.13835,
      "longitude": 28.86156
    },
    {
      "id": 829805,
      "name": "Cruzeşti",
      "nativeName": "Cruzeşti",
      "code": "MD-CU-829805",
      "countryId": 617790,
      "countryCode": "MD",
      "stateCode": "MD-CU",
      "latitude": 47.07969,
      "longitude": 28.97297
    },
    {
      "id": 829656,
      "name": "Dobrogea",
      "nativeName": "Dobrogea",
      "code": "MD-CU-829656",
      "countryId": 617790,
      "countryCode": "MD",
      "stateCode": "MD-CU",
      "latitude": 46.88431,
      "longitude": 28.98776
    },
    {
      "id": 618356,
      "name": "Durleşti",
      "nativeName": "Durleşti",
      "code": "MD-CU-618356",
      "countryId": 617790,
      "countryCode": "MD",
      "stateCode": "MD-CU",
      "latitude": 47.02156,
      "longitude": 28.76303
    },
    {
      "id": 829654,
      "name": "Frumuşica",
      "nativeName": "Frumuşica",
      "code": "MD-CU-829654",
      "countryId": 617790,
      "countryCode": "MD",
      "stateCode": "MD-CU",
      "latitude": 46.89819,
      "longitude": 28.90239
    },
    {
      "id": 618342,
      "name": "Făureşti",
      "nativeName": "Făureşti",
      "code": "MD-CU-618342",
      "countryId": 617790,
      "countryCode": "MD",
      "stateCode": "MD-CU",
      "latitude": 47.14571,
      "longitude": 28.89632
    },
    {
      "id": 618281,
      "name": "Ghidighici",
      "nativeName": "Ghidighici",
      "code": "MD-CU-618281",
      "countryId": 617790,
      "countryCode": "MD",
      "stateCode": "MD-CU",
      "latitude": 47.09428,
      "longitude": 28.77299
    },
    {
      "id": 617966,
      "name": "Goian",
      "nativeName": "Goian",
      "code": "MD-CU-617966",
      "countryId": 617790,
      "countryCode": "MD",
      "stateCode": "MD-CU",
      "latitude": 47.13415,
      "longitude": 28.90945
    },
    {
      "id": 617686,
      "name": "Goianul Nou",
      "nativeName": "Goianul Nou",
      "code": "MD-CU-617686",
      "countryId": 617790,
      "countryCode": "MD",
      "stateCode": "MD-CU",
      "latitude": 47.11721,
      "longitude": 28.89984
    },
    {
      "id": 618240,
      "name": "Grătieşti",
      "nativeName": "Grătieşti",
      "code": "MD-CU-618240",
      "countryId": 617790,
      "countryCode": "MD",
      "stateCode": "MD-CU",
      "latitude": 47.09855,
      "longitude": 28.82478
    },
    {
      "id": 618101,
      "name": "Hatmana",
      "nativeName": "Hatmana",
      "code": "MD-CU-618101",
      "countryId": 617790,
      "countryCode": "MD",
      "stateCode": "MD-CU",
      "latitude": 46.97083,
      "longitude": 28.97028
    },
    {
      "id": 618219,
      "name": "Hulboaca",
      "nativeName": "Hulboaca",
      "code": "MD-CU-618219",
      "countryId": 617790,
      "countryCode": "MD",
      "stateCode": "MD-CU",
      "latitude": 47.11911,
      "longitude": 28.79755
    },
    {
      "id": 864974,
      "name": "Humuleşti",
      "nativeName": "Humuleşti",
      "code": "MD-CU-864974",
      "countryId": 617790,
      "countryCode": "MD",
      "stateCode": "MD-CU",
      "latitude": 46.99648,
      "longitude": 28.97645
    },
    {
      "id": 618630,
      "name": "Otovaska-Byk",
      "nativeName": "Otovaska-Byk",
      "code": "MD-CU-618630",
      "countryId": 617790,
      "countryCode": "MD",
      "stateCode": "MD-CU",
      "latitude": 47.01115,
      "longitude": 28.88772
    },
    {
      "id": 617507,
      "name": "Revaca",
      "nativeName": "Revaca",
      "code": "MD-CU-617507",
      "countryId": 617790,
      "countryCode": "MD",
      "stateCode": "MD-CU",
      "latitude": 46.90906,
      "longitude": 28.94214
    },
    {
      "id": 617221,
      "name": "Străisteni",
      "nativeName": "Străisteni",
      "code": "MD-CU-617221",
      "countryId": 617790,
      "countryCode": "MD",
      "stateCode": "MD-CU",
      "latitude": 46.90629,
      "longitude": 28.85782
    },
    {
      "id": 617317,
      "name": "Stăuceni",
      "nativeName": "Stăuceni",
      "code": "MD-CU-617317",
      "countryId": 617790,
      "countryCode": "MD",
      "stateCode": "MD-CU",
      "latitude": 47.09643,
      "longitude": 28.86791
    },
    {
      "id": 617276,
      "name": "Syruchan",
      "nativeName": "Syruchan",
      "code": "MD-CU-617276",
      "countryId": 617790,
      "countryCode": "MD",
      "stateCode": "MD-CU",
      "latitude": 47.1075,
      "longitude": 29.05444
    },
    {
      "id": 617279,
      "name": "Sîngera",
      "nativeName": "Sîngera",
      "code": "MD-CU-617279",
      "countryId": 617790,
      "countryCode": "MD",
      "stateCode": "MD-CU",
      "latitude": 46.91557,
      "longitude": 28.96673
    },
    {
      "id": 617234,
      "name": "Tohatin",
      "nativeName": "Tohatin",
      "code": "MD-CU-617234",
      "countryId": 617790,
      "countryCode": "MD",
      "stateCode": "MD-CU",
      "latitude": 47.06203,
      "longitude": 28.94473
    },
    {
      "id": 617211,
      "name": "Truşeni",
      "nativeName": "Truşeni",
      "code": "MD-CU-617211",
      "countryId": 617790,
      "countryCode": "MD",
      "stateCode": "MD-CU",
      "latitude": 47.07164,
      "longitude": 28.68081
    },
    {
      "id": 617164,
      "name": "Vadul lui Vodă",
      "nativeName": "Vadul lui Vodă",
      "code": "MD-CU-617164",
      "countryId": 617790,
      "countryCode": "MD",
      "stateCode": "MD-CU",
      "latitude": 47.09009,
      "longitude": 29.0757
    },
    {
      "id": 824134,
      "name": "Vatra",
      "nativeName": "Vatra",
      "code": "MD-CU-824134",
      "countryId": 617790,
      "countryCode": "MD",
      "stateCode": "MD-CU",
      "latitude": 47.0746,
      "longitude": 28.73685
    },
    {
      "id": 829896,
      "name": "Văduleni",
      "nativeName": "Văduleni",
      "code": "MD-CU-829896",
      "countryId": 617790,
      "countryCode": "MD",
      "stateCode": "MD-CU",
      "latitude": 47.0706,
      "longitude": 29.0782
    }
  ]
}