{
  "stateId": 617077,
  "stateCode": "MD-ED",
  "countryCode": "MD",
  "cities": [
    {
      "id": 617076,
      "name": "Edineţ",
      "nativeName": "Edineţ",
      "code": "MD-ED-617076",
      "countryId": 617790,
      "countryCode": "MD",
      "stateCode": "MD-ED",
      "latitude": 48.17215,
      "longitude": 27.30337
    },
    {
      "id": 618642,
      "name": "Alexeevca",
      "nativeName": "Alexeevca",
      "code": "MD-ED-618642",
      "countryId": 617790,
      "countryCode": "MD",
      "stateCode": "MD-ED",
      "latitude": 48.09378,
      "longitude": 27.26191
    },
    {
      "id": 618653,
      "name": "Alexăndreni",
      "nativeName": "Alexăndreni",
      "code": "MD-ED-618653",
      "countryId": 617790,
      "countryCode": "MD",
      "stateCode": "MD-ED",
      "latitude": 48.14845,
      "longitude": 27.26159
    },
    {
      "id": 618557,
      "name": "Bleşteni",
      "nativeName": "Bleşteni",
      "code": "MD-ED-618557",
      "countryId": 617790,
      "countryCode": "MD",
      "stateCode": "MD-ED",
      "latitude": 48.12035,
      "longitude": 27.21962
    },
    {
      "id": 618502,
      "name": "Brînzeni",
      "nativeName": "Brînzeni",
      "code": "MD-ED-618502",
      "countryId": 617790,
      "countryCode": "MD",
      "stateCode": "MD-ED",
      "latitude": 48.08362,
      "longitude": 27.17513
    },
    {
      "id": 618518,
      "name": "Brătuşeni",
      "nativeName": "Brătuşeni",
      "code": "MD-ED-618518",
      "countryId": 617790,
      "countryCode": "MD",
      "stateCode": "MD-ED",
      "latitude": 48.07129,
      "longitude": 27.40124
    },
    {
      "id": 829545,
      "name": "Brătuşenii Noi",
      "nativeName": "Brătuşenii Noi",
      "code": "MD-ED-829545",
      "countryId": 617790,
      "countryCode": "MD",
      "stateCode": "MD-ED",
      "latitude": 48.06167,
      "longitude": 27.4831
    },
    {
      "id": 618476,
      "name": "Burlăneşti",
      "nativeName": "Burlăneşti",
      "code": "MD-ED-618476",
      "countryId": 617790,
      "countryCode": "MD",
      "stateCode": "MD-ED",
      "latitude": 48.12671,
      "longitude": 27.12993
    },
    {
      "id": 618464,
      "name": "Buzdugeni",
      "nativeName": "Buzdugeni",
      "code": "MD-ED-618464",
      "countryId": 617790,
      "countryCode": "MD",
      "stateCode": "MD-ED",
      "latitude": 48.1072,
      "longitude": 27.15699
    },
    {
      "id": 829549,
      "name": "Bădragii Noi",
      "nativeName": "Bădragii Noi",
      "code": "MD-ED-829549",
      "countryId": 617790,
      "countryCode": "MD",
      "stateCode": "MD-ED",
      "latitude": 48.06204,
      "longitude": 27.07601
    },
    {
      "id": 617346,
      "name": "Bădragii Vechi",
      "nativeName": "Bădragii Vechi",
      "code": "MD-ED-617346",
      "countryId": 617790,
      "countryCode": "MD",
      "stateCode": "MD-ED",
      "latitude": 48.03712,
      "longitude": 27.10896
    },
    {
      "id": 829559,
      "name": "Carul Frumos",
      "nativeName": "Carul Frumos",
      "code": "MD-ED-829559",
      "countryId": 617790,
      "countryCode": "MD",
      "stateCode": "MD-ED",
      "latitude": 48.17639,
      "longitude": 27.52472
    },
    {
      "id": 617733,
      "name": "Chetroşica Nouă",
      "nativeName": "Chetroşica Nouă",
      "code": "MD-ED-617733",
      "countryId": 617790,
      "countryCode": "MD",
      "stateCode": "MD-ED",
      "latitude": 48.11725,
      "longitude": 27.4769
    },
    {
      "id": 829544,
      "name": "Chetroşica Veche",
      "nativeName": "Chetroşica Veche",
      "code": "MD-ED-829544",
      "countryId": 617790,
      "countryCode": "MD",
      "stateCode": "MD-ED",
      "latitude": 48.11939,
      "longitude": 27.40417
    },
    {
      "id": 617925,
      "name": "Chiurt",
      "nativeName": "Chiurt",
      "code": "MD-ED-617925",
      "countryId": 617790,
      "countryCode": "MD",
      "stateCode": "MD-ED",
      "latitude": 48.06131,
      "longitude": 27.34291
    },
    {
      "id": 829547,
      "name": "Ciubara",
      "nativeName": "Ciubara",
      "code": "MD-ED-829547",
      "countryId": 617790,
      "countryCode": "MD",
      "stateCode": "MD-ED",
      "latitude": 48.07637,
      "longitude": 27.53921
    },
    {
      "id": 829592,
      "name": "Clişcăuţi",
      "nativeName": "Clişcăuţi",
      "code": "MD-ED-829592",
      "countryId": 617790,
      "countryCode": "MD",
      "stateCode": "MD-ED",
      "latitude": 48.28312,
      "longitude": 27.32076
    },
    {
      "id": 829581,
      "name": "Corpaci",
      "nativeName": "Corpaci",
      "code": "MD-ED-829581",
      "countryId": 617790,
      "countryCode": "MD",
      "stateCode": "MD-ED",
      "latitude": 48.00819,
      "longitude": 27.13941
    },
    {
      "id": 617682,
      "name": "Cuconeştii Noi",
      "nativeName": "Cuconeştii Noi",
      "code": "MD-ED-617682",
      "countryId": 617790,
      "countryCode": "MD",
      "stateCode": "MD-ED",
      "latitude": 47.98718,
      "longitude": 27.20613
    },
    {
      "id": 617332,
      "name": "Cuconeştii Vechi",
      "nativeName": "Cuconeştii Vechi",
      "code": "MD-ED-617332",
      "countryId": 617790,
      "countryCode": "MD",
      "stateCode": "MD-ED",
      "latitude": 47.96683,
      "longitude": 27.14845
    },
    {
      "id": 617947,
      "name": "Cupcini",
      "nativeName": "Cupcini",
      "code": "MD-ED-617947",
      "countryId": 617790,
      "countryCode": "MD",
      "stateCode": "MD-ED",
      "latitude": 48.11023,
      "longitude": 27.3839
    },
    {
      "id": 618337,
      "name": "Feteşti",
      "nativeName": "Feteşti",
      "code": "MD-ED-618337",
      "countryId": 617790,
      "countryCode": "MD",
      "stateCode": "MD-ED",
      "latitude": 48.16372,
      "longitude": 27.09898
    },
    {
      "id": 618314,
      "name": "Fîntîna Albă",
      "nativeName": "Fîntîna Albă",
      "code": "MD-ED-618314",
      "countryId": 617790,
      "countryCode": "MD",
      "stateCode": "MD-ED",
      "latitude": 48.16028,
      "longitude": 27.43245
    },
    {
      "id": 618300,
      "name": "Gaşpar",
      "nativeName": "Gaşpar",
      "code": "MD-ED-618300",
      "countryId": 617790,
      "countryCode": "MD",
      "stateCode": "MD-ED",
      "latitude": 48.15678,
      "longitude": 27.49836
    },
    {
      "id": 618255,
      "name": "Goleni",
      "nativeName": "Goleni",
      "code": "MD-ED-618255",
      "countryId": 617790,
      "countryCode": "MD",
      "stateCode": "MD-ED",
      "latitude": 48.2095,
      "longitude": 27.43286
    },
    {
      "id": 618253,
      "name": "Gordineşti",
      "nativeName": "Gordineşti",
      "code": "MD-ED-618253",
      "countryId": 617790,
      "countryCode": "MD",
      "stateCode": "MD-ED",
      "latitude": 48.15926,
      "longitude": 27.16981
    },
    {
      "id": 829583,
      "name": "Gordineştii Noi",
      "nativeName": "Gordineştii Noi",
      "code": "MD-ED-829583",
      "countryId": 617790,
      "countryCode": "MD",
      "stateCode": "MD-ED",
      "latitude": 48.16961,
      "longitude": 27.22522
    },
    {
      "id": 618208,
      "name": "Hancăuţi",
      "nativeName": "Hancăuţi",
      "code": "MD-ED-618208",
      "countryId": 617790,
      "countryCode": "MD",
      "stateCode": "MD-ED",
      "latitude": 48.04864,
      "longitude": 27.19039
    },
    {
      "id": 618290,
      "name": "Heredeuca",
      "nativeName": "Heredeuca",
      "code": "MD-ED-618290",
      "countryId": 617790,
      "countryCode": "MD",
      "stateCode": "MD-ED",
      "latitude": 48.04567,
      "longitude": 27.13595
    },
    {
      "id": 618264,
      "name": "Hlinaia",
      "nativeName": "Hlinaia",
      "code": "MD-ED-618264",
      "countryId": 617790,
      "countryCode": "MD",
      "stateCode": "MD-ED",
      "latitude": 48.22193,
      "longitude": 27.25333
    },
    {
      "id": 829591,
      "name": "Hlinaia Mică",
      "nativeName": "Hlinaia Mică",
      "code": "MD-ED-829591",
      "countryId": 617790,
      "countryCode": "MD",
      "stateCode": "MD-ED",
      "latitude": 48.25335,
      "longitude": 27.26936
    },
    {
      "id": 618274,
      "name": "Hîncăuţi",
      "nativeName": "Hîncăuţi",
      "code": "MD-ED-618274",
      "countryId": 617790,
      "countryCode": "MD",
      "stateCode": "MD-ED",
      "latitude": 48.27463,
      "longitude": 27.30845
    },
    {
      "id": 617564,
      "name": "Oneşti",
      "nativeName": "Oneşti",
      "code": "MD-ED-617564",
      "countryId": 617790,
      "countryCode": "MD",
      "stateCode": "MD-ED",
      "latitude": 48.06678,
      "longitude": 27.276
    },
    {
      "id": 617626,
      "name": "Parcova",
      "nativeName": "Parcova",
      "code": "MD-ED-617626",
      "countryId": 617790,
      "countryCode": "MD",
      "stateCode": "MD-ED",
      "latitude": 48.15228,
      "longitude": 27.405
    },
    {
      "id": 829589,
      "name": "Poiana",
      "nativeName": "Poiana",
      "code": "MD-ED-829589",
      "countryId": 617790,
      "countryCode": "MD",
      "stateCode": "MD-ED",
      "latitude": 48.24981,
      "longitude": 27.35435
    },
    {
      "id": 617523,
      "name": "Rotunda",
      "nativeName": "Rotunda",
      "code": "MD-ED-617523",
      "countryId": 617790,
      "countryCode": "MD",
      "stateCode": "MD-ED",
      "latitude": 48.24202,
      "longitude": 27.30733
    },
    {
      "id": 617488,
      "name": "Ruseni",
      "nativeName": "Ruseni",
      "code": "MD-ED-617488",
      "countryId": 617790,
      "countryCode": "MD",
      "stateCode": "MD-ED",
      "latitude": 48.20181,
      "longitude": 27.41583
    },
    {
      "id": 829585,
      "name": "Slobodca",
      "nativeName": "Slobodca",
      "code": "MD-ED-829585",
      "countryId": 617790,
      "countryCode": "MD",
      "stateCode": "MD-ED",
      "latitude": 48.20724,
      "longitude": 27.3705
    },
    {
      "id": 617306,
      "name": "Stolniceni",
      "nativeName": "Stolniceni",
      "code": "MD-ED-617306",
      "countryId": 617790,
      "countryCode": "MD",
      "stateCode": "MD-ED",
      "latitude": 48.04004,
      "longitude": 27.34668
    },
    {
      "id": 617248,
      "name": "Terebna",
      "nativeName": "Terebna",
      "code": "MD-ED-617248",
      "countryId": 617790,
      "countryCode": "MD",
      "stateCode": "MD-ED",
      "latitude": 48.04968,
      "longitude": 27.25019
    },
    {
      "id": 617185,
      "name": "Tîrnova",
      "nativeName": "Tîrnova",
      "code": "MD-ED-617185",
      "countryId": 617790,
      "countryCode": "MD",
      "stateCode": "MD-ED",
      "latitude": 48.20424,
      "longitude": 27.1762
    },
    {
      "id": 617123,
      "name": "Viişoara",
      "nativeName": "Viişoara",
      "code": "MD-ED-617123",
      "countryId": 617790,
      "countryCode": "MD",
      "stateCode": "MD-ED",
      "latitude": 48.09527,
      "longitude": 27.04498
    },
    {
      "id": 829584,
      "name": "Volodeni",
      "nativeName": "Volodeni",
      "code": "MD-ED-829584",
      "countryId": 617790,
      "countryCode": "MD",
      "stateCode": "MD-ED",
      "latitude": 48.11627,
      "longitude": 27.20491
    },
    {
      "id": 617061,
      "name": "Zăbriceni",
      "nativeName": "Zăbriceni",
      "code": "MD-ED-617061",
      "countryId": 617790,
      "countryCode": "MD",
      "stateCode": "MD-ED",
      "latitude": 48.07364,
      "longitude": 27.25265
    },
    {
      "id": 617416,
      "name": "Şofrîncani",
      "nativeName": "Şofrîncani",
      "code": "MD-ED-617416",
      "countryId": 617790,
      "countryCode": "MD",
      "stateCode": "MD-ED",
      "latitude": 48.04842,
      "longitude": 27.41324
    }
  ]
}