{
  "stateId": 617991,
  "stateCode": "MD-IA",
  "countryCode": "MD",
  "cities": [
    {
      "id": 618196,
      "name": "Ialoveni",
      "nativeName": "Ialoveni",
      "code": "MD-IA-618196",
      "countryId": 617790,
      "countryCode": "MD",
      "stateCode": "MD-IA",
      "latitude": 46.94346,
      "longitude": 28.78233
    },
    {
      "id": 618649,
      "name": "Alexandrovca",
      "nativeName": "Alexandrovca",
      "code": "MD-IA-618649",
      "countryId": 617790,
      "countryCode": "MD",
      "stateCode": "MD-IA",
      "latitude": 46.72587,
      "longitude": 29.0206
    },
    {
      "id": 618597,
      "name": "Bardar",
      "nativeName": "Bardar",
      "code": "MD-IA-618597",
      "countryId": 617790,
      "countryCode": "MD",
      "stateCode": "MD-IA",
      "latitude": 46.90273,
      "longitude": 28.66982
    },
    {
      "id": 618523,
      "name": "Brăila",
      "nativeName": "Brăila",
      "code": "MD-IA-618523",
      "countryId": 617790,
      "countryCode": "MD",
      "stateCode": "MD-IA",
      "latitude": 46.91233,
      "longitude": 28.84293
    },
    {
      "id": 618494,
      "name": "Budăi",
      "nativeName": "Budăi",
      "code": "MD-IA-618494",
      "countryId": 617790,
      "countryCode": "MD",
      "stateCode": "MD-IA",
      "latitude": 46.81272,
      "longitude": 28.97434
    },
    {
      "id": 618603,
      "name": "Bălţaţi",
      "nativeName": "Bălţaţi",
      "code": "MD-IA-618603",
      "countryId": 617790,
      "countryCode": "MD",
      "stateCode": "MD-IA",
      "latitude": 46.84195,
      "longitude": 28.95321
    },
    {
      "id": 618433,
      "name": "Cigîrleni",
      "nativeName": "Cigîrleni",
      "code": "MD-IA-618433",
      "countryId": 617790,
      "countryCode": "MD",
      "stateCode": "MD-IA",
      "latitude": 46.75615,
      "longitude": 28.82803
    },
    {
      "id": 618001,
      "name": "Costeşti",
      "nativeName": "Costeşti",
      "code": "MD-IA-618001",
      "countryId": 617790,
      "countryCode": "MD",
      "stateCode": "MD-IA",
      "latitude": 46.86549,
      "longitude": 28.76235
    },
    {
      "id": 618132,
      "name": "Cărbuna",
      "nativeName": "Cărbuna",
      "code": "MD-IA-618132",
      "countryId": 617790,
      "countryCode": "MD",
      "stateCode": "MD-IA",
      "latitude": 46.71173,
      "longitude": 28.95396
    },
    {
      "id": 618401,
      "name": "Dănceni",
      "nativeName": "Dănceni",
      "code": "MD-IA-618401",
      "countryId": 617790,
      "countryCode": "MD",
      "stateCode": "MD-IA",
      "latitude": 46.96372,
      "longitude": 28.70567
    },
    {
      "id": 618305,
      "name": "Gangura",
      "nativeName": "Gangura",
      "code": "MD-IA-618305",
      "countryId": 617790,
      "countryCode": "MD",
      "stateCode": "MD-IA",
      "latitude": 46.73315,
      "longitude": 29.00756
    },
    {
      "id": 618299,
      "name": "Găureni",
      "nativeName": "Găureni",
      "code": "MD-IA-618299",
      "countryId": 617790,
      "countryCode": "MD",
      "stateCode": "MD-IA",
      "latitude": 46.82968,
      "longitude": 28.84106
    },
    {
      "id": 618304,
      "name": "Hansca",
      "nativeName": "Hansca",
      "code": "MD-IA-618304",
      "countryId": 617790,
      "countryCode": "MD",
      "stateCode": "MD-IA",
      "latitude": 46.83318,
      "longitude": 28.75136
    },
    {
      "id": 618251,
      "name": "Horeşti",
      "nativeName": "Horeşti",
      "code": "MD-IA-618251",
      "countryId": 617790,
      "countryCode": "MD",
      "stateCode": "MD-IA",
      "latitude": 46.8254,
      "longitude": 28.87427
    },
    {
      "id": 618183,
      "name": "Ioneasca",
      "nativeName": "Ioneasca",
      "code": "MD-IA-618183",
      "countryId": 617790,
      "countryCode": "MD",
      "stateCode": "MD-IA",
      "latitude": 46.75,
      "longitude": 28.75
    },
    {
      "id": 829815,
      "name": "Karpino",
      "nativeName": "Karpino",
      "code": "MD-IA-829815",
      "countryId": 617790,
      "countryCode": "MD",
      "stateCode": "MD-IA",
      "latitude": 46.99083,
      "longitude": 28.59889
    },
    {
      "id": 617856,
      "name": "Malcoci",
      "nativeName": "Malcoci",
      "code": "MD-IA-617856",
      "countryId": 617790,
      "countryCode": "MD",
      "stateCode": "MD-IA",
      "latitude": 47.02583,
      "longitude": 28.63151
    },
    {
      "id": 617848,
      "name": "Manoileşti",
      "nativeName": "Manoileşti",
      "code": "MD-IA-617848",
      "countryId": 617790,
      "countryCode": "MD",
      "stateCode": "MD-IA",
      "latitude": 46.95917,
      "longitude": 28.60222
    },
    {
      "id": 617851,
      "name": "Mileştii Mici",
      "nativeName": "Mileştii Mici",
      "code": "MD-IA-617851",
      "countryId": 617790,
      "countryCode": "MD",
      "stateCode": "MD-IA",
      "latitude": 46.90644,
      "longitude": 28.80233
    },
    {
      "id": 829640,
      "name": "Mileştii Noi",
      "nativeName": "Mileştii Noi",
      "code": "MD-IA-829640",
      "countryId": 617790,
      "countryCode": "MD",
      "stateCode": "MD-IA",
      "latitude": 46.74583,
      "longitude": 28.96308
    },
    {
      "id": 617798,
      "name": "Misovca",
      "nativeName": "Misovca",
      "code": "MD-IA-617798",
      "countryId": 617790,
      "countryCode": "MD",
      "stateCode": "MD-IA",
      "latitude": 46.76573,
      "longitude": 29.00516
    },
    {
      "id": 617864,
      "name": "Moleşti",
      "nativeName": "Moleşti",
      "code": "MD-IA-617864",
      "countryId": 617790,
      "countryCode": "MD",
      "stateCode": "MD-IA",
      "latitude": 46.78756,
      "longitude": 28.7769
    },
    {
      "id": 617756,
      "name": "Nimoreni",
      "nativeName": "Nimoreni",
      "code": "MD-IA-617756",
      "countryId": 617790,
      "countryCode": "MD",
      "stateCode": "MD-IA",
      "latitude": 47.00731,
      "longitude": 28.66768
    },
    {
      "id": 829658,
      "name": "Piatra Albă",
      "nativeName": "Piatra Albă",
      "code": "MD-IA-829658",
      "countryId": 617790,
      "countryCode": "MD",
      "stateCode": "MD-IA",
      "latitude": 46.93316,
      "longitude": 28.81857
    },
    {
      "id": 617557,
      "name": "Pojăreni",
      "nativeName": "Pojăreni",
      "code": "MD-IA-617557",
      "countryId": 617790,
      "countryCode": "MD",
      "stateCode": "MD-IA",
      "latitude": 46.88707,
      "longitude": 28.69128
    },
    {
      "id": 617543,
      "name": "Puhoi",
      "nativeName": "Puhoi",
      "code": "MD-IA-617543",
      "countryId": 617790,
      "countryCode": "MD",
      "stateCode": "MD-IA",
      "latitude": 46.8233,
      "longitude": 29.03704
    },
    {
      "id": 617675,
      "name": "Ruseştii Noi",
      "nativeName": "Ruseştii Noi",
      "code": "MD-IA-617675",
      "countryId": 617790,
      "countryCode": "MD",
      "stateCode": "MD-IA",
      "latitude": 46.92755,
      "longitude": 28.65115
    },
    {
      "id": 617505,
      "name": "Răzeni",
      "nativeName": "Răzeni",
      "code": "MD-IA-617505",
      "countryId": 617790,
      "countryCode": "MD",
      "stateCode": "MD-IA",
      "latitude": 46.76884,
      "longitude": 28.89976
    },
    {
      "id": 617380,
      "name": "Sociteni",
      "nativeName": "Sociteni",
      "code": "MD-IA-617380",
      "countryId": 617790,
      "countryCode": "MD",
      "stateCode": "MD-IA",
      "latitude": 46.94188,
      "longitude": 28.72162
    },
    {
      "id": 617288,
      "name": "Suruceni",
      "nativeName": "Suruceni",
      "code": "MD-IA-617288",
      "countryId": 617790,
      "countryCode": "MD",
      "stateCode": "MD-IA",
      "latitude": 46.97911,
      "longitude": 28.66331
    },
    {
      "id": 617182,
      "name": "Ulmu",
      "nativeName": "Ulmu",
      "code": "MD-IA-617182",
      "countryId": 617790,
      "countryCode": "MD",
      "stateCode": "MD-IA",
      "latitude": 47.01842,
      "longitude": 28.54643
    },
    {
      "id": 824143,
      "name": "Văratic",
      "nativeName": "Văratic",
      "code": "MD-IA-824143",
      "countryId": 617790,
      "countryCode": "MD",
      "stateCode": "MD-IA",
      "latitude": 46.81059,
      "longitude": 29.06411
    },
    {
      "id": 617141,
      "name": "Văsieni",
      "nativeName": "Văsieni",
      "code": "MD-IA-617141",
      "countryId": 617790,
      "countryCode": "MD",
      "stateCode": "MD-IA",
      "latitude": 46.96666,
      "longitude": 28.59216
    },
    {
      "id": 617034,
      "name": "Zîmbreni",
      "nativeName": "Zîmbreni",
      "code": "MD-IA-617034",
      "countryId": 617790,
      "countryCode": "MD",
      "stateCode": "MD-IA",
      "latitude": 46.83887,
      "longitude": 28.84595
    },
    {
      "id": 617194,
      "name": "Ţipala",
      "nativeName": "Ţipala",
      "code": "MD-IA-617194",
      "countryId": 617790,
      "countryCode": "MD",
      "stateCode": "MD-IA",
      "latitude": 46.83028,
      "longitude": 28.97422
    }
  ]
}