{
  "stateId": 617903,
  "stateCode": "MD-LE",
  "countryCode": "MD",
  "cities": [
    {
      "id": 617904,
      "name": "Leova",
      "nativeName": "Leova",
      "code": "MD-LE-617904",
      "countryId": 617790,
      "countryCode": "MD",
      "stateCode": "MD-LE",
      "latitude": 46.4823,
      "longitude": 28.25301
    },
    {
      "id": 618570,
      "name": "Beştemac",
      "nativeName": "Beştemac",
      "code": "MD-LE-618570",
      "countryId": 617790,
      "countryCode": "MD",
      "stateCode": "MD-LE",
      "latitude": 46.52604,
      "longitude": 28.52892
    },
    {
      "id": 864955,
      "name": "Bulgari",
      "nativeName": "Bulgari",
      "code": "MD-LE-864955",
      "countryId": 617790,
      "countryCode": "MD",
      "stateCode": "MD-LE",
      "latitude": 46.49111,
      "longitude": 28.40583
    },
    {
      "id": 618585,
      "name": "Băiuş",
      "nativeName": "Băiuş",
      "code": "MD-LE-618585",
      "countryId": 617790,
      "countryCode": "MD",
      "stateCode": "MD-LE",
      "latitude": 46.44744,
      "longitude": 28.47371
    },
    {
      "id": 618111,
      "name": "Cazangic",
      "nativeName": "Cazangic",
      "code": "MD-LE-618111",
      "countryId": 617790,
      "countryCode": "MD",
      "stateCode": "MD-LE",
      "latitude": 46.50843,
      "longitude": 28.43498
    },
    {
      "id": 618451,
      "name": "Ceadîr",
      "nativeName": "Ceadîr",
      "code": "MD-LE-618451",
      "countryId": 617790,
      "countryCode": "MD",
      "stateCode": "MD-LE",
      "latitude": 46.67168,
      "longitude": 28.40656
    },
    {
      "id": 618061,
      "name": "Cneazevca",
      "nativeName": "Cneazevca",
      "code": "MD-LE-618061",
      "countryId": 617790,
      "countryCode": "MD",
      "stateCode": "MD-LE",
      "latitude": 46.6324,
      "longitude": 28.50363
    },
    {
      "id": 864954,
      "name": "Cociulia Nouă",
      "nativeName": "Cociulia Nouă",
      "code": "MD-LE-864954",
      "countryId": 617790,
      "countryCode": "MD",
      "stateCode": "MD-LE",
      "latitude": 46.44194,
      "longitude": 28.47333
    },
    {
      "id": 618048,
      "name": "Colibabovca",
      "nativeName": "Colibabovca",
      "code": "MD-LE-618048",
      "countryId": 617790,
      "countryCode": "MD",
      "stateCode": "MD-LE",
      "latitude": 46.65206,
      "longitude": 28.4258
    },
    {
      "id": 617985,
      "name": "Covurlui",
      "nativeName": "Covurlui",
      "code": "MD-LE-617985",
      "countryId": 617790,
      "countryCode": "MD",
      "stateCode": "MD-LE",
      "latitude": 46.59056,
      "longitude": 28.40144
    },
    {
      "id": 617946,
      "name": "Cupcui",
      "nativeName": "Cupcui",
      "code": "MD-LE-617946",
      "countryId": 617790,
      "countryCode": "MD",
      "stateCode": "MD-LE",
      "latitude": 46.51705,
      "longitude": 28.35814
    },
    {
      "id": 617932,
      "name": "Cîmpul Drept",
      "nativeName": "Cîmpul Drept",
      "code": "MD-LE-617932",
      "countryId": 617790,
      "countryCode": "MD",
      "stateCode": "MD-LE",
      "latitude": 46.56543,
      "longitude": 28.51362
    },
    {
      "id": 618066,
      "name": "Cîzlar",
      "nativeName": "Cîzlar",
      "code": "MD-LE-618066",
      "countryId": 617790,
      "countryCode": "MD",
      "stateCode": "MD-LE",
      "latitude": 46.65083,
      "longitude": 28.525
    },
    {
      "id": 618335,
      "name": "Filipeni",
      "nativeName": "Filipeni",
      "code": "MD-LE-618335",
      "countryId": 617790,
      "countryCode": "MD",
      "stateCode": "MD-LE",
      "latitude": 46.44149,
      "longitude": 28.32587
    },
    {
      "id": 618323,
      "name": "Frumuşica",
      "nativeName": "Frumuşica",
      "code": "MD-LE-618323",
      "countryId": 617790,
      "countryCode": "MD",
      "stateCode": "MD-LE",
      "latitude": 46.55614,
      "longitude": 28.42796
    },
    {
      "id": 618318,
      "name": "Fund Saratsika",
      "nativeName": "Fund Saratsika",
      "code": "MD-LE-618318",
      "countryId": 617790,
      "countryCode": "MD",
      "stateCode": "MD-LE",
      "latitude": 46.63833,
      "longitude": 28.55556
    },
    {
      "id": 10194158,
      "name": "Gyrtop",
      "nativeName": "Gyrtop",
      "code": "MD-LE-10194158",
      "countryId": 617790,
      "countryCode": "MD",
      "stateCode": "MD-LE",
      "latitude": 46.4926,
      "longitude": 28.50566
    },
    {
      "id": 617689,
      "name": "Hanăsenii Noi",
      "nativeName": "Hanăsenii Noi",
      "code": "MD-LE-617689",
      "countryId": 617790,
      "countryCode": "MD",
      "stateCode": "MD-LE",
      "latitude": 46.41829,
      "longitude": 28.25513
    },
    {
      "id": 617912,
      "name": "Lebedevka",
      "nativeName": "Lebedevka",
      "code": "MD-LE-617912",
      "countryId": 617790,
      "countryCode": "MD",
      "stateCode": "MD-LE",
      "latitude": 46.48806,
      "longitude": 28.4525
    },
    {
      "id": 617833,
      "name": "Mătăsaru",
      "nativeName": "Mătăsaru",
      "code": "MD-LE-617833",
      "countryId": 617790,
      "countryCode": "MD",
      "stateCode": "MD-LE",
      "latitude": 46.55944,
      "longitude": 28.24722
    },
    {
      "id": 864953,
      "name": "Nicolaevca",
      "nativeName": "Nicolaevca",
      "code": "MD-LE-864953",
      "countryId": 617790,
      "countryCode": "MD",
      "stateCode": "MD-LE",
      "latitude": 46.39083,
      "longitude": 28.25266
    },
    {
      "id": 617641,
      "name": "Orac",
      "nativeName": "Orac",
      "code": "MD-LE-617641",
      "countryId": 617790,
      "countryCode": "MD",
      "stateCode": "MD-LE",
      "latitude": 46.66691,
      "longitude": 28.46012
    },
    {
      "id": 864962,
      "name": "Piteşti",
      "nativeName": "Piteşti",
      "code": "MD-LE-864962",
      "countryId": 617790,
      "countryCode": "MD",
      "stateCode": "MD-LE",
      "latitude": 46.50246,
      "longitude": 28.5452
    },
    {
      "id": 617498,
      "name": "Romanovca",
      "nativeName": "Romanovca",
      "code": "MD-LE-617498",
      "countryId": 617790,
      "countryCode": "MD",
      "stateCode": "MD-LE",
      "latitude": 46.45942,
      "longitude": 28.35245
    },
    {
      "id": 617447,
      "name": "Selişte",
      "nativeName": "Selişte",
      "code": "MD-LE-617447",
      "countryId": 617790,
      "countryCode": "MD",
      "stateCode": "MD-LE",
      "latitude": 46.52751,
      "longitude": 28.42976
    },
    {
      "id": 618062,
      "name": "Staraya Knyazevka",
      "nativeName": "Staraya Knyazevka",
      "code": "MD-LE-618062",
      "countryId": 617790,
      "countryCode": "MD",
      "stateCode": "MD-LE",
      "latitude": 46.63417,
      "longitude": 28.50306
    },
    {
      "id": 617277,
      "name": "Sîrma",
      "nativeName": "Sîrma",
      "code": "MD-LE-617277",
      "countryId": 617790,
      "countryCode": "MD",
      "stateCode": "MD-LE",
      "latitude": 46.52668,
      "longitude": 28.24909
    },
    {
      "id": 617459,
      "name": "Sărata Nouă",
      "nativeName": "Sărata Nouă",
      "code": "MD-LE-617459",
      "countryId": 617790,
      "countryCode": "MD",
      "stateCode": "MD-LE",
      "latitude": 46.49307,
      "longitude": 28.38843
    },
    {
      "id": 617458,
      "name": "Sărata-Răzeşi",
      "nativeName": "Sărata-Răzeşi",
      "code": "MD-LE-617458",
      "countryId": 617790,
      "countryCode": "MD",
      "stateCode": "MD-LE",
      "latitude": 46.61553,
      "longitude": 28.26508
    },
    {
      "id": 617457,
      "name": "Sărăteni",
      "nativeName": "Sărăteni",
      "code": "MD-LE-617457",
      "countryId": 617790,
      "countryCode": "MD",
      "stateCode": "MD-LE",
      "latitude": 46.60959,
      "longitude": 28.46625
    },
    {
      "id": 617723,
      "name": "Sărăţica Nouă",
      "nativeName": "Sărăţica Nouă",
      "code": "MD-LE-617723",
      "countryId": 617790,
      "countryCode": "MD",
      "stateCode": "MD-LE",
      "latitude": 46.57275,
      "longitude": 28.54602
    },
    {
      "id": 617454,
      "name": "Sărăţica Veche",
      "nativeName": "Sărăţica Veche",
      "code": "MD-LE-617454",
      "countryId": 617790,
      "countryCode": "MD",
      "stateCode": "MD-LE",
      "latitude": 46.60237,
      "longitude": 28.53011
    },
    {
      "id": 617241,
      "name": "Tigichanka",
      "nativeName": "Tigichanka",
      "code": "MD-LE-617241",
      "countryId": 617790,
      "countryCode": "MD",
      "stateCode": "MD-LE",
      "latitude": 46.46583,
      "longitude": 28.26
    },
    {
      "id": 617233,
      "name": "Tochile-Răducani",
      "nativeName": "Tochile-Răducani",
      "code": "MD-LE-617233",
      "countryId": 617790,
      "countryCode": "MD",
      "stateCode": "MD-LE",
      "latitude": 46.57698,
      "longitude": 28.2443
    },
    {
      "id": 617229,
      "name": "Tomai",
      "nativeName": "Tomai",
      "code": "MD-LE-617229",
      "countryId": 617790,
      "countryCode": "MD",
      "stateCode": "MD-LE",
      "latitude": 46.57352,
      "longitude": 28.32178
    },
    {
      "id": 617707,
      "name": "Tomaiul Nou",
      "nativeName": "Tomaiul Nou",
      "code": "MD-LE-617707",
      "countryId": 617790,
      "countryCode": "MD",
      "stateCode": "MD-LE",
      "latitude": 46.62899,
      "longitude": 28.55255
    },
    {
      "id": 618482,
      "name": "Troian",
      "nativeName": "Troian",
      "code": "MD-LE-618482",
      "countryId": 617790,
      "countryCode": "MD",
      "stateCode": "MD-LE",
      "latitude": 46.54094,
      "longitude": 28.46362
    },
    {
      "id": 617706,
      "name": "Troiţa",
      "nativeName": "Troiţa",
      "code": "MD-LE-617706",
      "countryId": 617790,
      "countryCode": "MD",
      "stateCode": "MD-LE",
      "latitude": 46.56295,
      "longitude": 28.46512
    },
    {
      "id": 617214,
      "name": "Troiţca",
      "nativeName": "Troiţca",
      "code": "MD-LE-617214",
      "countryId": 617790,
      "countryCode": "MD",
      "stateCode": "MD-LE",
      "latitude": 46.61139,
      "longitude": 28.54778
    },
    {
      "id": 864960,
      "name": "Troyan Vtoroy",
      "nativeName": "Troyan Vtoroy",
      "code": "MD-LE-864960",
      "countryId": 617790,
      "countryCode": "MD",
      "stateCode": "MD-LE",
      "latitude": 46.53889,
      "longitude": 28.47806
    },
    {
      "id": 864963,
      "name": "Usăteni",
      "nativeName": "Usăteni",
      "code": "MD-LE-864963",
      "countryId": 617790,
      "countryCode": "MD",
      "stateCode": "MD-LE",
      "latitude": 46.63167,
      "longitude": 28.55333
    },
    {
      "id": 829647,
      "name": "Valea Florii",
      "nativeName": "Valea Florii",
      "code": "MD-LE-829647",
      "countryId": 617790,
      "countryCode": "MD",
      "stateCode": "MD-LE",
      "latitude": 46.71351,
      "longitude": 28.43755
    },
    {
      "id": 617122,
      "name": "Victoria",
      "nativeName": "Victoria",
      "code": "MD-LE-617122",
      "countryId": 617790,
      "countryCode": "MD",
      "stateCode": "MD-LE",
      "latitude": 46.61613,
      "longitude": 28.41484
    },
    {
      "id": 617097,
      "name": "Vozneseni",
      "nativeName": "Vozneseni",
      "code": "MD-LE-617097",
      "countryId": 617790,
      "countryCode": "MD",
      "stateCode": "MD-LE",
      "latitude": 46.58295,
      "longitude": 28.46864
    }
  ]
}