{
  "stateId": 617366,
  "stateCode": "MD-SO",
  "countryCode": "MD",
  "cities": [
    {
      "id": 617367,
      "name": "Soroca",
      "nativeName": "Soroca",
      "code": "MD-SO-617367",
      "countryId": 617790,
      "countryCode": "MD",
      "stateCode": "MD-SO",
      "latitude": 48.15659,
      "longitude": 28.28489
    },
    {
      "id": 829715,
      "name": "Alexandru cel Bun",
      "nativeName": "Alexandru cel Bun",
      "code": "MD-SO-829715",
      "countryId": 617790,
      "countryCode": "MD",
      "stateCode": "MD-SO",
      "latitude": 48.09667,
      "longitude": 28.34013
    },
    {
      "id": 829708,
      "name": "Balinţi",
      "nativeName": "Balinţi",
      "code": "MD-SO-829708",
      "countryId": 617790,
      "countryCode": "MD",
      "stateCode": "MD-SO",
      "latitude": 48.32292,
      "longitude": 28.0215
    },
    {
      "id": 618545,
      "name": "Bulboci",
      "nativeName": "Bulboci",
      "code": "MD-SO-618545",
      "countryId": 617790,
      "countryCode": "MD",
      "stateCode": "MD-SO",
      "latitude": 48.04166,
      "longitude": 28.08247
    },
    {
      "id": 829699,
      "name": "Bulbocii Noi",
      "nativeName": "Bulbocii Noi",
      "code": "MD-SO-829699",
      "countryId": 617790,
      "countryCode": "MD",
      "stateCode": "MD-SO",
      "latitude": 48.05933,
      "longitude": 28.11636
    },
    {
      "id": 618626,
      "name": "Bădiceni",
      "nativeName": "Bădiceni",
      "code": "MD-SO-618626",
      "countryId": 617790,
      "countryCode": "MD",
      "stateCode": "MD-SO",
      "latitude": 48.20337,
      "longitude": 28.05257
    },
    {
      "id": 618617,
      "name": "Băxani",
      "nativeName": "Băxani",
      "code": "MD-SO-618617",
      "countryId": 617790,
      "countryCode": "MD",
      "stateCode": "MD-SO",
      "latitude": 48.12605,
      "longitude": 28.09244
    },
    {
      "id": 618003,
      "name": "Cosăuţi",
      "nativeName": "Cosăuţi",
      "code": "MD-SO-618003",
      "countryId": 617790,
      "countryCode": "MD",
      "stateCode": "MD-SO",
      "latitude": 48.2266,
      "longitude": 28.28037
    },
    {
      "id": 617968,
      "name": "Cremenciug",
      "nativeName": "Cremenciug",
      "code": "MD-SO-617968",
      "countryId": 617790,
      "countryCode": "MD",
      "stateCode": "MD-SO",
      "latitude": 48.27567,
      "longitude": 28.08459
    },
    {
      "id": 617942,
      "name": "Cureşniţa",
      "nativeName": "Cureşniţa",
      "code": "MD-SO-617942",
      "countryId": 617790,
      "countryCode": "MD",
      "stateCode": "MD-SO",
      "latitude": 48.2285,
      "longitude": 28.17503
    },
    {
      "id": 829702,
      "name": "Cureşniţa Nouă",
      "nativeName": "Cureşniţa Nouă",
      "code": "MD-SO-829702",
      "countryId": 617790,
      "countryCode": "MD",
      "stateCode": "MD-SO",
      "latitude": 48.18031,
      "longitude": 28.12141
    },
    {
      "id": 618116,
      "name": "Căinarii Vechi",
      "nativeName": "Căinarii Vechi",
      "code": "MD-SO-618116",
      "countryId": 617790,
      "countryCode": "MD",
      "stateCode": "MD-SO",
      "latitude": 48.00569,
      "longitude": 28.12103
    },
    {
      "id": 618364,
      "name": "Dubna",
      "nativeName": "Dubna",
      "code": "MD-SO-618364",
      "countryId": 617790,
      "countryCode": "MD",
      "stateCode": "MD-SO",
      "latitude": 48.01398,
      "longitude": 28.31275
    },
    {
      "id": 618359,
      "name": "Dumbrăveni",
      "nativeName": "Dumbrăveni",
      "code": "MD-SO-618359",
      "countryId": 617790,
      "countryCode": "MD",
      "stateCode": "MD-SO",
      "latitude": 48.05209,
      "longitude": 28.2252
    },
    {
      "id": 618392,
      "name": "Dărcăuţi",
      "nativeName": "Dărcăuţi",
      "code": "MD-SO-618392",
      "countryId": 617790,
      "countryCode": "MD",
      "stateCode": "MD-SO",
      "latitude": 48.22626,
      "longitude": 27.98341
    },
    {
      "id": 829704,
      "name": "Dărcăuţii Noi",
      "nativeName": "Dărcăuţii Noi",
      "code": "MD-SO-829704",
      "countryId": 617790,
      "countryCode": "MD",
      "stateCode": "MD-SO",
      "latitude": 48.21018,
      "longitude": 27.99863
    },
    {
      "id": 617075,
      "name": "Egoreni",
      "nativeName": "Egoreni",
      "code": "MD-SO-617075",
      "countryId": 617790,
      "countryCode": "MD",
      "stateCode": "MD-SO",
      "latitude": 48.20162,
      "longitude": 28.35953
    },
    {
      "id": 829705,
      "name": "Grigorăuca",
      "nativeName": "Grigorăuca",
      "code": "MD-SO-829705",
      "countryId": 617790,
      "countryCode": "MD",
      "stateCode": "MD-SO",
      "latitude": 48.20897,
      "longitude": 28.09648
    },
    {
      "id": 618257,
      "name": "Holoşniţa",
      "nativeName": "Holoşniţa",
      "code": "MD-SO-618257",
      "countryId": 617790,
      "countryCode": "MD",
      "stateCode": "MD-SO",
      "latitude": 48.24767,
      "longitude": 28.17638
    },
    {
      "id": 618092,
      "name": "Hristici",
      "nativeName": "Hristici",
      "code": "MD-SO-618092",
      "countryId": 617790,
      "countryCode": "MD",
      "stateCode": "MD-SO",
      "latitude": 48.11859,
      "longitude": 28.1781
    },
    {
      "id": 617079,
      "name": "Iarova",
      "nativeName": "Iarova",
      "code": "MD-SO-617079",
      "countryId": 617790,
      "countryCode": "MD",
      "stateCode": "MD-SO",
      "latitude": 48.31731,
      "longitude": 28.04502
    },
    {
      "id": 829710,
      "name": "Inundeni",
      "nativeName": "Inundeni",
      "code": "MD-SO-829710",
      "countryId": 617790,
      "countryCode": "MD",
      "stateCode": "MD-SO",
      "latitude": 48.12839,
      "longitude": 28.35493
    },
    {
      "id": 829709,
      "name": "Iorjniţa",
      "nativeName": "Iorjniţa",
      "code": "MD-SO-829709",
      "countryId": 617790,
      "countryCode": "MD",
      "stateCode": "MD-SO",
      "latitude": 48.19281,
      "longitude": 28.21387
    },
    {
      "id": 617892,
      "name": "Livezi",
      "nativeName": "Livezi",
      "code": "MD-SO-617892",
      "countryId": 617790,
      "countryCode": "MD",
      "stateCode": "MD-SO",
      "latitude": 48.23552,
      "longitude": 28.04897
    },
    {
      "id": 829713,
      "name": "Lugovoe",
      "nativeName": "Lugovoe",
      "code": "MD-SO-829713",
      "countryId": 617790,
      "countryCode": "MD",
      "stateCode": "MD-SO",
      "latitude": 48.06942,
      "longitude": 28.1806
    },
    {
      "id": 617661,
      "name": "Oclanda",
      "nativeName": "Oclanda",
      "code": "MD-SO-617661",
      "countryId": 617790,
      "countryCode": "MD",
      "stateCode": "MD-SO",
      "latitude": 48.28925,
      "longitude": 28.05826
    },
    {
      "id": 617655,
      "name": "Ocolina",
      "nativeName": "Ocolina",
      "code": "MD-SO-617655",
      "countryId": 617790,
      "countryCode": "MD",
      "stateCode": "MD-SO",
      "latitude": 48.1216,
      "longitude": 28.25721
    },
    {
      "id": 617627,
      "name": "Parcani",
      "nativeName": "Parcani",
      "code": "MD-SO-617627",
      "countryId": 617790,
      "countryCode": "MD",
      "stateCode": "MD-SO",
      "latitude": 48.0617,
      "longitude": 28.28659
    },
    {
      "id": 617535,
      "name": "Pîrliţa",
      "nativeName": "Pîrliţa",
      "code": "MD-SO-617535",
      "countryId": 617790,
      "countryCode": "MD",
      "stateCode": "MD-SO",
      "latitude": 48.07524,
      "longitude": 28.20928
    },
    {
      "id": 617529,
      "name": "Racovăt",
      "nativeName": "Racovăt",
      "code": "MD-SO-617529",
      "countryId": 617790,
      "countryCode": "MD",
      "stateCode": "MD-SO",
      "latitude": 48.07892,
      "longitude": 28.40257
    },
    {
      "id": 617517,
      "name": "Redi-Cereşnovăţ",
      "nativeName": "Redi-Cereşnovăţ",
      "code": "MD-SO-617517",
      "countryId": 617790,
      "countryCode": "MD",
      "stateCode": "MD-SO",
      "latitude": 48.06339,
      "longitude": 28.31266
    },
    {
      "id": 617992,
      "name": "Regina Maria",
      "nativeName": "Regina Maria",
      "code": "MD-SO-617992",
      "countryId": 617790,
      "countryCode": "MD",
      "stateCode": "MD-SO",
      "latitude": 48.05666,
      "longitude": 28.14176
    },
    {
      "id": 617491,
      "name": "Rubleniţa",
      "nativeName": "Rubleniţa",
      "code": "MD-SO-617491",
      "countryId": 617790,
      "countryCode": "MD",
      "stateCode": "MD-SO",
      "latitude": 48.16959,
      "longitude": 28.21129
    },
    {
      "id": 829703,
      "name": "Rubleniţa Nouă",
      "nativeName": "Rubleniţa Nouă",
      "code": "MD-SO-829703",
      "countryId": 617790,
      "countryCode": "MD",
      "stateCode": "MD-SO",
      "latitude": 48.15277,
      "longitude": 28.13617
    },
    {
      "id": 617490,
      "name": "Rudi",
      "nativeName": "Rudi",
      "code": "MD-SO-617490",
      "countryId": 617790,
      "countryCode": "MD",
      "stateCode": "MD-SO",
      "latitude": 48.33076,
      "longitude": 27.89906
    },
    {
      "id": 829711,
      "name": "Ruslanovca",
      "nativeName": "Ruslanovca",
      "code": "MD-SO-829711",
      "countryId": 617790,
      "countryCode": "MD",
      "stateCode": "MD-SO",
      "latitude": 48.1187,
      "longitude": 28.37176
    },
    {
      "id": 617385,
      "name": "Slobozia-Cremene",
      "nativeName": "Slobozia-Cremene",
      "code": "MD-SO-617385",
      "countryId": 617790,
      "countryCode": "MD",
      "stateCode": "MD-SO",
      "latitude": 48.03656,
      "longitude": 28.42059
    },
    {
      "id": 617383,
      "name": "Slobozia-Vânăncău",
      "nativeName": "Slobozia-Vânăncău",
      "code": "MD-SO-617383",
      "countryId": 617790,
      "countryCode": "MD",
      "stateCode": "MD-SO",
      "latitude": 48.06846,
      "longitude": 28.46836
    },
    {
      "id": 829706,
      "name": "Sobari",
      "nativeName": "Sobari",
      "code": "MD-SO-829706",
      "countryId": 617790,
      "countryCode": "MD",
      "stateCode": "MD-SO",
      "latitude": 48.23297,
      "longitude": 28.0642
    },
    {
      "id": 617303,
      "name": "Stoicani",
      "nativeName": "Stoicani",
      "code": "MD-SO-617303",
      "countryId": 617790,
      "countryCode": "MD",
      "stateCode": "MD-SO",
      "latitude": 48.02644,
      "longitude": 28.36167
    },
    {
      "id": 617218,
      "name": "Trifăuţi",
      "nativeName": "Trifăuţi",
      "code": "MD-SO-617218",
      "countryId": 617790,
      "countryCode": "MD",
      "stateCode": "MD-SO",
      "latitude": 48.16129,
      "longitude": 28.37909
    },
    {
      "id": 829707,
      "name": "Valea",
      "nativeName": "Valea",
      "code": "MD-SO-829707",
      "countryId": 617790,
      "countryCode": "MD",
      "stateCode": "MD-SO",
      "latitude": 48.24408,
      "longitude": 28.06163
    },
    {
      "id": 829714,
      "name": "Vaniţa Mică",
      "nativeName": "Vaniţa Mică",
      "code": "MD-SO-829714",
      "countryId": 617790,
      "countryCode": "MD",
      "stateCode": "MD-SO",
      "latitude": 48.10086,
      "longitude": 28.17441
    },
    {
      "id": 829712,
      "name": "Vanţina",
      "nativeName": "Vanţina",
      "code": "MD-SO-829712",
      "countryId": 617790,
      "countryCode": "MD",
      "stateCode": "MD-SO",
      "latitude": 48.09787,
      "longitude": 28.18906
    },
    {
      "id": 617143,
      "name": "Vasilcau",
      "nativeName": "Vasilcau",
      "code": "MD-SO-617143",
      "countryId": 617790,
      "countryCode": "MD",
      "stateCode": "MD-SO",
      "latitude": 48.13916,
      "longitude": 28.42214
    },
    {
      "id": 617105,
      "name": "Voloave",
      "nativeName": "Voloave",
      "code": "MD-SO-617105",
      "countryId": 617790,
      "countryCode": "MD",
      "stateCode": "MD-SO",
      "latitude": 48.09331,
      "longitude": 28.28726
    },
    {
      "id": 617106,
      "name": "Voloviţa",
      "nativeName": "Voloviţa",
      "code": "MD-SO-617106",
      "countryId": 617790,
      "countryCode": "MD",
      "stateCode": "MD-SO",
      "latitude": 48.10306,
      "longitude": 28.32052
    },
    {
      "id": 617111,
      "name": "Vădeni",
      "nativeName": "Vădeni",
      "code": "MD-SO-617111",
      "countryId": 617790,
      "countryCode": "MD",
      "stateCode": "MD-SO",
      "latitude": 48.0118,
      "longitude": 28.22477
    },
    {
      "id": 617102,
      "name": "Vărăncău",
      "nativeName": "Vărăncău",
      "code": "MD-SO-617102",
      "countryId": 617790,
      "countryCode": "MD",
      "stateCode": "MD-SO",
      "latitude": 48.06723,
      "longitude": 28.5126
    },
    {
      "id": 824096,
      "name": "Zastînca",
      "nativeName": "Zastînca",
      "code": "MD-SO-824096",
      "countryId": 617790,
      "countryCode": "MD",
      "stateCode": "MD-SO",
      "latitude": 48.13119,
      "longitude": 28.29348
    },
    {
      "id": 617429,
      "name": "Şeptelici",
      "nativeName": "Şeptelici",
      "code": "MD-SO-617429",
      "countryId": 617790,
      "countryCode": "MD",
      "stateCode": "MD-SO",
      "latitude": 48.20039,
      "longitude": 28.15557
    },
    {
      "id": 617415,
      "name": "Şolcani",
      "nativeName": "Şolcani",
      "code": "MD-SO-617415",
      "countryId": 617790,
      "countryCode": "MD",
      "stateCode": "MD-SO",
      "latitude": 48.17221,
      "longitude": 28.11025
    },
    {
      "id": 617204,
      "name": "Ţepilova",
      "nativeName": "Ţepilova",
      "code": "MD-SO-617204",
      "countryId": 617790,
      "countryCode": "MD",
      "stateCode": "MD-SO",
      "latitude": 48.12363,
      "longitude": 28.22795
    }
  ]
}