{
  "stateId": 3437923,
  "stateCode": "PY-7",
  "countryCode": "PY",
  "cities": [
    {
      "id": 11839982,
      "name": "Alto Vera",
      "nativeName": "Alto Vera",
      "code": "PY-7-11839982",
      "countryId": 3437598,
      "countryCode": "PY",
      "stateCode": "PY-7",
      "latitude": -26.5883,
      "longitude": -55.74206
    },
    {
      "id": 11840077,
      "name": "Bella Vista",
      "nativeName": "Bella Vista",
      "code": "PY-7-11840077",
      "countryId": 3437598,
      "countryCode": "PY",
      "stateCode": "PY-7",
      "latitude": -26.99528,
      "longitude": -55.54513
    },
    {
      "id": 11840001,
      "name": "Cambyreta",
      "nativeName": "Cambyreta",
      "code": "PY-7-11840001",
      "countryId": 3437598,
      "countryCode": "PY",
      "stateCode": "PY-7",
      "latitude": -27.35643,
      "longitude": -55.76349
    },
    {
      "id": 11840037,
      "name": "Capitan Meza",
      "nativeName": "Capitan Meza",
      "code": "PY-7-11840037",
      "countryId": 3437598,
      "countryCode": "PY",
      "stateCode": "PY-7",
      "latitude": -26.82882,
      "longitude": -55.29086
    },
    {
      "id": 11840123,
      "name": "Capitan Miranda",
      "nativeName": "Capitan Miranda",
      "code": "PY-7-11840123",
      "countryId": 3437598,
      "countryCode": "PY",
      "stateCode": "PY-7",
      "latitude": -27.18966,
      "longitude": -55.81169
    },
    {
      "id": 11840151,
      "name": "Carlos Antonio Lopez",
      "nativeName": "Carlos Antonio Lopez",
      "code": "PY-7-11840151",
      "countryId": 3437598,
      "countryCode": "PY",
      "stateCode": "PY-7",
      "latitude": -26.35738,
      "longitude": -54.9257
    },
    {
      "id": 11840086,
      "name": "Carmen Del Parana",
      "nativeName": "Carmen Del Parana",
      "code": "PY-7-11840086",
      "countryId": 3437598,
      "countryCode": "PY",
      "stateCode": "PY-7",
      "latitude": -27.20845,
      "longitude": -56.09826
    },
    {
      "id": 11839951,
      "name": "Coronel Bogado",
      "nativeName": "Coronel Bogado",
      "code": "PY-7-11839951",
      "countryId": 3437598,
      "countryCode": "PY",
      "stateCode": "PY-7",
      "latitude": -27.18629,
      "longitude": -56.27949
    },
    {
      "id": 11840059,
      "name": "Edelira",
      "nativeName": "Edelira",
      "code": "PY-7-11840059",
      "countryId": 3437598,
      "countryCode": "PY",
      "stateCode": "PY-7",
      "latitude": -26.58082,
      "longitude": -55.38199
    },
    {
      "id": 11839995,
      "name": "Encarnacion",
      "nativeName": "Encarnacion",
      "code": "PY-7-11839995",
      "countryId": 3437598,
      "countryCode": "PY",
      "stateCode": "PY-7",
      "latitude": -27.26225,
      "longitude": -55.89523
    },
    {
      "id": 11840032,
      "name": "Fram",
      "nativeName": "Fram",
      "code": "PY-7-11840032",
      "countryId": 3437598,
      "countryCode": "PY",
      "stateCode": "PY-7",
      "latitude": -27.07413,
      "longitude": -56.01183
    },
    {
      "id": 11840050,
      "name": "General Artigas",
      "nativeName": "General Artigas",
      "code": "PY-7-11840050",
      "countryId": 3437598,
      "countryCode": "PY",
      "stateCode": "PY-7",
      "latitude": -26.90516,
      "longitude": -56.37593
    },
    {
      "id": 11840178,
      "name": "General Delgado",
      "nativeName": "General Delgado",
      "code": "PY-7-11840178",
      "countryId": 3437598,
      "countryCode": "PY",
      "stateCode": "PY-7",
      "latitude": -27.05952,
      "longitude": -56.5522
    },
    {
      "id": 11840004,
      "name": "Hohenau",
      "nativeName": "Hohenau",
      "code": "PY-7-11840004",
      "countryId": 3437598,
      "countryCode": "PY",
      "stateCode": "PY-7",
      "latitude": -27.0869,
      "longitude": -55.64417
    },
    {
      "id": 11840092,
      "name": "Itapua Poty",
      "nativeName": "Itapua Poty",
      "code": "PY-7-11840092",
      "countryId": 3437598,
      "countryCode": "PY",
      "stateCode": "PY-7",
      "latitude": -26.56135,
      "longitude": -55.54526
    },
    {
      "id": 11839938,
      "name": "Jesus",
      "nativeName": "Jesus",
      "code": "PY-7-11839938",
      "countryId": 3437598,
      "countryCode": "PY",
      "stateCode": "PY-7",
      "latitude": -27.05364,
      "longitude": -55.77418
    },
    {
      "id": 11840174,
      "name": "La Paz",
      "nativeName": "La Paz",
      "code": "PY-7-11840174",
      "countryId": 3437598,
      "countryCode": "PY",
      "stateCode": "PY-7",
      "latitude": -26.97791,
      "longitude": -55.89728
    },
    {
      "id": 11840000,
      "name": "Leandro Oviedo",
      "nativeName": "Leandro Oviedo",
      "code": "PY-7-11840000",
      "countryId": 3437598,
      "countryCode": "PY",
      "stateCode": "PY-7",
      "latitude": -26.74776,
      "longitude": -56.22912
    },
    {
      "id": 11840094,
      "name": "Mayor Otaño",
      "nativeName": "Mayor Otaño",
      "code": "PY-7-11840094",
      "countryId": 3437598,
      "countryCode": "PY",
      "stateCode": "PY-7",
      "latitude": -26.27843,
      "longitude": -54.76885
    },
    {
      "id": 11840168,
      "name": "Natalio",
      "nativeName": "Natalio",
      "code": "PY-7-11840168",
      "countryId": 3437598,
      "countryCode": "PY",
      "stateCode": "PY-7",
      "latitude": -26.73436,
      "longitude": -55.13926
    },
    {
      "id": 11840102,
      "name": "Nueva Alborada",
      "nativeName": "Nueva Alborada",
      "code": "PY-7-11840102",
      "countryId": 3437598,
      "countryCode": "PY",
      "stateCode": "PY-7",
      "latitude": -27.26343,
      "longitude": -55.65323
    },
    {
      "id": 11839942,
      "name": "Obligado",
      "nativeName": "Obligado",
      "code": "PY-7-11839942",
      "countryId": 3437598,
      "countryCode": "PY",
      "stateCode": "PY-7",
      "latitude": -26.92183,
      "longitude": -55.70839
    },
    {
      "id": 11840169,
      "name": "Pirapo",
      "nativeName": "Pirapo",
      "code": "PY-7-11840169",
      "countryId": 3437598,
      "countryCode": "PY",
      "stateCode": "PY-7",
      "latitude": -26.83341,
      "longitude": -55.51474
    },
    {
      "id": 11839927,
      "name": "San Cosme y Damian",
      "nativeName": "San Cosme y Damian",
      "code": "PY-7-11839927",
      "countryId": 3437598,
      "countryCode": "PY",
      "stateCode": "PY-7",
      "latitude": -27.35494,
      "longitude": -56.50419
    },
    {
      "id": 11839961,
      "name": "San Juan del Parana",
      "nativeName": "San Juan del Parana",
      "code": "PY-7-11839961",
      "countryId": 3437598,
      "countryCode": "PY",
      "stateCode": "PY-7",
      "latitude": -27.30785,
      "longitude": -55.971
    },
    {
      "id": 11839949,
      "name": "San Pedro Del Parana",
      "nativeName": "San Pedro Del Parana",
      "code": "PY-7-11839949",
      "countryId": 3437598,
      "countryCode": "PY",
      "stateCode": "PY-7",
      "latitude": -26.73011,
      "longitude": -56.00858
    },
    {
      "id": 11840089,
      "name": "San Rafael Del Parana",
      "nativeName": "San Rafael Del Parana",
      "code": "PY-7-11840089",
      "countryId": 3437598,
      "countryCode": "PY",
      "stateCode": "PY-7",
      "latitude": -26.43968,
      "longitude": -55.10063
    },
    {
      "id": 11840020,
      "name": "Tomas Romero Pereira",
      "nativeName": "Tomas Romero Pereira",
      "code": "PY-7-11840020",
      "countryId": 3437598,
      "countryCode": "PY",
      "stateCode": "PY-7",
      "latitude": -26.47347,
      "longitude": -55.28248
    },
    {
      "id": 11840084,
      "name": "Trinidad",
      "nativeName": "Trinidad",
      "code": "PY-7-11840084",
      "countryId": 3437598,
      "countryCode": "PY",
      "stateCode": "PY-7",
      "latitude": -27.13435,
      "longitude": -55.73089
    },
    {
      "id": 11840119,
      "name": "Yatytay",
      "nativeName": "Yatytay",
      "code": "PY-7-11840119",
      "countryId": 3437598,
      "countryCode": "PY",
      "stateCode": "PY-7",
      "latitude": -26.67186,
      "longitude": -55.05177
    }
  ]
}