{
  "stateId": 3665361,
  "stateCode": "BR-AM",
  "countryCode": "BR",
  "cities": [
    {
      "id": 6319294,
      "name": "Alvarães",
      "nativeName": "Alvarães",
      "code": "BR-AM-6319294",
      "countryId": 3469034,
      "countryCode": "BR",
      "stateCode": "BR-AM",
      "latitude": -3.20085,
      "longitude": -64.95117
    },
    {
      "id": 6319295,
      "name": "Amaturá",
      "nativeName": "Amaturá",
      "code": "BR-AM-6319295",
      "countryId": 3469034,
      "countryCode": "BR",
      "stateCode": "BR-AM",
      "latitude": -3.38926,
      "longitude": -68.22698
    },
    {
      "id": 6319296,
      "name": "Anamã",
      "nativeName": "Anamã",
      "code": "BR-AM-6319296",
      "countryId": 3469034,
      "countryCode": "BR",
      "stateCode": "BR-AM",
      "latitude": -3.4799,
      "longitude": -61.71689
    },
    {
      "id": 6319297,
      "name": "Anori",
      "nativeName": "Anori",
      "code": "BR-AM-6319297",
      "countryId": 3469034,
      "countryCode": "BR",
      "stateCode": "BR-AM",
      "latitude": -4.21324,
      "longitude": -62.15564
    },
    {
      "id": 6319298,
      "name": "Apuí Municipality",
      "nativeName": "Apuí",
      "code": "BR-AM-6319298",
      "countryId": 3469034,
      "countryCode": "BR",
      "stateCode": "BR-AM",
      "latitude": -7.78922,
      "longitude": -59.34104
    },
    {
      "id": 6319299,
      "name": "Atalaia do Norte Municipality",
      "nativeName": "Atalaia do Norte",
      "code": "BR-AM-6319299",
      "countryId": 3469034,
      "countryCode": "BR",
      "stateCode": "BR-AM",
      "latitude": -5.66448,
      "longitude": -71.82776
    },
    {
      "id": 6319300,
      "name": "Autazes",
      "nativeName": "Autazes",
      "code": "BR-AM-6319300",
      "countryId": 3469034,
      "countryCode": "BR",
      "stateCode": "BR-AM",
      "latitude": -3.87303,
      "longitude": -59.68136
    },
    {
      "id": 6319301,
      "name": "Barcellos",
      "nativeName": "Barcelos",
      "code": "BR-AM-6319301",
      "countryId": 3469034,
      "countryCode": "BR",
      "stateCode": "BR-AM",
      "latitude": -0.39287,
      "longitude": -63.53706
    },
    {
      "id": 6319302,
      "name": "Barreirinha",
      "nativeName": "Barreirinha",
      "code": "BR-AM-6319302",
      "countryId": 3469034,
      "countryCode": "BR",
      "stateCode": "BR-AM",
      "latitude": -3.06562,
      "longitude": -57.16619
    },
    {
      "id": 6319303,
      "name": "Benjamin Constant Municipality",
      "nativeName": "Benjamin Constant",
      "code": "BR-AM-6319303",
      "countryId": 3469034,
      "countryCode": "BR",
      "stateCode": "BR-AM",
      "latitude": -5.64837,
      "longitude": -70.40685
    },
    {
      "id": 6319304,
      "name": "Beruri Municipality",
      "nativeName": "Beruri",
      "code": "BR-AM-6319304",
      "countryId": 3469034,
      "countryCode": "BR",
      "stateCode": "BR-AM",
      "latitude": -4.34371,
      "longitude": -61.75126
    },
    {
      "id": 6319305,
      "name": "Boa Vista do Ramos",
      "nativeName": "Boa Vista do Ramos",
      "code": "BR-AM-6319305",
      "countryId": 3469034,
      "countryCode": "BR",
      "stateCode": "BR-AM",
      "latitude": -3.15779,
      "longitude": -57.90517
    },
    {
      "id": 6319306,
      "name": "Boca do Acre Municipality",
      "nativeName": "Boca do Acre",
      "code": "BR-AM-6319306",
      "countryId": 3469034,
      "countryCode": "BR",
      "stateCode": "BR-AM",
      "latitude": -8.55417,
      "longitude": -68.03585
    },
    {
      "id": 6319307,
      "name": "Borba Municipality",
      "nativeName": "Borba",
      "code": "BR-AM-6319307",
      "countryId": 3469034,
      "countryCode": "BR",
      "stateCode": "BR-AM",
      "latitude": -5.11242,
      "longitude": -59.30536
    },
    {
      "id": 6319308,
      "name": "Caapiranga",
      "nativeName": "Caapiranga",
      "code": "BR-AM-6319308",
      "countryId": 3469034,
      "countryCode": "BR",
      "stateCode": "BR-AM",
      "latitude": -3.12981,
      "longitude": -61.74406
    },
    {
      "id": 6324275,
      "name": "Canutama Municipality",
      "nativeName": "Canutama",
      "code": "BR-AM-6324275",
      "countryId": 3469034,
      "countryCode": "BR",
      "stateCode": "BR-AM",
      "latitude": -7.58969,
      "longitude": -64.12937
    },
    {
      "id": 6319309,
      "name": "Carauari Municipality",
      "nativeName": "Carauari",
      "code": "BR-AM-6319309",
      "countryId": 3469034,
      "countryCode": "BR",
      "stateCode": "BR-AM",
      "latitude": -5.1159,
      "longitude": -67.35779
    },
    {
      "id": 6319310,
      "name": "Careiro",
      "nativeName": "Careiro",
      "code": "BR-AM-6319310",
      "countryId": 3469034,
      "countryCode": "BR",
      "stateCode": "BR-AM",
      "latitude": -3.78706,
      "longitude": -60.3479
    },
    {
      "id": 6319311,
      "name": "Careiro da Várzea",
      "nativeName": "Careiro da Várzea",
      "code": "BR-AM-6319311",
      "countryId": 3469034,
      "countryCode": "BR",
      "stateCode": "BR-AM",
      "latitude": -3.35155,
      "longitude": -59.65526
    },
    {
      "id": 6324179,
      "name": "Coari Municipality",
      "nativeName": "Coari",
      "code": "BR-AM-6324179",
      "countryId": 3469034,
      "countryCode": "BR",
      "stateCode": "BR-AM",
      "latitude": -4.05402,
      "longitude": -64.15114
    },
    {
      "id": 6319312,
      "name": "Codajás Municipality",
      "nativeName": "Codajás",
      "code": "BR-AM-6319312",
      "countryId": 3469034,
      "countryCode": "BR",
      "stateCode": "BR-AM",
      "latitude": -3.16263,
      "longitude": -63.14732
    },
    {
      "id": 6319313,
      "name": "Eirunepé",
      "nativeName": "Eirunepé",
      "code": "BR-AM-6319313",
      "countryId": 3469034,
      "countryCode": "BR",
      "stateCode": "BR-AM",
      "latitude": -7.15849,
      "longitude": -70.41554
    },
    {
      "id": 6319314,
      "name": "Envira",
      "nativeName": "Envira",
      "code": "BR-AM-6319314",
      "countryId": 3469034,
      "countryCode": "BR",
      "stateCode": "BR-AM",
      "latitude": -7.64212,
      "longitude": -70.14077
    },
    {
      "id": 6319315,
      "name": "Fonte Boa",
      "nativeName": "Fonte Boa",
      "code": "BR-AM-6319315",
      "countryId": 3469034,
      "countryCode": "BR",
      "stateCode": "BR-AM",
      "latitude": -2.49591,
      "longitude": -66.26623
    },
    {
      "id": 6319316,
      "name": "Guajará",
      "nativeName": "Guajará",
      "code": "BR-AM-6319316",
      "countryId": 3469034,
      "countryCode": "BR",
      "stateCode": "BR-AM",
      "latitude": -7.13653,
      "longitude": -72.71513
    },
    {
      "id": 6319317,
      "name": "Humaitá Municipality",
      "nativeName": "Humaitá",
      "code": "BR-AM-6319317",
      "countryId": 3469034,
      "countryCode": "BR",
      "stateCode": "BR-AM",
      "latitude": -7.43866,
      "longitude": -62.32481
    },
    {
      "id": 6319318,
      "name": "Ipixuna",
      "nativeName": "Ipixuna",
      "code": "BR-AM-6319318",
      "countryId": 3469034,
      "countryCode": "BR",
      "stateCode": "BR-AM",
      "latitude": -7.1191,
      "longitude": -71.3759
    },
    {
      "id": 6319319,
      "name": "Iranduba",
      "nativeName": "Iranduba",
      "code": "BR-AM-6319319",
      "countryId": 3469034,
      "countryCode": "BR",
      "stateCode": "BR-AM",
      "latitude": -3.10145,
      "longitude": -60.44644
    },
    {
      "id": 6319320,
      "name": "Itacoatiara",
      "nativeName": "Itacoatiara",
      "code": "BR-AM-6319320",
      "countryId": 3469034,
      "countryCode": "BR",
      "stateCode": "BR-AM",
      "latitude": -3.13435,
      "longitude": -58.43353
    },
    {
      "id": 6319321,
      "name": "Itamarati Municipality",
      "nativeName": "Itamarati",
      "code": "BR-AM-6319321",
      "countryId": 3469034,
      "countryCode": "BR",
      "stateCode": "BR-AM",
      "latitude": -6.76472,
      "longitude": -68.03926
    },
    {
      "id": 6319322,
      "name": "Itapiranga",
      "nativeName": "Itapiranga",
      "code": "BR-AM-6319322",
      "countryId": 3469034,
      "countryCode": "BR",
      "stateCode": "BR-AM",
      "latitude": -2.516,
      "longitude": -58.5573
    },
    {
      "id": 6319323,
      "name": "Japurá Municipality",
      "nativeName": "Japurá",
      "code": "BR-AM-6319323",
      "countryId": 3469034,
      "countryCode": "BR",
      "stateCode": "BR-AM",
      "latitude": -1.55349,
      "longitude": -68.24526
    },
    {
      "id": 6319324,
      "name": "Juruá Municipality",
      "nativeName": "Juruá",
      "code": "BR-AM-6319324",
      "countryId": 3469034,
      "countryCode": "BR",
      "stateCode": "BR-AM",
      "latitude": -3.27526,
      "longitude": -66.24211
    },
    {
      "id": 6319325,
      "name": "Jutaí Municipality",
      "nativeName": "Jutaí",
      "code": "BR-AM-6319325",
      "countryId": 3469034,
      "countryCode": "BR",
      "stateCode": "BR-AM",
      "latitude": -4.65485,
      "longitude": -68.28027
    },
    {
      "id": 3663683,
      "name": "Lábrea Municipality",
      "nativeName": "Lábrea",
      "code": "BR-AM-3663683",
      "countryId": 3469034,
      "countryCode": "BR",
      "stateCode": "BR-AM",
      "latitude": -8.18437,
      "longitude": -66.075
    },
    {
      "id": 6319326,
      "name": "Manacapuru",
      "nativeName": "Manacapuru",
      "code": "BR-AM-6319326",
      "countryId": 3469034,
      "countryCode": "BR",
      "stateCode": "BR-AM",
      "latitude": -3.24746,
      "longitude": -61.00788
    },
    {
      "id": 6319327,
      "name": "Manaquiri",
      "nativeName": "Manaquiri",
      "code": "BR-AM-6319327",
      "countryId": 3469034,
      "countryCode": "BR",
      "stateCode": "BR-AM",
      "latitude": -3.79048,
      "longitude": -60.70718
    },
    {
      "id": 6319328,
      "name": "Manaus",
      "nativeName": "Manaus",
      "code": "BR-AM-6319328",
      "countryId": 3469034,
      "countryCode": "BR",
      "stateCode": "BR-AM",
      "latitude": -3.04361,
      "longitude": -60.01282
    },
    {
      "id": 6319329,
      "name": "Manicoré Municipality",
      "nativeName": "Manicoré",
      "code": "BR-AM-6319329",
      "countryId": 3469034,
      "countryCode": "BR",
      "stateCode": "BR-AM",
      "latitude": -7.06636,
      "longitude": -61.55696
    },
    {
      "id": 6319330,
      "name": "Maraã Municipality",
      "nativeName": "Maraã",
      "code": "BR-AM-6319330",
      "countryId": 3469034,
      "countryCode": "BR",
      "stateCode": "BR-AM",
      "latitude": -2.63792,
      "longitude": -64.80423
    },
    {
      "id": 6319331,
      "name": "Maués Municipality",
      "nativeName": "Maués",
      "code": "BR-AM-6319331",
      "countryId": 3469034,
      "countryCode": "BR",
      "stateCode": "BR-AM",
      "latitude": -5.06331,
      "longitude": -58.30285
    },
    {
      "id": 6319332,
      "name": "Nhamundá Municipality",
      "nativeName": "Nhamundá",
      "code": "BR-AM-6319332",
      "countryId": 3469034,
      "countryCode": "BR",
      "stateCode": "BR-AM",
      "latitude": -1.6805,
      "longitude": -57.65625
    },
    {
      "id": 6319333,
      "name": "Nova Olinda do Norte",
      "nativeName": "Nova Olinda do Norte",
      "code": "BR-AM-6319333",
      "countryId": 3469034,
      "countryCode": "BR",
      "stateCode": "BR-AM",
      "latitude": -3.9464,
      "longitude": -58.59745
    },
    {
      "id": 6319334,
      "name": "Novo Airão Municipality",
      "nativeName": "Novo Airão",
      "code": "BR-AM-6319334",
      "countryId": 3469034,
      "countryCode": "BR",
      "stateCode": "BR-AM",
      "latitude": -1.98386,
      "longitude": -61.78513
    },
    {
      "id": 6319335,
      "name": "Novo Aripuanã Municipality",
      "nativeName": "Novo Aripuanã",
      "code": "BR-AM-6319335",
      "countryId": 3469034,
      "countryCode": "BR",
      "stateCode": "BR-AM",
      "latitude": -7.00105,
      "longitude": -60.63017
    },
    {
      "id": 6319336,
      "name": "Parintins",
      "nativeName": "Parintins",
      "code": "BR-AM-6319336",
      "countryId": 3469034,
      "countryCode": "BR",
      "stateCode": "BR-AM",
      "latitude": -2.66345,
      "longitude": -56.93412
    },
    {
      "id": 6319337,
      "name": "Pauini Municipality",
      "nativeName": "Pauini",
      "code": "BR-AM-6319337",
      "countryId": 3469034,
      "countryCode": "BR",
      "stateCode": "BR-AM",
      "latitude": -7.68931,
      "longitude": -68.14223
    },
    {
      "id": 6319338,
      "name": "Presidente Figueiredo",
      "nativeName": "Presidente Figueiredo",
      "code": "BR-AM-6319338",
      "countryId": 3469034,
      "countryCode": "BR",
      "stateCode": "BR-AM",
      "latitude": -1.28344,
      "longitude": -59.98317
    },
    {
      "id": 6319339,
      "name": "Rio Preto da Eva",
      "nativeName": "Rio Preto da Eva",
      "code": "BR-AM-6319339",
      "countryId": 3469034,
      "countryCode": "BR",
      "stateCode": "BR-AM",
      "latitude": -2.49292,
      "longitude": -59.60783
    },
    {
      "id": 6319340,
      "name": "Santa Isabel do Rio Negro Municipality",
      "nativeName": "Santa Isabel do Rio Negro",
      "code": "BR-AM-6319340",
      "countryId": 3469034,
      "countryCode": "BR",
      "stateCode": "BR-AM",
      "latitude": -0.25484,
      "longitude": -65.55119
    },
    {
      "id": 6318997,
      "name": "Santo Antônio do Içá",
      "nativeName": "Santo Antônio do Içá",
      "code": "BR-AM-6318997",
      "countryId": 3469034,
      "countryCode": "BR",
      "stateCode": "BR-AM",
      "latitude": -3.08995,
      "longitude": -68.75919
    },
    {
      "id": 6319344,
      "name": "Silves",
      "nativeName": "Silves",
      "code": "BR-AM-6319344",
      "countryId": 3469034,
      "countryCode": "BR",
      "stateCode": "BR-AM",
      "latitude": -2.76846,
      "longitude": -58.62751
    },
    {
      "id": 6319341,
      "name": "São Gabriel da Cachoeira Municipality",
      "nativeName": "São Gabriel da Cachoeira",
      "code": "BR-AM-6319341",
      "countryId": 3469034,
      "countryCode": "BR",
      "stateCode": "BR-AM",
      "latitude": 0.24042,
      "longitude": -68.03239
    },
    {
      "id": 6319342,
      "name": "São Paulo de Olivença Municipality",
      "nativeName": "São Paulo de Olivença",
      "code": "BR-AM-6319342",
      "countryId": 3469034,
      "countryCode": "BR",
      "stateCode": "BR-AM",
      "latitude": -4.65086,
      "longitude": -69.58141
    },
    {
      "id": 6319343,
      "name": "São Sebastião do Uatumã",
      "nativeName": "São Sebastião do Uatumã",
      "code": "BR-AM-6319343",
      "countryId": 3469034,
      "countryCode": "BR",
      "stateCode": "BR-AM",
      "latitude": -1.93197,
      "longitude": -58.74216
    },
    {
      "id": 6319345,
      "name": "Tabatinga",
      "nativeName": "Tabatinga",
      "code": "BR-AM-6319345",
      "countryId": 3469034,
      "countryCode": "BR",
      "stateCode": "BR-AM",
      "latitude": -3.96298,
      "longitude": -69.60265
    },
    {
      "id": 6324276,
      "name": "Tapauá Municipality",
      "nativeName": "Tapauá",
      "code": "BR-AM-6324276",
      "countryId": 3469034,
      "countryCode": "BR",
      "stateCode": "BR-AM",
      "latitude": -6.21423,
      "longitude": -65.69985
    },
    {
      "id": 6319346,
      "name": "Tefé Municipality",
      "nativeName": "Tefé",
      "code": "BR-AM-6319346",
      "countryId": 3469034,
      "countryCode": "BR",
      "stateCode": "BR-AM",
      "latitude": -4.52227,
      "longitude": -65.60446
    },
    {
      "id": 6319347,
      "name": "Tonantins",
      "nativeName": "Tonantins",
      "code": "BR-AM-6319347",
      "countryId": 3469034,
      "countryCode": "BR",
      "stateCode": "BR-AM",
      "latitude": -2.57612,
      "longitude": -67.47282
    },
    {
      "id": 6319348,
      "name": "Uarini",
      "nativeName": "Uarini",
      "code": "BR-AM-6319348",
      "countryId": 3469034,
      "countryCode": "BR",
      "stateCode": "BR-AM",
      "latitude": -3.14736,
      "longitude": -65.42036
    },
    {
      "id": 6319349,
      "name": "Urucará Municipality",
      "nativeName": "Urucará",
      "code": "BR-AM-6319349",
      "countryId": 3469034,
      "countryCode": "BR",
      "stateCode": "BR-AM",
      "latitude": -1.19284,
      "longitude": -58.80434
    },
    {
      "id": 6319350,
      "name": "Urucurituba",
      "nativeName": "Urucurituba",
      "code": "BR-AM-6319350",
      "countryId": 3469034,
      "countryCode": "BR",
      "stateCode": "BR-AM",
      "latitude": -2.83268,
      "longitude": -57.75009
    }
  ]
}