{
  "stateId": 3402362,
  "stateCode": "BR-CE",
  "countryCode": "BR",
  "cities": [
    {
      "id": 6320034,
      "name": "Abaiara",
      "nativeName": "Abaiara",
      "code": "BR-CE-6320034",
      "countryId": 3469034,
      "countryCode": "BR",
      "stateCode": "BR-CE",
      "latitude": -7.33642,
      "longitude": -39.06129
    },
    {
      "id": 6320035,
      "name": "Acarape",
      "nativeName": "Acarape",
      "code": "BR-CE-6320035",
      "countryId": 3469034,
      "countryCode": "BR",
      "stateCode": "BR-CE",
      "latitude": -4.20565,
      "longitude": -38.6916
    },
    {
      "id": 6320036,
      "name": "Acaraú Municipality",
      "nativeName": "Acaraú",
      "code": "BR-CE-6320036",
      "countryId": 3469034,
      "countryCode": "BR",
      "stateCode": "BR-CE",
      "latitude": -2.95424,
      "longitude": -40.08597
    },
    {
      "id": 6324372,
      "name": "Acopiara",
      "nativeName": "Acopiara",
      "code": "BR-CE-6324372",
      "countryId": 3469034,
      "countryCode": "BR",
      "stateCode": "BR-CE",
      "latitude": -6.11312,
      "longitude": -39.51756
    },
    {
      "id": 3408131,
      "name": "Aiuaba",
      "nativeName": "Aiuaba",
      "code": "BR-CE-3408131",
      "countryId": 3469034,
      "countryCode": "BR",
      "stateCode": "BR-CE",
      "latitude": -6.58896,
      "longitude": -40.23948
    },
    {
      "id": 6320037,
      "name": "Alcântaras Municipality",
      "nativeName": "Alcântaras",
      "code": "BR-CE-6320037",
      "countryId": 3469034,
      "countryCode": "BR",
      "stateCode": "BR-CE",
      "latitude": -3.58733,
      "longitude": -40.55517
    },
    {
      "id": 6320038,
      "name": "Altaneira Municipality",
      "nativeName": "Altaneira",
      "code": "BR-CE-6320038",
      "countryId": 3469034,
      "countryCode": "BR",
      "stateCode": "BR-CE",
      "latitude": -6.98737,
      "longitude": -39.7274
    },
    {
      "id": 6320039,
      "name": "Alto Santo Municipality",
      "nativeName": "Alto Santo",
      "code": "BR-CE-6320039",
      "countryId": 3469034,
      "countryCode": "BR",
      "stateCode": "BR-CE",
      "latitude": -5.5241,
      "longitude": -38.20916
    },
    {
      "id": 6320074,
      "name": "Amontada Municipality",
      "nativeName": "Amontada",
      "code": "BR-CE-6320074",
      "countryId": 3469034,
      "countryCode": "BR",
      "stateCode": "BR-CE",
      "latitude": -3.27941,
      "longitude": -39.80582
    },
    {
      "id": 6320041,
      "name": "Antonina do Norte",
      "nativeName": "Antonina do Norte",
      "code": "BR-CE-6320041",
      "countryId": 3469034,
      "countryCode": "BR",
      "stateCode": "BR-CE",
      "latitude": -6.73622,
      "longitude": -39.97882
    },
    {
      "id": 6319166,
      "name": "Apuiarés Municipality",
      "nativeName": "Apuiarés",
      "code": "BR-CE-6319166",
      "countryId": 3469034,
      "countryCode": "BR",
      "stateCode": "BR-CE",
      "latitude": -3.95004,
      "longitude": -39.30373
    },
    {
      "id": 6320042,
      "name": "Aquiraz Municipality",
      "nativeName": "Aquiraz",
      "code": "BR-CE-6320042",
      "countryId": 3469034,
      "countryCode": "BR",
      "stateCode": "BR-CE",
      "latitude": -3.90157,
      "longitude": -38.39127
    },
    {
      "id": 6324285,
      "name": "Aracati",
      "nativeName": "Aracati",
      "code": "BR-CE-6324285",
      "countryId": 3469034,
      "countryCode": "BR",
      "stateCode": "BR-CE",
      "latitude": -4.56513,
      "longitude": -37.76688
    },
    {
      "id": 3407365,
      "name": "Aracoiaba",
      "nativeName": "Aracoiaba",
      "code": "BR-CE-3407365",
      "countryId": 3469034,
      "countryCode": "BR",
      "stateCode": "BR-CE",
      "latitude": -4.49045,
      "longitude": -38.67765
    },
    {
      "id": 6324286,
      "name": "Ararendá",
      "nativeName": "Ararendá",
      "code": "BR-CE-6324286",
      "countryId": 3469034,
      "countryCode": "BR",
      "stateCode": "BR-CE",
      "latitude": -4.77058,
      "longitude": -40.75389
    },
    {
      "id": 3407246,
      "name": "Araripe",
      "nativeName": "Araripe",
      "code": "BR-CE-3407246",
      "countryId": 3469034,
      "countryCode": "BR",
      "stateCode": "BR-CE",
      "latitude": -7.20462,
      "longitude": -40.11426
    },
    {
      "id": 6320043,
      "name": "Aratuba Municipality",
      "nativeName": "Aratuba",
      "code": "BR-CE-6320043",
      "countryId": 3469034,
      "countryCode": "BR",
      "stateCode": "BR-CE",
      "latitude": -4.41898,
      "longitude": -39.04818
    },
    {
      "id": 6320044,
      "name": "Arneiroz Municipality",
      "nativeName": "Arneiroz",
      "code": "BR-CE-6320044",
      "countryId": 3469034,
      "countryCode": "BR",
      "stateCode": "BR-CE",
      "latitude": -6.23607,
      "longitude": -40.094
    },
    {
      "id": 3407009,
      "name": "Assaré",
      "nativeName": "Assaré",
      "code": "BR-CE-3407009",
      "countryId": 3469034,
      "countryCode": "BR",
      "stateCode": "BR-CE",
      "latitude": -6.89746,
      "longitude": -39.82906
    },
    {
      "id": 3406952,
      "name": "Aurora",
      "nativeName": "Aurora",
      "code": "BR-CE-3406952",
      "countryId": 3469034,
      "countryCode": "BR",
      "stateCode": "BR-CE",
      "latitude": -7.00011,
      "longitude": -38.97042
    },
    {
      "id": 3406622,
      "name": "Baixio",
      "nativeName": "Baixio",
      "code": "BR-CE-3406622",
      "countryId": 3469034,
      "countryCode": "BR",
      "stateCode": "BR-CE",
      "latitude": -6.70726,
      "longitude": -38.75748
    },
    {
      "id": 6324287,
      "name": "Banabuiú",
      "nativeName": "Banabuiú",
      "code": "BR-CE-6324287",
      "countryId": 3469034,
      "countryCode": "BR",
      "stateCode": "BR-CE",
      "latitude": -5.23555,
      "longitude": -38.87457
    },
    {
      "id": 3406441,
      "name": "Barbalha",
      "nativeName": "Barbalha",
      "code": "BR-CE-3406441",
      "countryId": 3469034,
      "countryCode": "BR",
      "stateCode": "BR-CE",
      "latitude": -7.43604,
      "longitude": -39.35273
    },
    {
      "id": 6320045,
      "name": "Barreira Municipality",
      "nativeName": "Barreira",
      "code": "BR-CE-6320045",
      "countryId": 3469034,
      "countryCode": "BR",
      "stateCode": "BR-CE",
      "latitude": -4.37049,
      "longitude": -38.61021
    },
    {
      "id": 3406080,
      "name": "Barro",
      "nativeName": "Barro",
      "code": "BR-CE-3406080",
      "countryId": 3469034,
      "countryCode": "BR",
      "stateCode": "BR-CE",
      "latitude": -7.13537,
      "longitude": -38.73373
    },
    {
      "id": 6320046,
      "name": "Barroquinha Municipality",
      "nativeName": "Barroquinha",
      "code": "BR-CE-6320046",
      "countryId": 3469034,
      "countryCode": "BR",
      "stateCode": "BR-CE",
      "latitude": -2.99262,
      "longitude": -41.15458
    },
    {
      "id": 3405953,
      "name": "Baturité",
      "nativeName": "Baturité",
      "code": "BR-CE-3405953",
      "countryId": 3469034,
      "countryCode": "BR",
      "stateCode": "BR-CE",
      "latitude": -4.37308,
      "longitude": -38.85915
    },
    {
      "id": 6320047,
      "name": "Beberibe Municipality",
      "nativeName": "Beberibe",
      "code": "BR-CE-6320047",
      "countryId": 3469034,
      "countryCode": "BR",
      "stateCode": "BR-CE",
      "latitude": -4.43898,
      "longitude": -38.07998
    },
    {
      "id": 6320048,
      "name": "Bela Cruz Municipality",
      "nativeName": "Bela Cruz",
      "code": "BR-CE-6320048",
      "countryId": 3469034,
      "countryCode": "BR",
      "stateCode": "BR-CE",
      "latitude": -3.06288,
      "longitude": -40.25835
    },
    {
      "id": 3405614,
      "name": "Boa Viagem",
      "nativeName": "Boa Viagem",
      "code": "BR-CE-3405614",
      "countryId": 3469034,
      "countryCode": "BR",
      "stateCode": "BR-CE",
      "latitude": -5.02536,
      "longitude": -39.84169
    },
    {
      "id": 3404832,
      "name": "Brejo Santo",
      "nativeName": "Brejo Santo",
      "code": "BR-CE-3404832",
      "countryId": 3469034,
      "countryCode": "BR",
      "stateCode": "BR-CE",
      "latitude": -7.62229,
      "longitude": -38.88195
    },
    {
      "id": 6320049,
      "name": "Camocim Municipality",
      "nativeName": "Camocim",
      "code": "BR-CE-6320049",
      "countryId": 3469034,
      "countryCode": "BR",
      "stateCode": "BR-CE",
      "latitude": -2.93662,
      "longitude": -40.83888
    },
    {
      "id": 3403533,
      "name": "Campos Sales",
      "nativeName": "Campos Sales",
      "code": "BR-CE-3403533",
      "countryId": 3469034,
      "countryCode": "BR",
      "stateCode": "BR-CE",
      "latitude": -6.92527,
      "longitude": -40.22188
    },
    {
      "id": 3403350,
      "name": "Canindé",
      "nativeName": "Canindé",
      "code": "BR-CE-3403350",
      "countryId": 3469034,
      "countryCode": "BR",
      "stateCode": "BR-CE",
      "latitude": -4.40473,
      "longitude": -39.41746
    },
    {
      "id": 3403145,
      "name": "Capistrano",
      "nativeName": "Capistrano",
      "code": "BR-CE-3403145",
      "countryId": 3469034,
      "countryCode": "BR",
      "stateCode": "BR-CE",
      "latitude": -4.4623,
      "longitude": -38.92072
    },
    {
      "id": 6320050,
      "name": "Caridade Municipality",
      "nativeName": "Caridade",
      "code": "BR-CE-6320050",
      "countryId": 3469034,
      "countryCode": "BR",
      "stateCode": "BR-CE",
      "latitude": -4.201,
      "longitude": -39.14149
    },
    {
      "id": 3402881,
      "name": "Caririaçu",
      "nativeName": "Caririaçu",
      "code": "BR-CE-3402881",
      "countryId": 3469034,
      "countryCode": "BR",
      "stateCode": "BR-CE",
      "latitude": -7.0417,
      "longitude": -39.25423
    },
    {
      "id": 3402891,
      "name": "Cariré",
      "nativeName": "Cariré",
      "code": "BR-CE-3402891",
      "countryId": 3469034,
      "countryCode": "BR",
      "stateCode": "BR-CE",
      "latitude": -3.93586,
      "longitude": -40.54679
    },
    {
      "id": 3402874,
      "name": "Cariús",
      "nativeName": "Cariús",
      "code": "BR-CE-3402874",
      "countryId": 3469034,
      "countryCode": "BR",
      "stateCode": "BR-CE",
      "latitude": -6.65619,
      "longitude": -39.47496
    },
    {
      "id": 6320051,
      "name": "Carnaubal",
      "nativeName": "Carnaubal",
      "code": "BR-CE-6320051",
      "countryId": 3469034,
      "countryCode": "BR",
      "stateCode": "BR-CE",
      "latitude": -4.12097,
      "longitude": -41.01368
    },
    {
      "id": 6320052,
      "name": "Cascavel",
      "nativeName": "Cascavel",
      "code": "BR-CE-6320052",
      "countryId": 3469034,
      "countryCode": "BR",
      "stateCode": "BR-CE",
      "latitude": -4.27004,
      "longitude": -38.27377
    },
    {
      "id": 6320053,
      "name": "Catarina",
      "nativeName": "Catarina",
      "code": "BR-CE-6320053",
      "countryId": 3469034,
      "countryCode": "BR",
      "stateCode": "BR-CE",
      "latitude": -6.25016,
      "longitude": -39.9487
    },
    {
      "id": 6320054,
      "name": "Catunda Municipality",
      "nativeName": "Catunda",
      "code": "BR-CE-6320054",
      "countryId": 3469034,
      "countryCode": "BR",
      "stateCode": "BR-CE",
      "latitude": -4.60469,
      "longitude": -40.1863
    },
    {
      "id": 6320055,
      "name": "Caucaia Municipality",
      "nativeName": "Caucaia",
      "code": "BR-CE-6320055",
      "countryId": 3469034,
      "countryCode": "BR",
      "stateCode": "BR-CE",
      "latitude": -3.7286,
      "longitude": -38.65677
    },
    {
      "id": 3402329,
      "name": "Cedro",
      "nativeName": "Cedro",
      "code": "BR-CE-3402329",
      "countryId": 3469034,
      "countryCode": "BR",
      "stateCode": "BR-CE",
      "latitude": -6.59104,
      "longitude": -39.12042
    },
    {
      "id": 6320056,
      "name": "Chaval Municipality",
      "nativeName": "Chaval",
      "code": "BR-CE-6320056",
      "countryId": 3469034,
      "countryCode": "BR",
      "stateCode": "BR-CE",
      "latitude": -3.07497,
      "longitude": -41.23723
    },
    {
      "id": 6320058,
      "name": "Chorozinho Municipality",
      "nativeName": "Chorozinho",
      "code": "BR-CE-6320058",
      "countryId": 3469034,
      "countryCode": "BR",
      "stateCode": "BR-CE",
      "latitude": -4.29181,
      "longitude": -38.48895
    },
    {
      "id": 6320057,
      "name": "Choró Municipality",
      "nativeName": "Choró",
      "code": "BR-CE-6320057",
      "countryId": 3469034,
      "countryCode": "BR",
      "stateCode": "BR-CE",
      "latitude": -4.77277,
      "longitude": -39.17779
    },
    {
      "id": 3401728,
      "name": "Coreaú",
      "nativeName": "Coreaú",
      "code": "BR-CE-3401728",
      "countryId": 3469034,
      "countryCode": "BR",
      "stateCode": "BR-CE",
      "latitude": -3.68827,
      "longitude": -40.72725
    },
    {
      "id": 3401547,
      "name": "Crateús",
      "nativeName": "Crateús",
      "code": "BR-CE-3401547",
      "countryId": 3469034,
      "countryCode": "BR",
      "stateCode": "BR-CE",
      "latitude": -5.25084,
      "longitude": -40.74335
    },
    {
      "id": 3401544,
      "name": "Crato",
      "nativeName": "Crato",
      "code": "BR-CE-3401544",
      "countryId": 3469034,
      "countryCode": "BR",
      "stateCode": "BR-CE",
      "latitude": -7.14714,
      "longitude": -39.47132
    },
    {
      "id": 6324288,
      "name": "Croatá",
      "nativeName": "Croatá",
      "code": "BR-CE-6324288",
      "countryId": 3469034,
      "countryCode": "BR",
      "stateCode": "BR-CE",
      "latitude": -4.39092,
      "longitude": -40.86795
    },
    {
      "id": 6320059,
      "name": "Cruz Municipality",
      "nativeName": "Cruz",
      "code": "BR-CE-6320059",
      "countryId": 3469034,
      "countryCode": "BR",
      "stateCode": "BR-CE",
      "latitude": -2.89619,
      "longitude": -40.33573
    },
    {
      "id": 6320060,
      "name": "Deputado Irapuan Pinheiro",
      "nativeName": "Deputado Irapuan Pinheiro",
      "code": "BR-CE-6320060",
      "countryId": 3469034,
      "countryCode": "BR",
      "stateCode": "BR-CE",
      "latitude": -5.88737,
      "longitude": -39.25923
    },
    {
      "id": 6324289,
      "name": "Ererê",
      "nativeName": "Ererê",
      "code": "BR-CE-6324289",
      "countryId": 3469034,
      "countryCode": "BR",
      "stateCode": "BR-CE",
      "latitude": -5.99731,
      "longitude": -38.3118
    },
    {
      "id": 6320061,
      "name": "Eusébio Municipality",
      "nativeName": "Eusébio",
      "code": "BR-CE-6320061",
      "countryId": 3469034,
      "countryCode": "BR",
      "stateCode": "BR-CE",
      "latitude": -3.8695,
      "longitude": -38.45545
    },
    {
      "id": 3400496,
      "name": "Farias Brito",
      "nativeName": "Farias Brito",
      "code": "BR-CE-3400496",
      "countryId": 3469034,
      "countryCode": "BR",
      "stateCode": "BR-CE",
      "latitude": -6.88662,
      "longitude": -39.53406
    },
    {
      "id": 6324290,
      "name": "Forquilha",
      "nativeName": "Forquilha",
      "code": "BR-CE-6324290",
      "countryId": 3469034,
      "countryCode": "BR",
      "stateCode": "BR-CE",
      "latitude": -3.83354,
      "longitude": -40.23431
    },
    {
      "id": 6320062,
      "name": "Fortaleza",
      "nativeName": "Fortaleza",
      "code": "BR-CE-6320062",
      "countryId": 3469034,
      "countryCode": "BR",
      "stateCode": "BR-CE",
      "latitude": -3.72271,
      "longitude": -38.52465
    },
    {
      "id": 6320063,
      "name": "Fortim Municipality",
      "nativeName": "Fortim",
      "code": "BR-CE-6320063",
      "countryId": 3469034,
      "countryCode": "BR",
      "stateCode": "BR-CE",
      "latitude": -4.44714,
      "longitude": -37.85289
    },
    {
      "id": 3399312,
      "name": "Frecheirinha",
      "nativeName": "Frecheirinha",
      "code": "BR-CE-3399312",
      "countryId": 3469034,
      "countryCode": "BR",
      "stateCode": "BR-CE",
      "latitude": -3.72816,
      "longitude": -40.82027
    },
    {
      "id": 6320064,
      "name": "General Sampaio Municipality",
      "nativeName": "General Sampaio",
      "code": "BR-CE-6320064",
      "countryId": 3469034,
      "countryCode": "BR",
      "stateCode": "BR-CE",
      "latitude": -4.05016,
      "longitude": -39.44451
    },
    {
      "id": 6324265,
      "name": "Granja",
      "nativeName": "Granja",
      "code": "BR-CE-6324265",
      "countryId": 3469034,
      "countryCode": "BR",
      "stateCode": "BR-CE",
      "latitude": -3.32893,
      "longitude": -40.96369
    },
    {
      "id": 6320065,
      "name": "Granjeiro Municipality",
      "nativeName": "Granjeiro",
      "code": "BR-CE-6320065",
      "countryId": 3469034,
      "countryCode": "BR",
      "stateCode": "BR-CE",
      "latitude": -6.91745,
      "longitude": -39.27944
    },
    {
      "id": 6324291,
      "name": "Graça",
      "nativeName": "Graça",
      "code": "BR-CE-6324291",
      "countryId": 3469034,
      "countryCode": "BR",
      "stateCode": "BR-CE",
      "latitude": -4.06621,
      "longitude": -40.79501
    },
    {
      "id": 6320066,
      "name": "Groaíras Municipality",
      "nativeName": "Groaíras",
      "code": "BR-CE-6320066",
      "countryId": 3469034,
      "countryCode": "BR",
      "stateCode": "BR-CE",
      "latitude": -3.92113,
      "longitude": -40.37696
    },
    {
      "id": 6320067,
      "name": "Guaiúba Municipality",
      "nativeName": "Guaiúba",
      "code": "BR-CE-6320067",
      "countryId": 3469034,
      "countryCode": "BR",
      "stateCode": "BR-CE",
      "latitude": -4.11954,
      "longitude": -38.68279
    },
    {
      "id": 3398568,
      "name": "Guaraciaba do Norte",
      "nativeName": "Guaraciaba do Norte",
      "code": "BR-CE-3398568",
      "countryId": 3469034,
      "countryCode": "BR",
      "stateCode": "BR-CE",
      "latitude": -4.21841,
      "longitude": -40.84509
    },
    {
      "id": 6320068,
      "name": "Guaramiranga Municipality",
      "nativeName": "Guaramiranga",
      "code": "BR-CE-6320068",
      "countryId": 3469034,
      "countryCode": "BR",
      "stateCode": "BR-CE",
      "latitude": -4.22177,
      "longitude": -38.96451
    },
    {
      "id": 6324270,
      "name": "Hidrolândia",
      "nativeName": "Hidrolândia",
      "code": "BR-CE-6324270",
      "countryId": 3469034,
      "countryCode": "BR",
      "stateCode": "BR-CE",
      "latitude": -4.4739,
      "longitude": -40.38077
    },
    {
      "id": 6320069,
      "name": "Horizonte Municipality",
      "nativeName": "Horizonte",
      "code": "BR-CE-6320069",
      "countryId": 3469034,
      "countryCode": "BR",
      "stateCode": "BR-CE",
      "latitude": -4.11458,
      "longitude": -38.51498
    },
    {
      "id": 6320070,
      "name": "Ibaretama Municipality",
      "nativeName": "Ibaretama",
      "code": "BR-CE-6320070",
      "countryId": 3469034,
      "countryCode": "BR",
      "stateCode": "BR-CE",
      "latitude": -4.75045,
      "longitude": -38.66571
    },
    {
      "id": 3398407,
      "name": "Ibiapina",
      "nativeName": "Ibiapina",
      "code": "BR-CE-3398407",
      "countryId": 3469034,
      "countryCode": "BR",
      "stateCode": "BR-CE",
      "latitude": -3.93574,
      "longitude": -40.92758
    },
    {
      "id": 6320071,
      "name": "Ibicuitinga Municipality",
      "nativeName": "Ibicuitinga",
      "code": "BR-CE-6320071",
      "countryId": 3469034,
      "countryCode": "BR",
      "stateCode": "BR-CE",
      "latitude": -4.96187,
      "longitude": -38.52019
    },
    {
      "id": 6320072,
      "name": "Icapuí",
      "nativeName": "Icapuí",
      "code": "BR-CE-6320072",
      "countryId": 3469034,
      "countryCode": "BR",
      "stateCode": "BR-CE",
      "latitude": -4.72337,
      "longitude": -37.41335
    },
    {
      "id": 3398375,
      "name": "Icó",
      "nativeName": "Icó",
      "code": "BR-CE-3398375",
      "countryId": 3469034,
      "countryCode": "BR",
      "stateCode": "BR-CE",
      "latitude": -6.35186,
      "longitude": -38.75674
    },
    {
      "id": 3398329,
      "name": "Iguatu",
      "nativeName": "Iguatu",
      "code": "BR-CE-3398329",
      "countryId": 3469034,
      "countryCode": "BR",
      "stateCode": "BR-CE",
      "latitude": -6.3555,
      "longitude": -39.27683
    },
    {
      "id": 3398253,
      "name": "Independência",
      "nativeName": "Independência",
      "code": "BR-CE-3398253",
      "countryId": 3469034,
      "countryCode": "BR",
      "stateCode": "BR-CE",
      "latitude": -5.47187,
      "longitude": -40.32314
    },
    {
      "id": 6320073,
      "name": "Ipaporanga Municipality",
      "nativeName": "Ipaporanga",
      "code": "BR-CE-6320073",
      "countryId": 3469034,
      "countryCode": "BR",
      "stateCode": "BR-CE",
      "latitude": -4.84741,
      "longitude": -40.81027
    },
    {
      "id": 3398142,
      "name": "Ipaumirim",
      "nativeName": "Ipaumirim",
      "code": "BR-CE-3398142",
      "countryId": 3469034,
      "countryCode": "BR",
      "stateCode": "BR-CE",
      "latitude": -6.80882,
      "longitude": -38.73227
    },
    {
      "id": 3398110,
      "name": "Ipu",
      "nativeName": "Ipu",
      "code": "BR-CE-3398110",
      "countryId": 3469034,
      "countryCode": "BR",
      "stateCode": "BR-CE",
      "latitude": -4.34934,
      "longitude": -40.65931
    },
    {
      "id": 3398072,
      "name": "Ipueiras",
      "nativeName": "Ipueiras",
      "code": "BR-CE-3398072",
      "countryId": 3469034,
      "countryCode": "BR",
      "stateCode": "BR-CE",
      "latitude": -4.62127,
      "longitude": -40.82192
    },
    {
      "id": 3398051,
      "name": "Iracema",
      "nativeName": "Iracema",
      "code": "BR-CE-3398051",
      "countryId": 3469034,
      "countryCode": "BR",
      "stateCode": "BR-CE",
      "latitude": -5.81274,
      "longitude": -38.35285
    },
    {
      "id": 6324292,
      "name": "Irauçuba",
      "nativeName": "Irauçuba",
      "code": "BR-CE-6324292",
      "countryId": 3469034,
      "countryCode": "BR",
      "stateCode": "BR-CE",
      "latitude": -3.89775,
      "longitude": -39.78857
    },
    {
      "id": 6324293,
      "name": "Itaitinga",
      "nativeName": "Itaitinga",
      "code": "BR-CE-6324293",
      "countryId": 3469034,
      "countryCode": "BR",
      "stateCode": "BR-CE",
      "latitude": -4.03037,
      "longitude": -38.54427
    },
    {
      "id": 3397981,
      "name": "Itaiçaba",
      "nativeName": "Itaiçaba",
      "code": "BR-CE-3397981",
      "countryId": 3469034,
      "countryCode": "BR",
      "stateCode": "BR-CE",
      "latitude": -4.70171,
      "longitude": -37.82908
    },
    {
      "id": 3397946,
      "name": "Itapajé",
      "nativeName": "Itapajé",
      "code": "BR-CE-3397946",
      "countryId": 3469034,
      "countryCode": "BR",
      "stateCode": "BR-CE",
      "latitude": -3.73339,
      "longitude": -39.56508
    },
    {
      "id": 6320040,
      "name": "Itapipoca",
      "nativeName": "Itapipoca",
      "code": "BR-CE-6320040",
      "countryId": 3469034,
      "countryCode": "BR",
      "stateCode": "BR-CE",
      "latitude": -3.37279,
      "longitude": -39.56219
    },
    {
      "id": 6324294,
      "name": "Itapiúna",
      "nativeName": "Itapiúna",
      "code": "BR-CE-6324294",
      "countryId": 3469034,
      "countryCode": "BR",
      "stateCode": "BR-CE",
      "latitude": -4.61918,
      "longitude": -38.9313
    },
    {
      "id": 6320075,
      "name": "Itarema Municipality",
      "nativeName": "Itarema",
      "code": "BR-CE-6320075",
      "countryId": 3469034,
      "countryCode": "BR",
      "stateCode": "BR-CE",
      "latitude": -3.08336,
      "longitude": -39.89698
    },
    {
      "id": 3397876,
      "name": "Itatira",
      "nativeName": "Itatira",
      "code": "BR-CE-3397876",
      "countryId": 3469034,
      "countryCode": "BR",
      "stateCode": "BR-CE",
      "latitude": -4.56784,
      "longitude": -39.5782
    },
    {
      "id": 3397679,
      "name": "Jaguaretama",
      "nativeName": "Jaguaretama",
      "code": "BR-CE-3397679",
      "countryId": 3469034,
      "countryCode": "BR",
      "stateCode": "BR-CE",
      "latitude": -5.4833,
      "longitude": -38.75595
    },
    {
      "id": 6324295,
      "name": "Jaguaribara",
      "nativeName": "Jaguaribara",
      "code": "BR-CE-6324295",
      "countryId": 3469034,
      "countryCode": "BR",
      "stateCode": "BR-CE",
      "latitude": -5.65027,
      "longitude": -38.51031
    },
    {
      "id": 3397670,
      "name": "Jaguaribe",
      "nativeName": "Jaguaribe",
      "code": "BR-CE-3397670",
      "countryId": 3469034,
      "countryCode": "BR",
      "stateCode": "BR-CE",
      "latitude": -5.97256,
      "longitude": -38.68571
    },
    {
      "id": 3397664,
      "name": "Jaguaruana",
      "nativeName": "Jaguaruana",
      "code": "BR-CE-3397664",
      "countryId": 3469034,
      "countryCode": "BR",
      "stateCode": "BR-CE",
      "latitude": -4.81405,
      "longitude": -37.79248
    },
    {
      "id": 3397572,
      "name": "Jardim",
      "nativeName": "Jardim",
      "code": "BR-CE-3397572",
      "countryId": 3469034,
      "countryCode": "BR",
      "stateCode": "BR-CE",
      "latitude": -7.63821,
      "longitude": -39.24037
    },
    {
      "id": 3397543,
      "name": "Jati",
      "nativeName": "Jati",
      "code": "BR-CE-3397543",
      "countryId": 3469034,
      "countryCode": "BR",
      "stateCode": "BR-CE",
      "latitude": -7.7047,
      "longitude": -38.94361
    },
    {
      "id": 6320076,
      "name": "Jijoca de Jericoacoara",
      "nativeName": "Jijoca de Jericoacoara",
      "code": "BR-CE-6320076",
      "countryId": 3469034,
      "countryCode": "BR",
      "stateCode": "BR-CE",
      "latitude": -2.87137,
      "longitude": -40.49161
    },
    {
      "id": 3397146,
      "name": "Juazeiro do Norte",
      "nativeName": "Juazeiro do Norte",
      "code": "BR-CE-3397146",
      "countryId": 3469034,
      "countryCode": "BR",
      "stateCode": "BR-CE",
      "latitude": -7.14669,
      "longitude": -39.24697
    },
    {
      "id": 3397117,
      "name": "Jucás",
      "nativeName": "Jucás",
      "code": "BR-CE-3397117",
      "countryId": 3469034,
      "countryCode": "BR",
      "stateCode": "BR-CE",
      "latitude": -6.44677,
      "longitude": -39.62005
    },
    {
      "id": 3396363,
      "name": "Lavras da Mangabeira",
      "nativeName": "Lavras da Mangabeira",
      "code": "BR-CE-3396363",
      "countryId": 3469034,
      "countryCode": "BR",
      "stateCode": "BR-CE",
      "latitude": -6.73077,
      "longitude": -38.97636
    },
    {
      "id": 3396265,
      "name": "Limoeiro do Norte",
      "nativeName": "Limoeiro do Norte",
      "code": "BR-CE-3396265",
      "countryId": 3469034,
      "countryCode": "BR",
      "stateCode": "BR-CE",
      "latitude": -5.17406,
      "longitude": -38.02656
    },
    {
      "id": 6324296,
      "name": "Madalena",
      "nativeName": "Madalena",
      "code": "BR-CE-6324296",
      "countryId": 3469034,
      "countryCode": "BR",
      "stateCode": "BR-CE",
      "latitude": -4.87622,
      "longitude": -39.47587
    },
    {
      "id": 6320077,
      "name": "Maracanaú Municipality",
      "nativeName": "Maracanaú",
      "code": "BR-CE-6320077",
      "countryId": 3469034,
      "countryCode": "BR",
      "stateCode": "BR-CE",
      "latitude": -3.88832,
      "longitude": -38.6312
    },
    {
      "id": 3395448,
      "name": "Maranguape",
      "nativeName": "Maranguape",
      "code": "BR-CE-3395448",
      "countryId": 3469034,
      "countryCode": "BR",
      "stateCode": "BR-CE",
      "latitude": -3.99581,
      "longitude": -38.72969
    },
    {
      "id": 6320078,
      "name": "Marco Municipality",
      "nativeName": "Marco",
      "code": "BR-CE-6320078",
      "countryId": 3469034,
      "countryCode": "BR",
      "stateCode": "BR-CE",
      "latitude": -3.18943,
      "longitude": -40.26283
    },
    {
      "id": 6320079,
      "name": "Martinópole Municipality",
      "nativeName": "Martinópole",
      "code": "BR-CE-6320079",
      "countryId": 3469034,
      "countryCode": "BR",
      "stateCode": "BR-CE",
      "latitude": -3.19761,
      "longitude": -40.60948
    },
    {
      "id": 3395225,
      "name": "Massapê",
      "nativeName": "Massapê",
      "code": "BR-CE-3395225",
      "countryId": 3469034,
      "countryCode": "BR",
      "stateCode": "BR-CE",
      "latitude": -3.50912,
      "longitude": -40.36655
    },
    {
      "id": 3395057,
      "name": "Mauriti",
      "nativeName": "Mauriti",
      "code": "BR-CE-3395057",
      "countryId": 3469034,
      "countryCode": "BR",
      "stateCode": "BR-CE",
      "latitude": -7.38806,
      "longitude": -38.63645
    },
    {
      "id": 3394916,
      "name": "Meruoca",
      "nativeName": "Meruoca",
      "code": "BR-CE-3394916",
      "countryId": 3469034,
      "countryCode": "BR",
      "stateCode": "BR-CE",
      "latitude": -3.58604,
      "longitude": -40.4673
    },
    {
      "id": 3394883,
      "name": "Milagres",
      "nativeName": "Milagres",
      "code": "BR-CE-3394883",
      "countryId": 3469034,
      "countryCode": "BR",
      "stateCode": "BR-CE",
      "latitude": -7.26057,
      "longitude": -38.96244
    },
    {
      "id": 6324297,
      "name": "Milhã",
      "nativeName": "Milhã",
      "code": "BR-CE-6324297",
      "countryId": 3469034,
      "countryCode": "BR",
      "stateCode": "BR-CE",
      "latitude": -5.66904,
      "longitude": -39.22525
    },
    {
      "id": 6320080,
      "name": "Miraíma Municipality",
      "nativeName": "Miraíma",
      "code": "BR-CE-6320080",
      "countryId": 3469034,
      "countryCode": "BR",
      "stateCode": "BR-CE",
      "latitude": -3.56511,
      "longitude": -39.9039
    },
    {
      "id": 3394754,
      "name": "Missão Velha",
      "nativeName": "Missão Velha",
      "code": "BR-CE-3394754",
      "countryId": 3469034,
      "countryCode": "BR",
      "stateCode": "BR-CE",
      "latitude": -7.23707,
      "longitude": -39.11196
    },
    {
      "id": 3394644,
      "name": "Mombaça",
      "nativeName": "Mombaça",
      "code": "BR-CE-3394644",
      "countryId": 3469034,
      "countryCode": "BR",
      "stateCode": "BR-CE",
      "latitude": -5.79217,
      "longitude": -39.77985
    },
    {
      "id": 3394617,
      "name": "Monsenhor Tabosa",
      "nativeName": "Monsenhor Tabosa",
      "code": "BR-CE-3394617",
      "countryId": 3469034,
      "countryCode": "BR",
      "stateCode": "BR-CE",
      "latitude": -4.96764,
      "longitude": -40.06725
    },
    {
      "id": 6320081,
      "name": "Morada Nova Municipality",
      "nativeName": "Morada Nova",
      "code": "BR-CE-6320081",
      "countryId": 3469034,
      "countryCode": "BR",
      "stateCode": "BR-CE",
      "latitude": -5.0369,
      "longitude": -38.43474
    },
    {
      "id": 6320082,
      "name": "Moraújo Municipality",
      "nativeName": "Moraújo",
      "code": "BR-CE-6320082",
      "countryId": 3469034,
      "countryCode": "BR",
      "stateCode": "BR-CE",
      "latitude": -3.46006,
      "longitude": -40.69958
    },
    {
      "id": 6320083,
      "name": "Morrinhos",
      "nativeName": "Morrinhos",
      "code": "BR-CE-6320083",
      "countryId": 3469034,
      "countryCode": "BR",
      "stateCode": "BR-CE",
      "latitude": -3.28421,
      "longitude": -40.09125
    },
    {
      "id": 3394313,
      "name": "Mucambo",
      "nativeName": "Mucambo",
      "code": "BR-CE-3394313",
      "countryId": 3469034,
      "countryCode": "BR",
      "stateCode": "BR-CE",
      "latitude": -3.9078,
      "longitude": -40.76944
    },
    {
      "id": 6320084,
      "name": "Mulungu",
      "nativeName": "Mulungu",
      "code": "BR-CE-6320084",
      "countryId": 3469034,
      "countryCode": "BR",
      "stateCode": "BR-CE",
      "latitude": -4.30636,
      "longitude": -38.98955
    },
    {
      "id": 6324298,
      "name": "Nova Olinda",
      "nativeName": "Nova Olinda",
      "code": "BR-CE-6324298",
      "countryId": 3469034,
      "countryCode": "BR",
      "stateCode": "BR-CE",
      "latitude": -7.08567,
      "longitude": -39.67195
    },
    {
      "id": 3393831,
      "name": "Nova Russas",
      "nativeName": "Nova Russas",
      "code": "BR-CE-3393831",
      "countryId": 3469034,
      "countryCode": "BR",
      "stateCode": "BR-CE",
      "latitude": -4.72277,
      "longitude": -40.59553
    },
    {
      "id": 6320085,
      "name": "Novo Oriente Municipality",
      "nativeName": "Novo Oriente",
      "code": "BR-CE-6320085",
      "countryId": 3469034,
      "countryCode": "BR",
      "stateCode": "BR-CE",
      "latitude": -5.58278,
      "longitude": -40.74014
    },
    {
      "id": 6324271,
      "name": "Ocara",
      "nativeName": "Ocara",
      "code": "BR-CE-6324271",
      "countryId": 3469034,
      "countryCode": "BR",
      "stateCode": "BR-CE",
      "latitude": -4.53551,
      "longitude": -38.5158
    },
    {
      "id": 6320086,
      "name": "Orós Municipality",
      "nativeName": "Orós",
      "code": "BR-CE-6320086",
      "countryId": 3469034,
      "countryCode": "BR",
      "stateCode": "BR-CE",
      "latitude": -6.25502,
      "longitude": -38.96761
    },
    {
      "id": 6320087,
      "name": "Pacajus Municipality",
      "nativeName": "Pacajus",
      "code": "BR-CE-6320087",
      "countryId": 3469034,
      "countryCode": "BR",
      "stateCode": "BR-CE",
      "latitude": -4.1776,
      "longitude": -38.51818
    },
    {
      "id": 3393398,
      "name": "Pacatuba",
      "nativeName": "Pacatuba",
      "code": "BR-CE-3393398",
      "countryId": 3469034,
      "countryCode": "BR",
      "stateCode": "BR-CE",
      "latitude": -3.97623,
      "longitude": -38.62922
    },
    {
      "id": 3393385,
      "name": "Pacoti",
      "nativeName": "Pacoti",
      "code": "BR-CE-3393385",
      "countryId": 3469034,
      "countryCode": "BR",
      "stateCode": "BR-CE",
      "latitude": -4.19575,
      "longitude": -38.90252
    },
    {
      "id": 6320088,
      "name": "Pacujá Municipality",
      "nativeName": "Pacujá",
      "code": "BR-CE-6320088",
      "countryId": 3469034,
      "countryCode": "BR",
      "stateCode": "BR-CE",
      "latitude": -3.96747,
      "longitude": -40.67686
    },
    {
      "id": 6324299,
      "name": "Palhano",
      "nativeName": "Palhano",
      "code": "BR-CE-6324299",
      "countryId": 3469034,
      "countryCode": "BR",
      "stateCode": "BR-CE",
      "latitude": -4.66056,
      "longitude": -38.04453
    },
    {
      "id": 6320089,
      "name": "Palmácia",
      "nativeName": "Palmácia",
      "code": "BR-CE-6320089",
      "countryId": 3469034,
      "countryCode": "BR",
      "stateCode": "BR-CE",
      "latitude": -4.12964,
      "longitude": -38.84258
    },
    {
      "id": 6320090,
      "name": "Paracuru Municipality",
      "nativeName": "Paracuru",
      "code": "BR-CE-6320090",
      "countryId": 3469034,
      "countryCode": "BR",
      "stateCode": "BR-CE",
      "latitude": -3.48655,
      "longitude": -39.04269
    },
    {
      "id": 6320091,
      "name": "Paraipaba Municipality",
      "nativeName": "Paraipaba",
      "code": "BR-CE-6320091",
      "countryId": 3469034,
      "countryCode": "BR",
      "stateCode": "BR-CE",
      "latitude": -3.41344,
      "longitude": -39.16983
    },
    {
      "id": 3393064,
      "name": "Parambu",
      "nativeName": "Parambu",
      "code": "BR-CE-3393064",
      "countryId": 3469034,
      "countryCode": "BR",
      "stateCode": "BR-CE",
      "latitude": -6.25405,
      "longitude": -40.60876
    },
    {
      "id": 6320092,
      "name": "Paramoti Municipality",
      "nativeName": "Paramoti",
      "code": "BR-CE-6320092",
      "countryId": 3469034,
      "countryCode": "BR",
      "stateCode": "BR-CE",
      "latitude": -4.14739,
      "longitude": -39.36219
    },
    {
      "id": 3392608,
      "name": "Pedra Branca",
      "nativeName": "Pedra Branca",
      "code": "BR-CE-3392608",
      "countryId": 3469034,
      "countryCode": "BR",
      "stateCode": "BR-CE",
      "latitude": -5.49336,
      "longitude": -39.85259
    },
    {
      "id": 6320093,
      "name": "Penaforte Municipality",
      "nativeName": "Penaforte",
      "code": "BR-CE-6320093",
      "countryId": 3469034,
      "countryCode": "BR",
      "stateCode": "BR-CE",
      "latitude": -7.80046,
      "longitude": -39.04704
    },
    {
      "id": 3392343,
      "name": "Pentecoste",
      "nativeName": "Pentecoste",
      "code": "BR-CE-3392343",
      "countryId": 3469034,
      "countryCode": "BR",
      "stateCode": "BR-CE",
      "latitude": -3.85116,
      "longitude": -39.1985
    },
    {
      "id": 3392307,
      "name": "Pereiro",
      "nativeName": "Pereiro",
      "code": "BR-CE-3392307",
      "countryId": 3469034,
      "countryCode": "BR",
      "stateCode": "BR-CE",
      "latitude": -6.04085,
      "longitude": -38.48892
    },
    {
      "id": 6320094,
      "name": "Pindoretama Municipality",
      "nativeName": "Pindoretama",
      "code": "BR-CE-6320094",
      "countryId": 3469034,
      "countryCode": "BR",
      "stateCode": "BR-CE",
      "latitude": -4.06156,
      "longitude": -38.2945
    },
    {
      "id": 6320095,
      "name": "Piquet Carneiro Municipality",
      "nativeName": "Piquet Carneiro",
      "code": "BR-CE-6320095",
      "countryId": 3469034,
      "countryCode": "BR",
      "stateCode": "BR-CE",
      "latitude": -5.86038,
      "longitude": -39.4558
    },
    {
      "id": 6320096,
      "name": "Pires Ferreira Municipality",
      "nativeName": "Pires Ferreira",
      "code": "BR-CE-6320096",
      "countryId": 3469034,
      "countryCode": "BR",
      "stateCode": "BR-CE",
      "latitude": -4.25485,
      "longitude": -40.59869
    },
    {
      "id": 6320097,
      "name": "Poranga Municipality",
      "nativeName": "Poranga",
      "code": "BR-CE-6320097",
      "countryId": 3469034,
      "countryCode": "BR",
      "stateCode": "BR-CE",
      "latitude": -4.76103,
      "longitude": -40.93222
    },
    {
      "id": 3391418,
      "name": "Porteiras",
      "nativeName": "Porteiras",
      "code": "BR-CE-3391418",
      "countryId": 3469034,
      "countryCode": "BR",
      "stateCode": "BR-CE",
      "latitude": -7.59509,
      "longitude": -39.07443
    },
    {
      "id": 6320098,
      "name": "Potengi Municipality",
      "nativeName": "Potengi",
      "code": "BR-CE-6320098",
      "countryId": 3469034,
      "countryCode": "BR",
      "stateCode": "BR-CE",
      "latitude": -7.03279,
      "longitude": -40.04012
    },
    {
      "id": 6324300,
      "name": "Potiretama",
      "nativeName": "Potiretama",
      "code": "BR-CE-6324300",
      "countryId": 3469034,
      "countryCode": "BR",
      "stateCode": "BR-CE",
      "latitude": -5.75401,
      "longitude": -38.18249
    },
    {
      "id": 6320099,
      "name": "Quiterianópolis Municipality",
      "nativeName": "Quiterianópolis",
      "code": "BR-CE-6320099",
      "countryId": 3469034,
      "countryCode": "BR",
      "stateCode": "BR-CE",
      "latitude": -5.88995,
      "longitude": -40.72808
    },
    {
      "id": 3390906,
      "name": "Quixadá",
      "nativeName": "Quixadá",
      "code": "BR-CE-3390906",
      "countryId": 3469034,
      "countryCode": "BR",
      "stateCode": "BR-CE",
      "latitude": -4.97056,
      "longitude": -39.01812
    },
    {
      "id": 6319167,
      "name": "Quixelô Municipality",
      "nativeName": "Quixelô",
      "code": "BR-CE-6319167",
      "countryId": 3469034,
      "countryCode": "BR",
      "stateCode": "BR-CE",
      "latitude": -6.15064,
      "longitude": -39.11702
    },
    {
      "id": 3390898,
      "name": "Quixeramobim",
      "nativeName": "Quixeramobim",
      "code": "BR-CE-3390898",
      "countryId": 3469034,
      "countryCode": "BR",
      "stateCode": "BR-CE",
      "latitude": -5.13424,
      "longitude": -39.33459
    },
    {
      "id": 6320100,
      "name": "Quixeré Municipality",
      "nativeName": "Quixeré",
      "code": "BR-CE-6320100",
      "countryId": 3469034,
      "countryCode": "BR",
      "stateCode": "BR-CE",
      "latitude": -5.06334,
      "longitude": -37.92673
    },
    {
      "id": 6319168,
      "name": "Redenção",
      "nativeName": "Redenção",
      "code": "BR-CE-6319168",
      "countryId": 3469034,
      "countryCode": "BR",
      "stateCode": "BR-CE",
      "latitude": -4.26477,
      "longitude": -38.77006
    },
    {
      "id": 3390658,
      "name": "Reriutaba",
      "nativeName": "Reriutaba",
      "code": "BR-CE-3390658",
      "countryId": 3469034,
      "countryCode": "BR",
      "stateCode": "BR-CE",
      "latitude": -4.13835,
      "longitude": -40.61603
    },
    {
      "id": 3390158,
      "name": "Russas",
      "nativeName": "Russas",
      "code": "BR-CE-3390158",
      "countryId": 3469034,
      "countryCode": "BR",
      "stateCode": "BR-CE",
      "latitude": -4.8399,
      "longitude": -38.19597
    },
    {
      "id": 3390136,
      "name": "Saboeiro",
      "nativeName": "Saboeiro",
      "code": "BR-CE-3390136",
      "countryId": 3469034,
      "countryCode": "BR",
      "stateCode": "BR-CE",
      "latitude": -6.47813,
      "longitude": -39.88569
    },
    {
      "id": 6320101,
      "name": "Salitre Municipality",
      "nativeName": "Salitre",
      "code": "BR-CE-6320101",
      "countryId": 3469034,
      "countryCode": "BR",
      "stateCode": "BR-CE",
      "latitude": -7.13795,
      "longitude": -40.28978
    },
    {
      "id": 3389359,
      "name": "Santa Quitéria",
      "nativeName": "Santa Quitéria",
      "code": "BR-CE-3389359",
      "countryId": 3469034,
      "countryCode": "BR",
      "stateCode": "BR-CE",
      "latitude": -4.39577,
      "longitude": -39.98795
    },
    {
      "id": 6320102,
      "name": "Santana do Acaraú",
      "nativeName": "Santana do Acaraú",
      "code": "BR-CE-6320102",
      "countryId": 3469034,
      "countryCode": "BR",
      "stateCode": "BR-CE",
      "latitude": -3.48389,
      "longitude": -40.14484
    },
    {
      "id": 3389385,
      "name": "Santana do Cariri",
      "nativeName": "Santana do Cariri",
      "code": "BR-CE-3389385",
      "countryId": 3469034,
      "countryCode": "BR",
      "stateCode": "BR-CE",
      "latitude": -7.17968,
      "longitude": -39.78451
    },
    {
      "id": 3387925,
      "name": "Senador Pompeu Municipality",
      "nativeName": "Senador Pompeu",
      "code": "BR-CE-3387925",
      "countryId": 3469034,
      "countryCode": "BR",
      "stateCode": "BR-CE",
      "latitude": -5.5754,
      "longitude": -39.48513
    },
    {
      "id": 6324301,
      "name": "Senador Sá",
      "nativeName": "Senador Sá",
      "code": "BR-CE-6324301",
      "countryId": 3469034,
      "countryCode": "BR",
      "stateCode": "BR-CE",
      "latitude": -3.27654,
      "longitude": -40.44418
    },
    {
      "id": 3387295,
      "name": "Sobral Municipality",
      "nativeName": "Sobral",
      "code": "BR-CE-3387295",
      "countryId": 3469034,
      "countryCode": "BR",
      "stateCode": "BR-CE",
      "latitude": -3.85932,
      "longitude": -40.04376
    },
    {
      "id": 3387241,
      "name": "Solonópole Municipality",
      "nativeName": "Solonópole",
      "code": "BR-CE-3387241",
      "countryId": 3469034,
      "countryCode": "BR",
      "stateCode": "BR-CE",
      "latitude": -5.87073,
      "longitude": -39.0121
    },
    {
      "id": 3389015,
      "name": "São Benedito",
      "nativeName": "São Benedito",
      "code": "BR-CE-3389015",
      "countryId": 3469034,
      "countryCode": "BR",
      "stateCode": "BR-CE",
      "latitude": -4.04957,
      "longitude": -40.94585
    },
    {
      "id": 6320103,
      "name": "São Gonçalo do Amarante",
      "nativeName": "São Gonçalo do Amarante",
      "code": "BR-CE-6320103",
      "countryId": 3469034,
      "countryCode": "BR",
      "stateCode": "BR-CE",
      "latitude": -3.56612,
      "longitude": -39.06727
    },
    {
      "id": 6320104,
      "name": "São João do Jaguaribe",
      "nativeName": "São João do Jaguaribe",
      "code": "BR-CE-6320104",
      "countryId": 3469034,
      "countryCode": "BR",
      "stateCode": "BR-CE",
      "latitude": -5.31884,
      "longitude": -38.26878
    },
    {
      "id": 6320105,
      "name": "São Luís do Curu",
      "nativeName": "São Luís do Curu",
      "code": "BR-CE-6320105",
      "countryId": 3469034,
      "countryCode": "BR",
      "stateCode": "BR-CE",
      "latitude": -3.64119,
      "longitude": -39.24877
    },
    {
      "id": 6324302,
      "name": "Tabuleiro do Norte",
      "nativeName": "Tabuleiro do Norte",
      "code": "BR-CE-6324302",
      "countryId": 3469034,
      "countryCode": "BR",
      "stateCode": "BR-CE",
      "latitude": -5.29109,
      "longitude": -38.07247
    },
    {
      "id": 3386859,
      "name": "Tamboril Municipality",
      "nativeName": "Tamboril",
      "code": "BR-CE-3386859",
      "countryId": 3469034,
      "countryCode": "BR",
      "stateCode": "BR-CE",
      "latitude": -4.9931,
      "longitude": -40.26738
    },
    {
      "id": 6320106,
      "name": "Tarrafas Muncipality",
      "nativeName": "Tarrafas",
      "code": "BR-CE-6320106",
      "countryId": 3469034,
      "countryCode": "BR",
      "stateCode": "BR-CE",
      "latitude": -6.73736,
      "longitude": -39.72329
    },
    {
      "id": 3386566,
      "name": "Tauá Municipality",
      "nativeName": "Tauá",
      "code": "BR-CE-3386566",
      "countryId": 3469034,
      "countryCode": "BR",
      "stateCode": "BR-CE",
      "latitude": -5.90848,
      "longitude": -40.27279
    },
    {
      "id": 6320107,
      "name": "Tejuçuoca Municipality",
      "nativeName": "Tejuçuoca",
      "code": "BR-CE-6320107",
      "countryId": 3469034,
      "countryCode": "BR",
      "stateCode": "BR-CE",
      "latitude": -3.93547,
      "longitude": -39.64972
    },
    {
      "id": 3386448,
      "name": "Tianguá Municipality",
      "nativeName": "Tianguá",
      "code": "BR-CE-3386448",
      "countryId": 3469034,
      "countryCode": "BR",
      "stateCode": "BR-CE",
      "latitude": -3.67295,
      "longitude": -40.99014
    },
    {
      "id": 6320108,
      "name": "Trairi Municipality",
      "nativeName": "Trairi",
      "code": "BR-CE-6320108",
      "countryId": 3469034,
      "countryCode": "BR",
      "stateCode": "BR-CE",
      "latitude": -3.33156,
      "longitude": -39.38032
    },
    {
      "id": 6320109,
      "name": "Tururu Municipality",
      "nativeName": "Tururu",
      "code": "BR-CE-6320109",
      "countryId": 3469034,
      "countryCode": "BR",
      "stateCode": "BR-CE",
      "latitude": -3.53335,
      "longitude": -39.37556
    },
    {
      "id": 3385872,
      "name": "Ubajara Municipality",
      "nativeName": "Ubajara",
      "code": "BR-CE-3385872",
      "countryId": 3469034,
      "countryCode": "BR",
      "stateCode": "BR-CE",
      "latitude": -3.8402,
      "longitude": -40.93422
    },
    {
      "id": 3385832,
      "name": "Umari",
      "nativeName": "Umari",
      "code": "BR-CE-3385832",
      "countryId": 3469034,
      "countryCode": "BR",
      "stateCode": "BR-CE",
      "latitude": -6.60924,
      "longitude": -38.71952
    },
    {
      "id": 6320110,
      "name": "Umirim Municipality",
      "nativeName": "Umirim",
      "code": "BR-CE-6320110",
      "countryId": 3469034,
      "countryCode": "BR",
      "stateCode": "BR-CE",
      "latitude": -3.70599,
      "longitude": -39.39689
    },
    {
      "id": 6320111,
      "name": "Uruburetama Municipality",
      "nativeName": "Uruburetama",
      "code": "BR-CE-6320111",
      "countryId": 3469034,
      "countryCode": "BR",
      "stateCode": "BR-CE",
      "latitude": -3.62829,
      "longitude": -39.5476
    },
    {
      "id": 6320112,
      "name": "Uruoca Municipality",
      "nativeName": "Uruoca",
      "code": "BR-CE-6320112",
      "countryId": 3469034,
      "countryCode": "BR",
      "stateCode": "BR-CE",
      "latitude": -3.31983,
      "longitude": -40.7217
    },
    {
      "id": 6324303,
      "name": "Varjota",
      "nativeName": "Varjota",
      "code": "BR-CE-6324303",
      "countryId": 3469034,
      "countryCode": "BR",
      "stateCode": "BR-CE",
      "latitude": -4.16351,
      "longitude": -40.48795
    },
    {
      "id": 3385105,
      "name": "Viçosa do Ceará",
      "nativeName": "Viçosa do Ceará",
      "code": "BR-CE-3385105",
      "countryId": 3469034,
      "countryCode": "BR",
      "stateCode": "BR-CE",
      "latitude": -3.54912,
      "longitude": -41.13818
    },
    {
      "id": 3385462,
      "name": "Várzea Alegre",
      "nativeName": "Várzea Alegre",
      "code": "BR-CE-3385462",
      "countryId": 3469034,
      "countryCode": "BR",
      "stateCode": "BR-CE",
      "latitude": -6.76187,
      "longitude": -39.31626
    }
  ]
}