{
  "stateId": 3462372,
  "stateCode": "BR-GO",
  "countryCode": "BR",
  "cities": [
    {
      "id": 6323890,
      "name": "Abadia de Goiás",
      "nativeName": "Abadia de Goiás",
      "code": "BR-GO-6323890",
      "countryId": 3469034,
      "countryCode": "BR",
      "stateCode": "BR-GO",
      "latitude": -16.77762,
      "longitude": -49.46841
    },
    {
      "id": 6323891,
      "name": "Abadiânia",
      "nativeName": "Abadiânia",
      "code": "BR-GO-6323891",
      "countryId": 3469034,
      "countryCode": "BR",
      "stateCode": "BR-GO",
      "latitude": -16.22632,
      "longitude": -48.62681
    },
    {
      "id": 6323892,
      "name": "Acreúna",
      "nativeName": "Acreúna",
      "code": "BR-GO-6323892",
      "countryId": 3469034,
      "countryCode": "BR",
      "stateCode": "BR-GO",
      "latitude": -17.43605,
      "longitude": -50.26696
    },
    {
      "id": 6323893,
      "name": "Adelândia",
      "nativeName": "Adelândia",
      "code": "BR-GO-6323893",
      "countryId": 3469034,
      "countryCode": "BR",
      "stateCode": "BR-GO",
      "latitude": -16.38577,
      "longitude": -50.18846
    },
    {
      "id": 6323896,
      "name": "Alexânia",
      "nativeName": "Alexânia",
      "code": "BR-GO-6323896",
      "countryId": 3469034,
      "countryCode": "BR",
      "stateCode": "BR-GO",
      "latitude": -16.14926,
      "longitude": -48.45973
    },
    {
      "id": 6323897,
      "name": "Aloândia",
      "nativeName": "Aloândia",
      "code": "BR-GO-6323897",
      "countryId": 3469034,
      "countryCode": "BR",
      "stateCode": "BR-GO",
      "latitude": -17.69411,
      "longitude": -49.44985
    },
    {
      "id": 6323898,
      "name": "Alto Horizonte",
      "nativeName": "Alto Horizonte",
      "code": "BR-GO-6323898",
      "countryId": 3469034,
      "countryCode": "BR",
      "stateCode": "BR-GO",
      "latitude": -14.20236,
      "longitude": -49.435
    },
    {
      "id": 6319149,
      "name": "Alto Paraíso de Goiás",
      "nativeName": "Alto Paraíso de Goiás",
      "code": "BR-GO-6319149",
      "countryId": 3469034,
      "countryCode": "BR",
      "stateCode": "BR-GO",
      "latitude": -14.18198,
      "longitude": -47.45902
    },
    {
      "id": 6323899,
      "name": "Alvorada do Norte",
      "nativeName": "Alvorada do Norte",
      "code": "BR-GO-6323899",
      "countryId": 3469034,
      "countryCode": "BR",
      "stateCode": "BR-GO",
      "latitude": -14.52424,
      "longitude": -46.64133
    },
    {
      "id": 6323900,
      "name": "Amaralina",
      "nativeName": "Amaralina",
      "code": "BR-GO-6323900",
      "countryId": 3469034,
      "countryCode": "BR",
      "stateCode": "BR-GO",
      "latitude": -13.8139,
      "longitude": -49.63205
    },
    {
      "id": 6323901,
      "name": "Americano do Brasil",
      "nativeName": "Americano do Brasil",
      "code": "BR-GO-6323901",
      "countryId": 3469034,
      "countryCode": "BR",
      "stateCode": "BR-GO",
      "latitude": -16.26498,
      "longitude": -49.99408
    },
    {
      "id": 6323902,
      "name": "Amorinópolis",
      "nativeName": "Amorinópolis",
      "code": "BR-GO-6323902",
      "countryId": 3469034,
      "countryCode": "BR",
      "stateCode": "BR-GO",
      "latitude": -16.6342,
      "longitude": -51.09852
    },
    {
      "id": 6323903,
      "name": "Anhanguera",
      "nativeName": "Anhanguera",
      "code": "BR-GO-6323903",
      "countryId": 3469034,
      "countryCode": "BR",
      "stateCode": "BR-GO",
      "latitude": -18.31505,
      "longitude": -48.2219
    },
    {
      "id": 6323904,
      "name": "Anicuns",
      "nativeName": "Anicuns",
      "code": "BR-GO-6323904",
      "countryId": 3469034,
      "countryCode": "BR",
      "stateCode": "BR-GO",
      "latitude": -16.38582,
      "longitude": -49.97942
    },
    {
      "id": 6323905,
      "name": "Aparecida de Goiânia",
      "nativeName": "Aparecida de Goiânia",
      "code": "BR-GO-6323905",
      "countryId": 3469034,
      "countryCode": "BR",
      "stateCode": "BR-GO",
      "latitude": -16.83994,
      "longitude": -49.24836
    },
    {
      "id": 6323906,
      "name": "Aparecida do Rio Doce",
      "nativeName": "Aparecida do Rio Doce",
      "code": "BR-GO-6323906",
      "countryId": 3469034,
      "countryCode": "BR",
      "stateCode": "BR-GO",
      "latitude": -18.22963,
      "longitude": -51.2414
    },
    {
      "id": 6323907,
      "name": "Aporé",
      "nativeName": "Aporé",
      "code": "BR-GO-6323907",
      "countryId": 3469034,
      "countryCode": "BR",
      "stateCode": "BR-GO",
      "latitude": -18.74325,
      "longitude": -52.06942
    },
    {
      "id": 6323909,
      "name": "Aragarças",
      "nativeName": "Aragarças",
      "code": "BR-GO-6323909",
      "countryId": 3469034,
      "countryCode": "BR",
      "stateCode": "BR-GO",
      "latitude": -15.94743,
      "longitude": -52.08069
    },
    {
      "id": 6323910,
      "name": "Aragoiânia",
      "nativeName": "Aragoiânia",
      "code": "BR-GO-6323910",
      "countryId": 3469034,
      "countryCode": "BR",
      "stateCode": "BR-GO",
      "latitude": -16.95418,
      "longitude": -49.40598
    },
    {
      "id": 6323911,
      "name": "Araguapaz",
      "nativeName": "Araguapaz",
      "code": "BR-GO-6323911",
      "countryId": 3469034,
      "countryCode": "BR",
      "stateCode": "BR-GO",
      "latitude": -15.12986,
      "longitude": -50.4984
    },
    {
      "id": 6323908,
      "name": "Araçu",
      "nativeName": "Araçu",
      "code": "BR-GO-6323908",
      "countryId": 3469034,
      "countryCode": "BR",
      "stateCode": "BR-GO",
      "latitude": -16.38304,
      "longitude": -49.70782
    },
    {
      "id": 6323912,
      "name": "Arenópolis",
      "nativeName": "Arenópolis",
      "code": "BR-GO-6323912",
      "countryId": 3469034,
      "countryCode": "BR",
      "stateCode": "BR-GO",
      "latitude": -16.36096,
      "longitude": -51.60464
    },
    {
      "id": 6323913,
      "name": "Aruanã",
      "nativeName": "Aruanã",
      "code": "BR-GO-6323913",
      "countryId": 3469034,
      "countryCode": "BR",
      "stateCode": "BR-GO",
      "latitude": -14.8102,
      "longitude": -50.94501
    },
    {
      "id": 6319150,
      "name": "Aurilândia",
      "nativeName": "Aurilândia",
      "code": "BR-GO-6319150",
      "countryId": 3469034,
      "countryCode": "BR",
      "stateCode": "BR-GO",
      "latitude": -16.67681,
      "longitude": -50.52582
    },
    {
      "id": 6323914,
      "name": "Avelinópolis",
      "nativeName": "Avelinópolis",
      "code": "BR-GO-6323914",
      "countryId": 3469034,
      "countryCode": "BR",
      "stateCode": "BR-GO",
      "latitude": -16.49121,
      "longitude": -49.76368
    },
    {
      "id": 6319151,
      "name": "Baliza",
      "nativeName": "Baliza",
      "code": "BR-GO-6319151",
      "countryId": 3469034,
      "countryCode": "BR",
      "stateCode": "BR-GO",
      "latitude": -16.36672,
      "longitude": -52.43611
    },
    {
      "id": 6323915,
      "name": "Barro Alto",
      "nativeName": "Barro Alto",
      "code": "BR-GO-6323915",
      "countryId": 3469034,
      "countryCode": "BR",
      "stateCode": "BR-GO",
      "latitude": -14.91276,
      "longitude": -48.87739
    },
    {
      "id": 6323916,
      "name": "Bela Vista de Goiás",
      "nativeName": "Bela Vista de Goiás",
      "code": "BR-GO-6323916",
      "countryId": 3469034,
      "countryCode": "BR",
      "stateCode": "BR-GO",
      "latitude": -16.97413,
      "longitude": -48.91556
    },
    {
      "id": 6323917,
      "name": "Bom Jardim de Goiás",
      "nativeName": "Bom Jardim de Goiás",
      "code": "BR-GO-6323917",
      "countryId": 3469034,
      "countryCode": "BR",
      "stateCode": "BR-GO",
      "latitude": -16.27033,
      "longitude": -52.05682
    },
    {
      "id": 6323918,
      "name": "Bom Jesus de Goiás",
      "nativeName": "Bom Jesus de Goiás",
      "code": "BR-GO-6323918",
      "countryId": 3469034,
      "countryCode": "BR",
      "stateCode": "BR-GO",
      "latitude": -18.19213,
      "longitude": -49.89536
    },
    {
      "id": 6323919,
      "name": "Bonfinópolis",
      "nativeName": "Bonfinópolis",
      "code": "BR-GO-6323919",
      "countryId": 3469034,
      "countryCode": "BR",
      "stateCode": "BR-GO",
      "latitude": -16.59726,
      "longitude": -49.01486
    },
    {
      "id": 6323920,
      "name": "Bonópolis",
      "nativeName": "Bonópolis",
      "code": "BR-GO-6323920",
      "countryId": 3469034,
      "countryCode": "BR",
      "stateCode": "BR-GO",
      "latitude": -13.57725,
      "longitude": -49.89702
    },
    {
      "id": 6323921,
      "name": "Brazabrantes",
      "nativeName": "Brazabrantes",
      "code": "BR-GO-6323921",
      "countryId": 3469034,
      "countryCode": "BR",
      "stateCode": "BR-GO",
      "latitude": -16.37909,
      "longitude": -49.38445
    },
    {
      "id": 6323922,
      "name": "Britânia",
      "nativeName": "Britânia",
      "code": "BR-GO-6323922",
      "countryId": 3469034,
      "countryCode": "BR",
      "stateCode": "BR-GO",
      "latitude": -15.21115,
      "longitude": -51.14785
    },
    {
      "id": 6323923,
      "name": "Buriti Alegre",
      "nativeName": "Buriti Alegre",
      "code": "BR-GO-6323923",
      "countryId": 3469034,
      "countryCode": "BR",
      "stateCode": "BR-GO",
      "latitude": -18.13106,
      "longitude": -49.01342
    },
    {
      "id": 6323924,
      "name": "Buriti de Goiás",
      "nativeName": "Buriti de Goiás",
      "code": "BR-GO-6323924",
      "countryId": 3469034,
      "countryCode": "BR",
      "stateCode": "BR-GO",
      "latitude": -16.16439,
      "longitude": -50.42918
    },
    {
      "id": 6323925,
      "name": "Buritinópolis",
      "nativeName": "Buritinópolis",
      "code": "BR-GO-6323925",
      "countryId": 3469034,
      "countryCode": "BR",
      "stateCode": "BR-GO",
      "latitude": -14.40974,
      "longitude": -46.31759
    },
    {
      "id": 6323926,
      "name": "Cabeceiras",
      "nativeName": "Cabeceiras",
      "code": "BR-GO-6323926",
      "countryId": 3469034,
      "countryCode": "BR",
      "stateCode": "BR-GO",
      "latitude": -15.73747,
      "longitude": -47.03428
    },
    {
      "id": 6323927,
      "name": "Cachoeira Alta",
      "nativeName": "Cachoeira Alta",
      "code": "BR-GO-6323927",
      "countryId": 3469034,
      "countryCode": "BR",
      "stateCode": "BR-GO",
      "latitude": -18.54284,
      "longitude": -50.98208
    },
    {
      "id": 6323929,
      "name": "Cachoeira Dourada",
      "nativeName": "Cachoeira Dourada",
      "code": "BR-GO-6323929",
      "countryId": 3469034,
      "countryCode": "BR",
      "stateCode": "BR-GO",
      "latitude": -18.49516,
      "longitude": -49.65104
    },
    {
      "id": 6323928,
      "name": "Cachoeira de Goiás",
      "nativeName": "Cachoeira de Goiás",
      "code": "BR-GO-6323928",
      "countryId": 3469034,
      "countryCode": "BR",
      "stateCode": "BR-GO",
      "latitude": -16.72507,
      "longitude": -50.68613
    },
    {
      "id": 6323931,
      "name": "Caiapônia",
      "nativeName": "Caiapônia",
      "code": "BR-GO-6323931",
      "countryId": 3469034,
      "countryCode": "BR",
      "stateCode": "BR-GO",
      "latitude": -16.95987,
      "longitude": -51.79148
    },
    {
      "id": 6323932,
      "name": "Caldas Novas",
      "nativeName": "Caldas Novas",
      "code": "BR-GO-6323932",
      "countryId": 3469034,
      "countryCode": "BR",
      "stateCode": "BR-GO",
      "latitude": -17.73126,
      "longitude": -48.65479
    },
    {
      "id": 6323933,
      "name": "Caldazinha",
      "nativeName": "Caldazinha",
      "code": "BR-GO-6323933",
      "countryId": 3469034,
      "countryCode": "BR",
      "stateCode": "BR-GO",
      "latitude": -16.74858,
      "longitude": -49.00064
    },
    {
      "id": 6323934,
      "name": "Campestre de Goiás",
      "nativeName": "Campestre de Goiás",
      "code": "BR-GO-6323934",
      "countryId": 3469034,
      "countryCode": "BR",
      "stateCode": "BR-GO",
      "latitude": -16.78337,
      "longitude": -49.70958
    },
    {
      "id": 6323935,
      "name": "Campinaçu",
      "nativeName": "Campinaçu",
      "code": "BR-GO-6323935",
      "countryId": 3469034,
      "countryCode": "BR",
      "stateCode": "BR-GO",
      "latitude": -13.86371,
      "longitude": -48.56754
    },
    {
      "id": 6323936,
      "name": "Campinorte",
      "nativeName": "Campinorte",
      "code": "BR-GO-6323936",
      "countryId": 3469034,
      "countryCode": "BR",
      "stateCode": "BR-GO",
      "latitude": -14.045,
      "longitude": -48.97524
    },
    {
      "id": 6323937,
      "name": "Campo Alegre de Goiás",
      "nativeName": "Campo Alegre de Goiás",
      "code": "BR-GO-6323937",
      "countryId": 3469034,
      "countryCode": "BR",
      "stateCode": "BR-GO",
      "latitude": -17.67336,
      "longitude": -47.77801
    },
    {
      "id": 6323938,
      "name": "Campos Belos",
      "nativeName": "Campos Belos",
      "code": "BR-GO-6323938",
      "countryId": 3469034,
      "countryCode": "BR",
      "stateCode": "BR-GO",
      "latitude": -12.9964,
      "longitude": -46.48779
    },
    {
      "id": 6323939,
      "name": "Campos Verdes",
      "nativeName": "Campos Verdes",
      "code": "BR-GO-6323939",
      "countryId": 3469034,
      "countryCode": "BR",
      "stateCode": "BR-GO",
      "latitude": -14.19022,
      "longitude": -49.65835
    },
    {
      "id": 6323940,
      "name": "Carmo do Rio Verde",
      "nativeName": "Carmo do Rio Verde",
      "code": "BR-GO-6323940",
      "countryId": 3469034,
      "countryCode": "BR",
      "stateCode": "BR-GO",
      "latitude": -15.41646,
      "longitude": -49.72371
    },
    {
      "id": 6323941,
      "name": "Castelândia",
      "nativeName": "Castelândia",
      "code": "BR-GO-6323941",
      "countryId": 3469034,
      "countryCode": "BR",
      "stateCode": "BR-GO",
      "latitude": -18.15581,
      "longitude": -50.34
    },
    {
      "id": 6323942,
      "name": "Catalão",
      "nativeName": "Catalão",
      "code": "BR-GO-6323942",
      "countryId": 3469034,
      "countryCode": "BR",
      "stateCode": "BR-GO",
      "latitude": -17.97715,
      "longitude": -47.70192
    },
    {
      "id": 6323943,
      "name": "Caturaí",
      "nativeName": "Caturaí",
      "code": "BR-GO-6323943",
      "countryId": 3469034,
      "countryCode": "BR",
      "stateCode": "BR-GO",
      "latitude": -16.46981,
      "longitude": -49.59556
    },
    {
      "id": 6323944,
      "name": "Cavalcante",
      "nativeName": "Cavalcante",
      "code": "BR-GO-6323944",
      "countryId": 3469034,
      "countryCode": "BR",
      "stateCode": "BR-GO",
      "latitude": -13.59533,
      "longitude": -47.76062
    },
    {
      "id": 6323930,
      "name": "Caçu",
      "nativeName": "Caçu",
      "code": "BR-GO-6323930",
      "countryId": 3469034,
      "countryCode": "BR",
      "stateCode": "BR-GO",
      "latitude": -18.55774,
      "longitude": -51.13037
    },
    {
      "id": 6323945,
      "name": "Cezarina",
      "nativeName": "Cezarina",
      "code": "BR-GO-6323945",
      "countryId": 3469034,
      "countryCode": "BR",
      "stateCode": "BR-GO",
      "latitude": -17.11818,
      "longitude": -49.72995
    },
    {
      "id": 6319152,
      "name": "Chapadão do Céu",
      "nativeName": "Chapadão do Céu",
      "code": "BR-GO-6319152",
      "countryId": 3469034,
      "countryCode": "BR",
      "stateCode": "BR-GO",
      "latitude": -18.37043,
      "longitude": -52.5656
    },
    {
      "id": 6323946,
      "name": "Cidade Ocidental",
      "nativeName": "Cidade Ocidental",
      "code": "BR-GO-6323946",
      "countryId": 3469034,
      "countryCode": "BR",
      "stateCode": "BR-GO",
      "latitude": -16.16178,
      "longitude": -47.79998
    },
    {
      "id": 6323947,
      "name": "Cocalzinho de Goiás",
      "nativeName": "Cocalzinho de Goiás",
      "code": "BR-GO-6323947",
      "countryId": 3469034,
      "countryCode": "BR",
      "stateCode": "BR-GO",
      "latitude": -15.659,
      "longitude": -48.57595
    },
    {
      "id": 6323948,
      "name": "Colinas do Sul",
      "nativeName": "Colinas do Sul",
      "code": "BR-GO-6323948",
      "countryId": 3469034,
      "countryCode": "BR",
      "stateCode": "BR-GO",
      "latitude": -14.01221,
      "longitude": -48.05124
    },
    {
      "id": 6323951,
      "name": "Corumbaíba",
      "nativeName": "Corumbaíba",
      "code": "BR-GO-6323951",
      "countryId": 3469034,
      "countryCode": "BR",
      "stateCode": "BR-GO",
      "latitude": -18.16664,
      "longitude": -48.53205
    },
    {
      "id": 6323950,
      "name": "Corumbá de Goiás",
      "nativeName": "Corumbá de Goiás",
      "code": "BR-GO-6323950",
      "countryId": 3469034,
      "countryCode": "BR",
      "stateCode": "BR-GO",
      "latitude": -15.9219,
      "longitude": -48.62979
    },
    {
      "id": 6323952,
      "name": "Cristalina",
      "nativeName": "Cristalina",
      "code": "BR-GO-6323952",
      "countryId": 3469034,
      "countryCode": "BR",
      "stateCode": "BR-GO",
      "latitude": -16.75371,
      "longitude": -47.49756
    },
    {
      "id": 6323953,
      "name": "Cristianópolis",
      "nativeName": "Cristianópolis",
      "code": "BR-GO-6323953",
      "countryId": 3469034,
      "countryCode": "BR",
      "stateCode": "BR-GO",
      "latitude": -17.19669,
      "longitude": -48.68114
    },
    {
      "id": 6323954,
      "name": "Crixás",
      "nativeName": "Crixás",
      "code": "BR-GO-6323954",
      "countryId": 3469034,
      "countryCode": "BR",
      "stateCode": "BR-GO",
      "latitude": -14.66163,
      "longitude": -50.04241
    },
    {
      "id": 6323955,
      "name": "Cromínia",
      "nativeName": "Cromínia",
      "code": "BR-GO-6323955",
      "countryId": 3469034,
      "countryCode": "BR",
      "stateCode": "BR-GO",
      "latitude": -17.24762,
      "longitude": -49.32979
    },
    {
      "id": 6323956,
      "name": "Cumari",
      "nativeName": "Cumari",
      "code": "BR-GO-6323956",
      "countryId": 3469034,
      "countryCode": "BR",
      "stateCode": "BR-GO",
      "latitude": -18.31597,
      "longitude": -48.16375
    },
    {
      "id": 6323949,
      "name": "Córrego do Ouro",
      "nativeName": "Córrego do Ouro",
      "code": "BR-GO-6323949",
      "countryId": 3469034,
      "countryCode": "BR",
      "stateCode": "BR-GO",
      "latitude": -16.39566,
      "longitude": -50.5732
    },
    {
      "id": 6323957,
      "name": "Damianópolis",
      "nativeName": "Damianópolis",
      "code": "BR-GO-6323957",
      "countryId": 3469034,
      "countryCode": "BR",
      "stateCode": "BR-GO",
      "latitude": -14.54949,
      "longitude": -46.19367
    },
    {
      "id": 6323958,
      "name": "Damolândia",
      "nativeName": "Damolândia",
      "code": "BR-GO-6323958",
      "countryId": 3469034,
      "countryCode": "BR",
      "stateCode": "BR-GO",
      "latitude": -16.25109,
      "longitude": -49.34505
    },
    {
      "id": 6323959,
      "name": "Davinópolis",
      "nativeName": "Davinópolis",
      "code": "BR-GO-6323959",
      "countryId": 3469034,
      "countryCode": "BR",
      "stateCode": "BR-GO",
      "latitude": -18.13603,
      "longitude": -47.5775
    },
    {
      "id": 6323960,
      "name": "Diorama",
      "nativeName": "Diorama",
      "code": "BR-GO-6323960",
      "countryId": 3469034,
      "countryCode": "BR",
      "stateCode": "BR-GO",
      "latitude": -16.22318,
      "longitude": -51.34971
    },
    {
      "id": 6319153,
      "name": "Divinópolis de Goiás",
      "nativeName": "Divinópolis de Goiás",
      "code": "BR-GO-6319153",
      "countryId": 3469034,
      "countryCode": "BR",
      "stateCode": "BR-GO",
      "latitude": -13.22378,
      "longitude": -46.52704
    },
    {
      "id": 6323961,
      "name": "Doverlândia",
      "nativeName": "Doverlândia",
      "code": "BR-GO-6323961",
      "countryId": 3469034,
      "countryCode": "BR",
      "stateCode": "BR-GO",
      "latitude": -16.87767,
      "longitude": -52.49917
    },
    {
      "id": 6323962,
      "name": "Edealina",
      "nativeName": "Edealina",
      "code": "BR-GO-6323962",
      "countryId": 3469034,
      "countryCode": "BR",
      "stateCode": "BR-GO",
      "latitude": -17.4399,
      "longitude": -49.73319
    },
    {
      "id": 6323963,
      "name": "Edéia",
      "nativeName": "Edéia",
      "code": "BR-GO-6323963",
      "countryId": 3469034,
      "countryCode": "BR",
      "stateCode": "BR-GO",
      "latitude": -17.55112,
      "longitude": -50.00955
    },
    {
      "id": 6323964,
      "name": "Estrela do Norte",
      "nativeName": "Estrela do Norte",
      "code": "BR-GO-6323964",
      "countryId": 3469034,
      "countryCode": "BR",
      "stateCode": "BR-GO",
      "latitude": -13.78262,
      "longitude": -49.10026
    },
    {
      "id": 6323965,
      "name": "Faina",
      "nativeName": "Faina",
      "code": "BR-GO-6323965",
      "countryId": 3469034,
      "countryCode": "BR",
      "stateCode": "BR-GO",
      "latitude": -15.43697,
      "longitude": -50.39151
    },
    {
      "id": 6323966,
      "name": "Fazenda Nova",
      "nativeName": "Fazenda Nova",
      "code": "BR-GO-6323966",
      "countryId": 3469034,
      "countryCode": "BR",
      "stateCode": "BR-GO",
      "latitude": -16.12866,
      "longitude": -50.92604
    },
    {
      "id": 6323967,
      "name": "Firminópolis",
      "nativeName": "Firminópolis",
      "code": "BR-GO-6323967",
      "countryId": 3469034,
      "countryCode": "BR",
      "stateCode": "BR-GO",
      "latitude": -16.63738,
      "longitude": -50.32144
    },
    {
      "id": 6323968,
      "name": "Flores de Goiás",
      "nativeName": "Flores de Goiás",
      "code": "BR-GO-6323968",
      "countryId": 3469034,
      "countryCode": "BR",
      "stateCode": "BR-GO",
      "latitude": -14.59003,
      "longitude": -46.87853
    },
    {
      "id": 6323969,
      "name": "Formosa",
      "nativeName": "Formosa",
      "code": "BR-GO-6323969",
      "countryId": 3469034,
      "countryCode": "BR",
      "stateCode": "BR-GO",
      "latitude": -15.34529,
      "longitude": -47.19067
    },
    {
      "id": 6323970,
      "name": "Formoso",
      "nativeName": "Formoso",
      "code": "BR-GO-6323970",
      "countryId": 3469034,
      "countryCode": "BR",
      "stateCode": "BR-GO",
      "latitude": -13.70339,
      "longitude": -48.87538
    },
    {
      "id": 6319162,
      "name": "Gameleira de Goiás",
      "nativeName": "Gameleira de Goiás",
      "code": "BR-GO-6319162",
      "countryId": 3469034,
      "countryCode": "BR",
      "stateCode": "BR-GO",
      "latitude": -16.43131,
      "longitude": -48.67456
    },
    {
      "id": 6323972,
      "name": "Goiandira",
      "nativeName": "Goiandira",
      "code": "BR-GO-6323972",
      "countryId": 3469034,
      "countryCode": "BR",
      "stateCode": "BR-GO",
      "latitude": -18.10979,
      "longitude": -48.14934
    },
    {
      "id": 6323975,
      "name": "Goianira",
      "nativeName": "Goianira",
      "code": "BR-GO-6323975",
      "countryId": 3469034,
      "countryCode": "BR",
      "stateCode": "BR-GO",
      "latitude": -16.5023,
      "longitude": -49.43602
    },
    {
      "id": 6323971,
      "name": "Goianápolis",
      "nativeName": "Goianápolis",
      "code": "BR-GO-6323971",
      "countryId": 3469034,
      "countryCode": "BR",
      "stateCode": "BR-GO",
      "latitude": -16.53041,
      "longitude": -49.08769
    },
    {
      "id": 6323973,
      "name": "Goianésia",
      "nativeName": "Goianésia",
      "code": "BR-GO-6323973",
      "countryId": 3469034,
      "countryCode": "BR",
      "stateCode": "BR-GO",
      "latitude": -15.31104,
      "longitude": -49.17408
    },
    {
      "id": 6323977,
      "name": "Goiatuba",
      "nativeName": "Goiatuba",
      "code": "BR-GO-6323977",
      "countryId": 3469034,
      "countryCode": "BR",
      "stateCode": "BR-GO",
      "latitude": -18.03201,
      "longitude": -49.70718
    },
    {
      "id": 6323976,
      "name": "Goiás",
      "nativeName": "Goiás",
      "code": "BR-GO-6323976",
      "countryId": 3469034,
      "countryCode": "BR",
      "stateCode": "BR-GO",
      "latitude": -15.80277,
      "longitude": -50.24132
    },
    {
      "id": 6323974,
      "name": "Goiânia",
      "nativeName": "Goiânia",
      "code": "BR-GO-6323974",
      "countryId": 3469034,
      "countryCode": "BR",
      "stateCode": "BR-GO",
      "latitude": -16.64019,
      "longitude": -49.25993
    },
    {
      "id": 6323978,
      "name": "Gouvelândia",
      "nativeName": "Gouvelândia",
      "code": "BR-GO-6323978",
      "countryId": 3469034,
      "countryCode": "BR",
      "stateCode": "BR-GO",
      "latitude": -18.50777,
      "longitude": -50.17554
    },
    {
      "id": 6323979,
      "name": "Guapó",
      "nativeName": "Guapó",
      "code": "BR-GO-6323979",
      "countryId": 3469034,
      "countryCode": "BR",
      "stateCode": "BR-GO",
      "latitude": -16.91168,
      "longitude": -49.60593
    },
    {
      "id": 6323981,
      "name": "Guarani de Goiás",
      "nativeName": "Guarani de Goiás",
      "code": "BR-GO-6323981",
      "countryId": 3469034,
      "countryCode": "BR",
      "stateCode": "BR-GO",
      "latitude": -13.88485,
      "longitude": -46.50711
    },
    {
      "id": 6323980,
      "name": "Guaraíta",
      "nativeName": "Guaraíta",
      "code": "BR-GO-6323980",
      "countryId": 3469034,
      "countryCode": "BR",
      "stateCode": "BR-GO",
      "latitude": -15.65961,
      "longitude": -50.06663
    },
    {
      "id": 6323982,
      "name": "Guarinos",
      "nativeName": "Guarinos",
      "code": "BR-GO-6323982",
      "countryId": 3469034,
      "countryCode": "BR",
      "stateCode": "BR-GO",
      "latitude": -14.69976,
      "longitude": -49.731
    },
    {
      "id": 6323983,
      "name": "Heitoraí",
      "nativeName": "Heitoraí",
      "code": "BR-GO-6323983",
      "countryId": 3469034,
      "countryCode": "BR",
      "stateCode": "BR-GO",
      "latitude": -15.73416,
      "longitude": -49.83108
    },
    {
      "id": 6323985,
      "name": "Hidrolina",
      "nativeName": "Hidrolina",
      "code": "BR-GO-6323985",
      "countryId": 3469034,
      "countryCode": "BR",
      "stateCode": "BR-GO",
      "latitude": -14.75739,
      "longitude": -49.35965
    },
    {
      "id": 6323984,
      "name": "Hidrolândia",
      "nativeName": "Hidrolândia",
      "code": "BR-GO-6323984",
      "countryId": 3469034,
      "countryCode": "BR",
      "stateCode": "BR-GO",
      "latitude": -17.01618,
      "longitude": -49.25465
    },
    {
      "id": 6323986,
      "name": "Iaciara",
      "nativeName": "Iaciara",
      "code": "BR-GO-6323986",
      "countryId": 3469034,
      "countryCode": "BR",
      "stateCode": "BR-GO",
      "latitude": -14.08186,
      "longitude": -46.72107
    },
    {
      "id": 6323987,
      "name": "Inaciolândia",
      "nativeName": "Inaciolândia",
      "code": "BR-GO-6323987",
      "countryId": 3469034,
      "countryCode": "BR",
      "stateCode": "BR-GO",
      "latitude": -18.49889,
      "longitude": -49.90164
    },
    {
      "id": 6323988,
      "name": "Indiara",
      "nativeName": "Indiara",
      "code": "BR-GO-6323988",
      "countryId": 3469034,
      "countryCode": "BR",
      "stateCode": "BR-GO",
      "latitude": -17.18504,
      "longitude": -49.96826
    },
    {
      "id": 6323989,
      "name": "Inhumas",
      "nativeName": "Inhumas",
      "code": "BR-GO-6323989",
      "countryId": 3469034,
      "countryCode": "BR",
      "stateCode": "BR-GO",
      "latitude": -16.33026,
      "longitude": -49.51302
    },
    {
      "id": 6323990,
      "name": "Ipameri",
      "nativeName": "Ipameri",
      "code": "BR-GO-6323990",
      "countryId": 3469034,
      "countryCode": "BR",
      "stateCode": "BR-GO",
      "latitude": -17.46974,
      "longitude": -47.97755
    },
    {
      "id": 6323991,
      "name": "Iporá",
      "nativeName": "Iporá",
      "code": "BR-GO-6323991",
      "countryId": 3469034,
      "countryCode": "BR",
      "stateCode": "BR-GO",
      "latitude": -16.45543,
      "longitude": -51.15977
    },
    {
      "id": 6323992,
      "name": "Israelândia",
      "nativeName": "Israelândia",
      "code": "BR-GO-6323992",
      "countryId": 3469034,
      "countryCode": "BR",
      "stateCode": "BR-GO",
      "latitude": -16.35776,
      "longitude": -50.89499
    },
    {
      "id": 6323993,
      "name": "Itaberaí",
      "nativeName": "Itaberaí",
      "code": "BR-GO-6323993",
      "countryId": 3469034,
      "countryCode": "BR",
      "stateCode": "BR-GO",
      "latitude": -16.11222,
      "longitude": -49.83864
    },
    {
      "id": 6323994,
      "name": "Itaguari",
      "nativeName": "Itaguari",
      "code": "BR-GO-6323994",
      "countryId": 3469034,
      "countryCode": "BR",
      "stateCode": "BR-GO",
      "latitude": -15.91179,
      "longitude": -49.61834
    },
    {
      "id": 6323995,
      "name": "Itaguaru",
      "nativeName": "Itaguaru",
      "code": "BR-GO-6323995",
      "countryId": 3469034,
      "countryCode": "BR",
      "stateCode": "BR-GO",
      "latitude": -15.76944,
      "longitude": -49.60042
    },
    {
      "id": 6323996,
      "name": "Itapaci",
      "nativeName": "Itapaci",
      "code": "BR-GO-6323996",
      "countryId": 3469034,
      "countryCode": "BR",
      "stateCode": "BR-GO",
      "latitude": -14.92091,
      "longitude": -49.70234
    },
    {
      "id": 6323997,
      "name": "Itapirapuã",
      "nativeName": "Itapirapuã",
      "code": "BR-GO-6323997",
      "countryId": 3469034,
      "countryCode": "BR",
      "stateCode": "BR-GO",
      "latitude": -15.67388,
      "longitude": -50.80021
    },
    {
      "id": 6323998,
      "name": "Itapuranga",
      "nativeName": "Itapuranga",
      "code": "BR-GO-6323998",
      "countryId": 3469034,
      "countryCode": "BR",
      "stateCode": "BR-GO",
      "latitude": -15.56944,
      "longitude": -49.93481
    },
    {
      "id": 6323999,
      "name": "Itarumã",
      "nativeName": "Itarumã",
      "code": "BR-GO-6323999",
      "countryId": 3469034,
      "countryCode": "BR",
      "stateCode": "BR-GO",
      "latitude": -18.87992,
      "longitude": -51.32023
    },
    {
      "id": 6324000,
      "name": "Itauçu",
      "nativeName": "Itauçu",
      "code": "BR-GO-6324000",
      "countryId": 3469034,
      "countryCode": "BR",
      "stateCode": "BR-GO",
      "latitude": -16.21434,
      "longitude": -49.60066
    },
    {
      "id": 6324001,
      "name": "Itumbiara",
      "nativeName": "Itumbiara",
      "code": "BR-GO-6324001",
      "countryId": 3469034,
      "countryCode": "BR",
      "stateCode": "BR-GO",
      "latitude": -18.32952,
      "longitude": -49.44178
    },
    {
      "id": 6324002,
      "name": "Ivolândia",
      "nativeName": "Ivolândia",
      "code": "BR-GO-6324002",
      "countryId": 3469034,
      "countryCode": "BR",
      "stateCode": "BR-GO",
      "latitude": -16.6883,
      "longitude": -50.9266
    },
    {
      "id": 6324003,
      "name": "Jandaia",
      "nativeName": "Jandaia",
      "code": "BR-GO-6324003",
      "countryId": 3469034,
      "countryCode": "BR",
      "stateCode": "BR-GO",
      "latitude": -17.129,
      "longitude": -50.19476
    },
    {
      "id": 6324004,
      "name": "Jaraguá",
      "nativeName": "Jaraguá",
      "code": "BR-GO-6324004",
      "countryId": 3469034,
      "countryCode": "BR",
      "stateCode": "BR-GO",
      "latitude": -15.65294,
      "longitude": -49.43169
    },
    {
      "id": 6324005,
      "name": "Jataí",
      "nativeName": "Jataí",
      "code": "BR-GO-6324005",
      "countryId": 3469034,
      "countryCode": "BR",
      "stateCode": "BR-GO",
      "latitude": -17.85829,
      "longitude": -51.70531
    },
    {
      "id": 6324006,
      "name": "Jaupaci",
      "nativeName": "Jaupaci",
      "code": "BR-GO-6324006",
      "countryId": 3469034,
      "countryCode": "BR",
      "stateCode": "BR-GO",
      "latitude": -16.16749,
      "longitude": -51.10168
    },
    {
      "id": 6324007,
      "name": "Jesúpolis",
      "nativeName": "Jesúpolis",
      "code": "BR-GO-6324007",
      "countryId": 3469034,
      "countryCode": "BR",
      "stateCode": "BR-GO",
      "latitude": -15.96458,
      "longitude": -49.39461
    },
    {
      "id": 6324008,
      "name": "Joviânia",
      "nativeName": "Joviânia",
      "code": "BR-GO-6324008",
      "countryId": 3469034,
      "countryCode": "BR",
      "stateCode": "BR-GO",
      "latitude": -17.78422,
      "longitude": -49.5844
    },
    {
      "id": 6324009,
      "name": "Jussara",
      "nativeName": "Jussara",
      "code": "BR-GO-6324009",
      "countryId": 3469034,
      "countryCode": "BR",
      "stateCode": "BR-GO",
      "latitude": -15.58295,
      "longitude": -51.3297
    },
    {
      "id": 6324010,
      "name": "Leopoldo de Bulhões",
      "nativeName": "Leopoldo de Bulhões",
      "code": "BR-GO-6324010",
      "countryId": 3469034,
      "countryCode": "BR",
      "stateCode": "BR-GO",
      "latitude": -16.58142,
      "longitude": -48.90604
    },
    {
      "id": 6324011,
      "name": "Luziânia",
      "nativeName": "Luziânia",
      "code": "BR-GO-6324011",
      "countryId": 3469034,
      "countryCode": "BR",
      "stateCode": "BR-GO",
      "latitude": -16.49511,
      "longitude": -47.93548
    },
    {
      "id": 6324012,
      "name": "Mairipotaba",
      "nativeName": "Mairipotaba",
      "code": "BR-GO-6324012",
      "countryId": 3469034,
      "countryCode": "BR",
      "stateCode": "BR-GO",
      "latitude": -17.32688,
      "longitude": -49.50788
    },
    {
      "id": 6324013,
      "name": "Mambaí",
      "nativeName": "Mambaí",
      "code": "BR-GO-6324013",
      "countryId": 3469034,
      "countryCode": "BR",
      "stateCode": "BR-GO",
      "latitude": -14.4422,
      "longitude": -46.05807
    },
    {
      "id": 6324014,
      "name": "Mara Rosa",
      "nativeName": "Mara Rosa",
      "code": "BR-GO-6324014",
      "countryId": 3469034,
      "countryCode": "BR",
      "stateCode": "BR-GO",
      "latitude": -14.01285,
      "longitude": -49.39507
    },
    {
      "id": 6324015,
      "name": "Marzagão",
      "nativeName": "Marzagão",
      "code": "BR-GO-6324015",
      "countryId": 3469034,
      "countryCode": "BR",
      "stateCode": "BR-GO",
      "latitude": -17.99103,
      "longitude": -48.68316
    },
    {
      "id": 6324016,
      "name": "Matrinchã",
      "nativeName": "Matrinchã",
      "code": "BR-GO-6324016",
      "countryId": 3469034,
      "countryCode": "BR",
      "stateCode": "BR-GO",
      "latitude": -15.33819,
      "longitude": -50.82655
    },
    {
      "id": 6324017,
      "name": "Maurilândia",
      "nativeName": "Maurilândia",
      "code": "BR-GO-6324017",
      "countryId": 3469034,
      "countryCode": "BR",
      "stateCode": "BR-GO",
      "latitude": -18.05037,
      "longitude": -50.32935
    },
    {
      "id": 6324018,
      "name": "Mimoso de Goiás",
      "nativeName": "Mimoso de Goiás",
      "code": "BR-GO-6324018",
      "countryId": 3469034,
      "countryCode": "BR",
      "stateCode": "BR-GO",
      "latitude": -15.04832,
      "longitude": -48.34448
    },
    {
      "id": 6324019,
      "name": "Minaçu",
      "nativeName": "Minaçu",
      "code": "BR-GO-6324019",
      "countryId": 3469034,
      "countryCode": "BR",
      "stateCode": "BR-GO",
      "latitude": -13.42682,
      "longitude": -48.3878
    },
    {
      "id": 6324020,
      "name": "Mineiros",
      "nativeName": "Mineiros",
      "code": "BR-GO-6324020",
      "countryId": 3469034,
      "countryCode": "BR",
      "stateCode": "BR-GO",
      "latitude": -17.56944,
      "longitude": -52.55111
    },
    {
      "id": 6324021,
      "name": "Moiporá",
      "nativeName": "Moiporá",
      "code": "BR-GO-6324021",
      "countryId": 3469034,
      "countryCode": "BR",
      "stateCode": "BR-GO",
      "latitude": -16.50172,
      "longitude": -50.76811
    },
    {
      "id": 6324022,
      "name": "Monte Alegre de Goiás",
      "nativeName": "Monte Alegre de Goiás",
      "code": "BR-GO-6324022",
      "countryId": 3469034,
      "countryCode": "BR",
      "stateCode": "BR-GO",
      "latitude": -13.2615,
      "longitude": -46.84266
    },
    {
      "id": 6324023,
      "name": "Montes Claros de Goiás",
      "nativeName": "Montes Claros de Goiás",
      "code": "BR-GO-6324023",
      "countryId": 3469034,
      "countryCode": "BR",
      "stateCode": "BR-GO",
      "latitude": -15.96248,
      "longitude": -51.50601
    },
    {
      "id": 6324024,
      "name": "Montividiu",
      "nativeName": "Montividiu",
      "code": "BR-GO-6324024",
      "countryId": 3469034,
      "countryCode": "BR",
      "stateCode": "BR-GO",
      "latitude": -17.25815,
      "longitude": -51.15739
    },
    {
      "id": 6324025,
      "name": "Montividiu do Norte",
      "nativeName": "Montividiu do Norte",
      "code": "BR-GO-6324025",
      "countryId": 3469034,
      "countryCode": "BR",
      "stateCode": "BR-GO",
      "latitude": -13.09232,
      "longitude": -48.74161
    },
    {
      "id": 6324026,
      "name": "Morrinhos",
      "nativeName": "Morrinhos",
      "code": "BR-GO-6324026",
      "countryId": 3469034,
      "countryCode": "BR",
      "stateCode": "BR-GO",
      "latitude": -17.79922,
      "longitude": -49.09225
    },
    {
      "id": 6324027,
      "name": "Morro Agudo de Goiás",
      "nativeName": "Morro Agudo de Goiás",
      "code": "BR-GO-6324027",
      "countryId": 3469034,
      "countryCode": "BR",
      "stateCode": "BR-GO",
      "latitude": -15.3231,
      "longitude": -50.01578
    },
    {
      "id": 6324028,
      "name": "Mossâmedes",
      "nativeName": "Mossâmedes",
      "code": "BR-GO-6324028",
      "countryId": 3469034,
      "countryCode": "BR",
      "stateCode": "BR-GO",
      "latitude": -16.16495,
      "longitude": -50.17004
    },
    {
      "id": 6324029,
      "name": "Mozarlândia",
      "nativeName": "Mozarlândia",
      "code": "BR-GO-6324029",
      "countryId": 3469034,
      "countryCode": "BR",
      "stateCode": "BR-GO",
      "latitude": -14.76495,
      "longitude": -50.62962
    },
    {
      "id": 6324030,
      "name": "Mundo Novo",
      "nativeName": "Mundo Novo",
      "code": "BR-GO-6324030",
      "countryId": 3469034,
      "countryCode": "BR",
      "stateCode": "BR-GO",
      "latitude": -13.71649,
      "longitude": -50.23715
    },
    {
      "id": 6324031,
      "name": "Mutunópolis",
      "nativeName": "Mutunópolis",
      "code": "BR-GO-6324031",
      "countryId": 3469034,
      "countryCode": "BR",
      "stateCode": "BR-GO",
      "latitude": -13.70257,
      "longitude": -49.29995
    },
    {
      "id": 6324032,
      "name": "Nazário",
      "nativeName": "Nazário",
      "code": "BR-GO-6324032",
      "countryId": 3469034,
      "countryCode": "BR",
      "stateCode": "BR-GO",
      "latitude": -16.5801,
      "longitude": -49.86543
    },
    {
      "id": 6324033,
      "name": "Nerópolis",
      "nativeName": "Nerópolis",
      "code": "BR-GO-6324033",
      "countryId": 3469034,
      "countryCode": "BR",
      "stateCode": "BR-GO",
      "latitude": -16.43883,
      "longitude": -49.18117
    },
    {
      "id": 6324034,
      "name": "Niquelândia",
      "nativeName": "Niquelândia",
      "code": "BR-GO-6324034",
      "countryId": 3469034,
      "countryCode": "BR",
      "stateCode": "BR-GO",
      "latitude": -14.50367,
      "longitude": -48.39199
    },
    {
      "id": 6324035,
      "name": "Nova América",
      "nativeName": "Nova América",
      "code": "BR-GO-6324035",
      "countryId": 3469034,
      "countryCode": "BR",
      "stateCode": "BR-GO",
      "latitude": -15.05098,
      "longitude": -49.92499
    },
    {
      "id": 6324036,
      "name": "Nova Aurora",
      "nativeName": "Nova Aurora",
      "code": "BR-GO-6324036",
      "countryId": 3469034,
      "countryCode": "BR",
      "stateCode": "BR-GO",
      "latitude": -18.10107,
      "longitude": -48.27661
    },
    {
      "id": 6324037,
      "name": "Nova Crixás",
      "nativeName": "Nova Crixás",
      "code": "BR-GO-6324037",
      "countryId": 3469034,
      "countryCode": "BR",
      "stateCode": "BR-GO",
      "latitude": -14.27678,
      "longitude": -50.57649
    },
    {
      "id": 6324038,
      "name": "Nova Glória",
      "nativeName": "Nova Glória",
      "code": "BR-GO-6324038",
      "countryId": 3469034,
      "countryCode": "BR",
      "stateCode": "BR-GO",
      "latitude": -15.0636,
      "longitude": -49.48353
    },
    {
      "id": 6324039,
      "name": "Nova Iguaçu de Goiás",
      "nativeName": "Nova Iguaçu de Goiás",
      "code": "BR-GO-6324039",
      "countryId": 3469034,
      "countryCode": "BR",
      "stateCode": "BR-GO",
      "latitude": -14.29731,
      "longitude": -49.31188
    },
    {
      "id": 6324040,
      "name": "Nova Roma",
      "nativeName": "Nova Roma",
      "code": "BR-GO-6324040",
      "countryId": 3469034,
      "countryCode": "BR",
      "stateCode": "BR-GO",
      "latitude": -13.84078,
      "longitude": -47.00832
    },
    {
      "id": 6324041,
      "name": "Nova Veneza",
      "nativeName": "Nova Veneza",
      "code": "BR-GO-6324041",
      "countryId": 3469034,
      "countryCode": "BR",
      "stateCode": "BR-GO",
      "latitude": -16.35456,
      "longitude": -49.30001
    },
    {
      "id": 6324042,
      "name": "Novo Brasil",
      "nativeName": "Novo Brasil",
      "code": "BR-GO-6324042",
      "countryId": 3469034,
      "countryCode": "BR",
      "stateCode": "BR-GO",
      "latitude": -16.04806,
      "longitude": -50.63638
    },
    {
      "id": 6324043,
      "name": "Novo Gama",
      "nativeName": "Novo Gama",
      "code": "BR-GO-6324043",
      "countryId": 3469034,
      "countryCode": "BR",
      "stateCode": "BR-GO",
      "latitude": -16.12535,
      "longitude": -48.07041
    },
    {
      "id": 6324044,
      "name": "Novo Planalto",
      "nativeName": "Novo Planalto",
      "code": "BR-GO-6324044",
      "countryId": 3469034,
      "countryCode": "BR",
      "stateCode": "BR-GO",
      "latitude": -13.38362,
      "longitude": -49.76104
    },
    {
      "id": 6324045,
      "name": "Orizona",
      "nativeName": "Orizona",
      "code": "BR-GO-6324045",
      "countryId": 3469034,
      "countryCode": "BR",
      "stateCode": "BR-GO",
      "latitude": -16.99232,
      "longitude": -48.15274
    },
    {
      "id": 6324046,
      "name": "Ouro Verde de Goiás",
      "nativeName": "Ouro Verde de Goiás",
      "code": "BR-GO-6324046",
      "countryId": 3469034,
      "countryCode": "BR",
      "stateCode": "BR-GO",
      "latitude": -16.23604,
      "longitude": -49.22771
    },
    {
      "id": 6324047,
      "name": "Ouvidor",
      "nativeName": "Ouvidor",
      "code": "BR-GO-6324047",
      "countryId": 3469034,
      "countryCode": "BR",
      "stateCode": "BR-GO",
      "latitude": -18.20107,
      "longitude": -47.71513
    },
    {
      "id": 6324048,
      "name": "Padre Bernardo",
      "nativeName": "Padre Bernardo",
      "code": "BR-GO-6324048",
      "countryId": 3469034,
      "countryCode": "BR",
      "stateCode": "BR-GO",
      "latitude": -15.34115,
      "longitude": -48.31371
    },
    {
      "id": 6324049,
      "name": "Palestina de Goiás",
      "nativeName": "Palestina de Goiás",
      "code": "BR-GO-6324049",
      "countryId": 3469034,
      "countryCode": "BR",
      "stateCode": "BR-GO",
      "latitude": -16.72854,
      "longitude": -51.45851
    },
    {
      "id": 6324050,
      "name": "Palmeiras de Goiás",
      "nativeName": "Palmeiras de Goiás",
      "code": "BR-GO-6324050",
      "countryId": 3469034,
      "countryCode": "BR",
      "stateCode": "BR-GO",
      "latitude": -16.86824,
      "longitude": -49.89823
    },
    {
      "id": 6324051,
      "name": "Palmelo",
      "nativeName": "Palmelo",
      "code": "BR-GO-6324051",
      "countryId": 3469034,
      "countryCode": "BR",
      "stateCode": "BR-GO",
      "latitude": -17.31937,
      "longitude": -48.39429
    },
    {
      "id": 6324052,
      "name": "Palminópolis",
      "nativeName": "Palminópolis",
      "code": "BR-GO-6324052",
      "countryId": 3469034,
      "countryCode": "BR",
      "stateCode": "BR-GO",
      "latitude": -16.83157,
      "longitude": -50.24267
    },
    {
      "id": 6324053,
      "name": "Panamá",
      "nativeName": "Panamá",
      "code": "BR-GO-6324053",
      "countryId": 3469034,
      "countryCode": "BR",
      "stateCode": "BR-GO",
      "latitude": -18.20132,
      "longitude": -49.3889
    },
    {
      "id": 6324054,
      "name": "Paranaiguara",
      "nativeName": "Paranaiguara",
      "code": "BR-GO-6324054",
      "countryId": 3469034,
      "countryCode": "BR",
      "stateCode": "BR-GO",
      "latitude": -18.77492,
      "longitude": -50.61841
    },
    {
      "id": 6324055,
      "name": "Paraúna",
      "nativeName": "Paraúna",
      "code": "BR-GO-6324055",
      "countryId": 3469034,
      "countryCode": "BR",
      "stateCode": "BR-GO",
      "latitude": -17.0865,
      "longitude": -50.61288
    },
    {
      "id": 6324056,
      "name": "Perolândia",
      "nativeName": "Perolândia",
      "code": "BR-GO-6324056",
      "countryId": 3469034,
      "countryCode": "BR",
      "stateCode": "BR-GO",
      "latitude": -17.52861,
      "longitude": -52.06417
    },
    {
      "id": 6324057,
      "name": "Petrolina de Goiás",
      "nativeName": "Petrolina de Goiás",
      "code": "BR-GO-6324057",
      "countryId": 3469034,
      "countryCode": "BR",
      "stateCode": "BR-GO",
      "latitude": -16.11122,
      "longitude": -49.28748
    },
    {
      "id": 6324058,
      "name": "Pilar de Goiás",
      "nativeName": "Pilar de Goiás",
      "code": "BR-GO-6324058",
      "countryId": 3469034,
      "countryCode": "BR",
      "stateCode": "BR-GO",
      "latitude": -14.52999,
      "longitude": -49.51094
    },
    {
      "id": 6324059,
      "name": "Piracanjuba",
      "nativeName": "Piracanjuba",
      "code": "BR-GO-6324059",
      "countryId": 3469034,
      "countryCode": "BR",
      "stateCode": "BR-GO",
      "latitude": -17.32257,
      "longitude": -49.02423
    },
    {
      "id": 6324060,
      "name": "Pirenópolis",
      "nativeName": "Pirenópolis",
      "code": "BR-GO-6324060",
      "countryId": 3469034,
      "countryCode": "BR",
      "stateCode": "BR-GO",
      "latitude": -15.79765,
      "longitude": -49.00669
    },
    {
      "id": 6324061,
      "name": "Pires do Rio",
      "nativeName": "Pires do Rio",
      "code": "BR-GO-6324061",
      "countryId": 3469034,
      "countryCode": "BR",
      "stateCode": "BR-GO",
      "latitude": -17.34916,
      "longitude": -48.3939
    },
    {
      "id": 6324062,
      "name": "Planaltina",
      "nativeName": "Planaltina",
      "code": "BR-GO-6324062",
      "countryId": 3469034,
      "countryCode": "BR",
      "stateCode": "BR-GO",
      "latitude": -15.21463,
      "longitude": -47.88678
    },
    {
      "id": 6324063,
      "name": "Pontalina",
      "nativeName": "Pontalina",
      "code": "BR-GO-6324063",
      "countryId": 3469034,
      "countryCode": "BR",
      "stateCode": "BR-GO",
      "latitude": -17.50873,
      "longitude": -49.59943
    },
    {
      "id": 6324064,
      "name": "Porangatu",
      "nativeName": "Porangatu",
      "code": "BR-GO-6324064",
      "countryId": 3469034,
      "countryCode": "BR",
      "stateCode": "BR-GO",
      "latitude": -13.37008,
      "longitude": -49.25423
    },
    {
      "id": 6324065,
      "name": "Porteirão",
      "nativeName": "Porteirão",
      "code": "BR-GO-6324065",
      "countryId": 3469034,
      "countryCode": "BR",
      "stateCode": "BR-GO",
      "latitude": -17.90236,
      "longitude": -50.15667
    },
    {
      "id": 6324066,
      "name": "Portelândia",
      "nativeName": "Portelândia",
      "code": "BR-GO-6324066",
      "countryId": 3469034,
      "countryCode": "BR",
      "stateCode": "BR-GO",
      "latitude": -17.3561,
      "longitude": -52.67861
    },
    {
      "id": 6324067,
      "name": "Posse",
      "nativeName": "Posse",
      "code": "BR-GO-6324067",
      "countryId": 3469034,
      "countryCode": "BR",
      "stateCode": "BR-GO",
      "latitude": -14.24515,
      "longitude": -46.46964
    },
    {
      "id": 6324068,
      "name": "Professor Jamil",
      "nativeName": "Professor Jamil",
      "code": "BR-GO-6324068",
      "countryId": 3469034,
      "countryCode": "BR",
      "stateCode": "BR-GO",
      "latitude": -17.29408,
      "longitude": -49.25572
    },
    {
      "id": 6324069,
      "name": "Quirinópolis",
      "nativeName": "Quirinópolis",
      "code": "BR-GO-6324069",
      "countryId": 3469034,
      "countryCode": "BR",
      "stateCode": "BR-GO",
      "latitude": -18.4571,
      "longitude": -50.57146
    },
    {
      "id": 6324070,
      "name": "Rialma",
      "nativeName": "Rialma",
      "code": "BR-GO-6324070",
      "countryId": 3469034,
      "countryCode": "BR",
      "stateCode": "BR-GO",
      "latitude": -15.32886,
      "longitude": -49.53633
    },
    {
      "id": 6324071,
      "name": "Rianápolis",
      "nativeName": "Rianápolis",
      "code": "BR-GO-6324071",
      "countryId": 3469034,
      "countryCode": "BR",
      "stateCode": "BR-GO",
      "latitude": -15.47467,
      "longitude": -49.44786
    },
    {
      "id": 6324072,
      "name": "Rio Quente",
      "nativeName": "Rio Quente",
      "code": "BR-GO-6324072",
      "countryId": 3469034,
      "countryCode": "BR",
      "stateCode": "BR-GO",
      "latitude": -17.81769,
      "longitude": -48.80202
    },
    {
      "id": 6324073,
      "name": "Rio Verde",
      "nativeName": "Rio Verde",
      "code": "BR-GO-6324073",
      "countryId": 3469034,
      "countryCode": "BR",
      "stateCode": "BR-GO",
      "latitude": -17.71888,
      "longitude": -51.04215
    },
    {
      "id": 6324074,
      "name": "Rubiataba",
      "nativeName": "Rubiataba",
      "code": "BR-GO-6324074",
      "countryId": 3469034,
      "countryCode": "BR",
      "stateCode": "BR-GO",
      "latitude": -15.16817,
      "longitude": -49.89792
    },
    {
      "id": 6324075,
      "name": "Sanclerlândia",
      "nativeName": "Sanclerlândia",
      "code": "BR-GO-6324075",
      "countryId": 3469034,
      "countryCode": "BR",
      "stateCode": "BR-GO",
      "latitude": -16.28223,
      "longitude": -50.3721
    },
    {
      "id": 6319154,
      "name": "Santa Bárbara de Goiás",
      "nativeName": "Santa Bárbara de Goiás",
      "code": "BR-GO-6319154",
      "countryId": 3469034,
      "countryCode": "BR",
      "stateCode": "BR-GO",
      "latitude": -16.60228,
      "longitude": -49.68624
    },
    {
      "id": 6319155,
      "name": "Santo Antônio do Descoberto",
      "nativeName": "Santo Antônio do Descoberto",
      "code": "BR-GO-6319155",
      "countryId": 3469034,
      "countryCode": "BR",
      "stateCode": "BR-GO",
      "latitude": -16.08073,
      "longitude": -48.29596
    },
    {
      "id": 6319158,
      "name": "Senador Canedo",
      "nativeName": "Senador Canedo",
      "code": "BR-GO-6319158",
      "countryId": 3469034,
      "countryCode": "BR",
      "stateCode": "BR-GO",
      "latitude": -16.72322,
      "longitude": -49.10745
    },
    {
      "id": 6319159,
      "name": "Serranópolis",
      "nativeName": "Serranópolis",
      "code": "BR-GO-6319159",
      "countryId": 3469034,
      "countryCode": "BR",
      "stateCode": "BR-GO",
      "latitude": -18.27044,
      "longitude": -52.24749
    },
    {
      "id": 6319160,
      "name": "Simolândia",
      "nativeName": "Simolândia",
      "code": "BR-GO-6319160",
      "countryId": 3469034,
      "countryCode": "BR",
      "stateCode": "BR-GO",
      "latitude": -14.43819,
      "longitude": -46.59232
    },
    {
      "id": 6319156,
      "name": "São Domingos",
      "nativeName": "São Domingos",
      "code": "BR-GO-6319156",
      "countryId": 3469034,
      "countryCode": "BR",
      "stateCode": "BR-GO",
      "latitude": -13.53444,
      "longitude": -46.51094
    },
    {
      "id": 6319157,
      "name": "São Francisco de Goiás",
      "nativeName": "São Francisco de Goiás",
      "code": "BR-GO-6319157",
      "countryId": 3469034,
      "countryCode": "BR",
      "stateCode": "BR-GO",
      "latitude": -15.95223,
      "longitude": -49.24888
    },
    {
      "id": 6319148,
      "name": "Água Fria de Goiás",
      "nativeName": "Água Fria de Goiás",
      "code": "BR-GO-6319148",
      "countryId": 3469034,
      "countryCode": "BR",
      "stateCode": "BR-GO",
      "latitude": -14.96056,
      "longitude": -47.84963
    },
    {
      "id": 6323894,
      "name": "Água Limpa",
      "nativeName": "Água Limpa",
      "code": "BR-GO-6323894",
      "countryId": 3469034,
      "countryCode": "BR",
      "stateCode": "BR-GO",
      "latitude": -18.07999,
      "longitude": -48.79951
    },
    {
      "id": 6323895,
      "name": "Águas Lindas de Goiás",
      "nativeName": "Águas Lindas de Goiás",
      "code": "BR-GO-6323895",
      "countryId": 3469034,
      "countryCode": "BR",
      "stateCode": "BR-GO",
      "latitude": -15.76613,
      "longitude": -48.28611
    }
  ]
}