{
  "stateId": 3457419,
  "stateCode": "BR-MT",
  "countryCode": "BR",
  "cities": [
    {
      "id": 6323792,
      "name": "Acorizal",
      "nativeName": "Acorizal",
      "code": "BR-MT-6323792",
      "countryId": 3469034,
      "countryCode": "BR",
      "stateCode": "BR-MT",
      "latitude": -15.17336,
      "longitude": -56.30434
    },
    {
      "id": 6323793,
      "name": "Alta Floresta",
      "nativeName": "Alta Floresta",
      "code": "BR-MT-6323793",
      "countryId": 3469034,
      "countryCode": "BR",
      "stateCode": "BR-MT",
      "latitude": -10.01997,
      "longitude": -56.30288
    },
    {
      "id": 6323794,
      "name": "Alto Araguaia",
      "nativeName": "Alto Araguaia",
      "code": "BR-MT-6323794",
      "countryId": 3469034,
      "countryCode": "BR",
      "stateCode": "BR-MT",
      "latitude": -17.48438,
      "longitude": -53.40594
    },
    {
      "id": 6319222,
      "name": "Alto Boa Vista",
      "nativeName": "Alto Boa Vista",
      "code": "BR-MT-6319222",
      "countryId": 3469034,
      "countryCode": "BR",
      "stateCode": "BR-MT",
      "latitude": -11.82825,
      "longitude": -51.74596
    },
    {
      "id": 6323795,
      "name": "Alto Garças",
      "nativeName": "Alto Garças",
      "code": "BR-MT-6323795",
      "countryId": 3469034,
      "countryCode": "BR",
      "stateCode": "BR-MT",
      "latitude": -16.81961,
      "longitude": -53.62461
    },
    {
      "id": 6323796,
      "name": "Alto Paraguai",
      "nativeName": "Alto Paraguai",
      "code": "BR-MT-6323796",
      "countryId": 3469034,
      "countryCode": "BR",
      "stateCode": "BR-MT",
      "latitude": -14.76851,
      "longitude": -56.72113
    },
    {
      "id": 6323797,
      "name": "Alto Taquari",
      "nativeName": "Alto Taquari",
      "code": "BR-MT-6323797",
      "countryId": 3469034,
      "countryCode": "BR",
      "stateCode": "BR-MT",
      "latitude": -17.76618,
      "longitude": -53.2801
    },
    {
      "id": 6323798,
      "name": "Apiacás Municipality",
      "nativeName": "Apiacás",
      "code": "BR-MT-6323798",
      "countryId": 3469034,
      "countryCode": "BR",
      "stateCode": "BR-MT",
      "latitude": -9.03962,
      "longitude": -57.75949
    },
    {
      "id": 6323799,
      "name": "Araguaiana",
      "nativeName": "Araguaiana",
      "code": "BR-MT-6323799",
      "countryId": 3469034,
      "countryCode": "BR",
      "stateCode": "BR-MT",
      "latitude": -14.99462,
      "longitude": -51.80047
    },
    {
      "id": 6323800,
      "name": "Araguainha",
      "nativeName": "Araguainha",
      "code": "BR-MT-6323800",
      "countryId": 3469034,
      "countryCode": "BR",
      "stateCode": "BR-MT",
      "latitude": -16.78427,
      "longitude": -53.07981
    },
    {
      "id": 6323801,
      "name": "Araputanga",
      "nativeName": "Araputanga",
      "code": "BR-MT-6323801",
      "countryId": 3469034,
      "countryCode": "BR",
      "stateCode": "BR-MT",
      "latitude": -15.17477,
      "longitude": -58.49729
    },
    {
      "id": 6323802,
      "name": "Arenápolis",
      "nativeName": "Arenápolis",
      "code": "BR-MT-6323802",
      "countryId": 3469034,
      "countryCode": "BR",
      "stateCode": "BR-MT",
      "latitude": -14.48214,
      "longitude": -56.85823
    },
    {
      "id": 6324143,
      "name": "Aripuanã Municipality",
      "nativeName": "Aripuanã",
      "code": "BR-MT-6324143",
      "countryId": 3469034,
      "countryCode": "BR",
      "stateCode": "BR-MT",
      "latitude": -10.22592,
      "longitude": -59.61177
    },
    {
      "id": 6323804,
      "name": "Barra do Bugres",
      "nativeName": "Barra do Bugres",
      "code": "BR-MT-6323804",
      "countryId": 3469034,
      "countryCode": "BR",
      "stateCode": "BR-MT",
      "latitude": -15.08579,
      "longitude": -57.52599
    },
    {
      "id": 6323805,
      "name": "Barra do Garças",
      "nativeName": "Barra do Garças",
      "code": "BR-MT-6323805",
      "countryId": 3469034,
      "countryCode": "BR",
      "stateCode": "BR-MT",
      "latitude": -15.3477,
      "longitude": -52.48365
    },
    {
      "id": 6323803,
      "name": "Barão de Melgaço",
      "nativeName": "Barão de Melgaço",
      "code": "BR-MT-6323803",
      "countryId": 3469034,
      "countryCode": "BR",
      "stateCode": "BR-MT",
      "latitude": -16.84513,
      "longitude": -56.21614
    },
    {
      "id": 6319218,
      "name": "Bom Jesus do Araguaia",
      "nativeName": "Bom Jesus do Araguaia",
      "code": "BR-MT-6319218",
      "countryId": 3469034,
      "countryCode": "BR",
      "stateCode": "BR-MT",
      "latitude": -12.27879,
      "longitude": -51.75156
    },
    {
      "id": 6323806,
      "name": "Brasnorte",
      "nativeName": "Brasnorte",
      "code": "BR-MT-6323806",
      "countryId": 3469034,
      "countryCode": "BR",
      "stateCode": "BR-MT",
      "latitude": -12.24899,
      "longitude": -58.00289
    },
    {
      "id": 6323807,
      "name": "Campinápolis",
      "nativeName": "Campinápolis",
      "code": "BR-MT-6323807",
      "countryId": 3469034,
      "countryCode": "BR",
      "stateCode": "BR-MT",
      "latitude": -14.30712,
      "longitude": -53.15586
    },
    {
      "id": 6323808,
      "name": "Campo Novo do Parecis",
      "nativeName": "Campo Novo do Parecis",
      "code": "BR-MT-6323808",
      "countryId": 3469034,
      "countryCode": "BR",
      "stateCode": "BR-MT",
      "latitude": -13.62657,
      "longitude": -58.02125
    },
    {
      "id": 6323809,
      "name": "Campo Verde",
      "nativeName": "Campo Verde",
      "code": "BR-MT-6323809",
      "countryId": 3469034,
      "countryCode": "BR",
      "stateCode": "BR-MT",
      "latitude": -15.37926,
      "longitude": -54.9295
    },
    {
      "id": 6323810,
      "name": "Campos de Júlio",
      "nativeName": "Campos de Júlio",
      "code": "BR-MT-6323810",
      "countryId": 3469034,
      "countryCode": "BR",
      "stateCode": "BR-MT",
      "latitude": -13.63297,
      "longitude": -59.17849
    },
    {
      "id": 6323811,
      "name": "Canabrava do Norte",
      "nativeName": "CanaBrava do Norte",
      "code": "BR-MT-6323811",
      "countryId": 3469034,
      "countryCode": "BR",
      "stateCode": "BR-MT",
      "latitude": -11.18113,
      "longitude": -51.86378
    },
    {
      "id": 6323812,
      "name": "Canarana",
      "nativeName": "Canarana",
      "code": "BR-MT-6323812",
      "countryId": 3469034,
      "countryCode": "BR",
      "stateCode": "BR-MT",
      "latitude": -13.17747,
      "longitude": -52.37104
    },
    {
      "id": 6324366,
      "name": "Carlinda",
      "nativeName": "Carlinda",
      "code": "BR-MT-6324366",
      "countryId": 3469034,
      "countryCode": "BR",
      "stateCode": "BR-MT",
      "latitude": -10.03792,
      "longitude": -55.85086
    },
    {
      "id": 6323813,
      "name": "Castanheira",
      "nativeName": "Castanheira",
      "code": "BR-MT-6323813",
      "countryId": 3469034,
      "countryCode": "BR",
      "stateCode": "BR-MT",
      "latitude": -10.87932,
      "longitude": -58.651
    },
    {
      "id": 6323814,
      "name": "Chapada dos Guimarães",
      "nativeName": "Chapada dos Guimarães",
      "code": "BR-MT-6323814",
      "countryId": 3469034,
      "countryCode": "BR",
      "stateCode": "BR-MT",
      "latitude": -15.02015,
      "longitude": -55.53735
    },
    {
      "id": 6323815,
      "name": "Cláudia",
      "nativeName": "Cláudia",
      "code": "BR-MT-6323815",
      "countryId": 3469034,
      "countryCode": "BR",
      "stateCode": "BR-MT",
      "latitude": -11.45086,
      "longitude": -54.99828
    },
    {
      "id": 6319215,
      "name": "Cocalinho",
      "nativeName": "Cocalinho",
      "code": "BR-MT-6319215",
      "countryId": 3469034,
      "countryCode": "BR",
      "stateCode": "BR-MT",
      "latitude": -13.80273,
      "longitude": -51.15344
    },
    {
      "id": 6324144,
      "name": "Colniza Municipality",
      "nativeName": "Colniza",
      "code": "BR-MT-6324144",
      "countryId": 3469034,
      "countryCode": "BR",
      "stateCode": "BR-MT",
      "latitude": -9.29188,
      "longitude": -60.30457
    },
    {
      "id": 6323816,
      "name": "Colíder",
      "nativeName": "Colíder",
      "code": "BR-MT-6323816",
      "countryId": 3469034,
      "countryCode": "BR",
      "stateCode": "BR-MT",
      "latitude": -10.56333,
      "longitude": -55.44573
    },
    {
      "id": 6323817,
      "name": "Comodoro Municipality",
      "nativeName": "Comodoro",
      "code": "BR-MT-6323817",
      "countryId": 3469034,
      "countryCode": "BR",
      "stateCode": "BR-MT",
      "latitude": -13.32583,
      "longitude": -59.82145
    },
    {
      "id": 6323818,
      "name": "Confresa",
      "nativeName": "Confresa",
      "code": "BR-MT-6323818",
      "countryId": 3469034,
      "countryCode": "BR",
      "stateCode": "BR-MT",
      "latitude": -10.30959,
      "longitude": -51.73651
    },
    {
      "id": 6324147,
      "name": "Conquista D'oeste",
      "nativeName": "Conquista D'oeste",
      "code": "BR-MT-6324147",
      "countryId": 3469034,
      "countryCode": "BR",
      "stateCode": "BR-MT",
      "latitude": -14.61506,
      "longitude": -59.26741
    },
    {
      "id": 6323819,
      "name": "Cotriguaçu",
      "nativeName": "Cotriguaçu",
      "code": "BR-MT-6323819",
      "countryId": 3469034,
      "countryCode": "BR",
      "stateCode": "BR-MT",
      "latitude": -9.50334,
      "longitude": -58.79134
    },
    {
      "id": 6323820,
      "name": "Cuiabá",
      "nativeName": "Cuiabá",
      "code": "BR-MT-6323820",
      "countryId": 3469034,
      "countryCode": "BR",
      "stateCode": "BR-MT",
      "latitude": -15.41924,
      "longitude": -55.89023
    },
    {
      "id": 6319227,
      "name": "Curvelândia",
      "nativeName": "Curvelândia",
      "code": "BR-MT-6319227",
      "countryId": 3469034,
      "countryCode": "BR",
      "stateCode": "BR-MT",
      "latitude": -15.63715,
      "longitude": -57.84548
    },
    {
      "id": 6319228,
      "name": "Cáceres Municipality",
      "nativeName": "Cáceres",
      "code": "BR-MT-6319228",
      "countryId": 3469034,
      "countryCode": "BR",
      "stateCode": "BR-MT",
      "latitude": -16.42263,
      "longitude": -57.71082
    },
    {
      "id": 6323821,
      "name": "Denise",
      "nativeName": "Denise",
      "code": "BR-MT-6323821",
      "countryId": 3469034,
      "countryCode": "BR",
      "stateCode": "BR-MT",
      "latitude": -14.75742,
      "longitude": -56.95115
    },
    {
      "id": 6323822,
      "name": "Diamantino",
      "nativeName": "Diamantino",
      "code": "BR-MT-6323822",
      "countryId": 3469034,
      "countryCode": "BR",
      "stateCode": "BR-MT",
      "latitude": -14.02239,
      "longitude": -56.77742
    },
    {
      "id": 6323823,
      "name": "Dom Aquino",
      "nativeName": "Dom Aquino",
      "code": "BR-MT-6323823",
      "countryId": 3469034,
      "countryCode": "BR",
      "stateCode": "BR-MT",
      "latitude": -15.72098,
      "longitude": -54.83043
    },
    {
      "id": 6323824,
      "name": "Feliz Natal Municipality",
      "nativeName": "Feliz Natal",
      "code": "BR-MT-6323824",
      "countryId": 3469034,
      "countryCode": "BR",
      "stateCode": "BR-MT",
      "latitude": -11.93599,
      "longitude": -54.23925
    },
    {
      "id": 6323825,
      "name": "Figueirópolis d'Oeste",
      "nativeName": "Figueirópolis d'Oeste",
      "code": "BR-MT-6323825",
      "countryId": 3469034,
      "countryCode": "BR",
      "stateCode": "BR-MT",
      "latitude": -15.487,
      "longitude": -58.69723
    },
    {
      "id": 6323826,
      "name": "Gaúcha do Norte",
      "nativeName": "Gaúcha do Norte",
      "code": "BR-MT-6323826",
      "countryId": 3469034,
      "countryCode": "BR",
      "stateCode": "BR-MT",
      "latitude": -12.99365,
      "longitude": -53.52264
    },
    {
      "id": 6323827,
      "name": "General Carneiro",
      "nativeName": "General Carneiro",
      "code": "BR-MT-6323827",
      "countryId": 3469034,
      "countryCode": "BR",
      "stateCode": "BR-MT",
      "latitude": -15.51539,
      "longitude": -53.2979
    },
    {
      "id": 6323828,
      "name": "Glória d'Oeste",
      "nativeName": "Glória d'Oeste",
      "code": "BR-MT-6323828",
      "countryId": 3469034,
      "countryCode": "BR",
      "stateCode": "BR-MT",
      "latitude": -15.91309,
      "longitude": -58.30449
    },
    {
      "id": 6324216,
      "name": "Guarantã do Norte",
      "nativeName": "Guarantã do Norte",
      "code": "BR-MT-6324216",
      "countryId": 3469034,
      "countryCode": "BR",
      "stateCode": "BR-MT",
      "latitude": -9.75597,
      "longitude": -54.7289
    },
    {
      "id": 6323829,
      "name": "Guiratinga",
      "nativeName": "Guiratinga",
      "code": "BR-MT-6323829",
      "countryId": 3469034,
      "countryCode": "BR",
      "stateCode": "BR-MT",
      "latitude": -16.36977,
      "longitude": -53.57475
    },
    {
      "id": 6323830,
      "name": "Indiavaí",
      "nativeName": "Indiavaí",
      "code": "BR-MT-6323830",
      "countryId": 3469034,
      "countryCode": "BR",
      "stateCode": "BR-MT",
      "latitude": -15.31484,
      "longitude": -58.6296
    },
    {
      "id": 7932387,
      "name": "Ipiranga do Norte",
      "nativeName": "Ipiranga do Norte",
      "code": "BR-MT-7932387",
      "countryId": 3469034,
      "countryCode": "BR",
      "stateCode": "BR-MT",
      "latitude": -12.24,
      "longitude": -56.14
    },
    {
      "id": 7932508,
      "name": "Itanhangá",
      "nativeName": "Itanhangá",
      "code": "BR-MT-7932508",
      "countryId": 3469034,
      "countryCode": "BR",
      "stateCode": "BR-MT",
      "latitude": -12.17,
      "longitude": -56.68
    },
    {
      "id": 6324166,
      "name": "Itaúba",
      "nativeName": "Itaúba",
      "code": "BR-MT-6324166",
      "countryId": 3469034,
      "countryCode": "BR",
      "stateCode": "BR-MT",
      "latitude": -11.09537,
      "longitude": -55.58848
    },
    {
      "id": 6323831,
      "name": "Itiquira",
      "nativeName": "Itiquira",
      "code": "BR-MT-6323831",
      "countryId": 3469034,
      "countryCode": "BR",
      "stateCode": "BR-MT",
      "latitude": -17.39441,
      "longitude": -54.76988
    },
    {
      "id": 6323832,
      "name": "Jaciara",
      "nativeName": "Jaciara",
      "code": "BR-MT-6323832",
      "countryId": 3469034,
      "countryCode": "BR",
      "stateCode": "BR-MT",
      "latitude": -15.8956,
      "longitude": -55.0224
    },
    {
      "id": 6323833,
      "name": "Jangada",
      "nativeName": "Jangada",
      "code": "BR-MT-6323833",
      "countryId": 3469034,
      "countryCode": "BR",
      "stateCode": "BR-MT",
      "latitude": -15.33758,
      "longitude": -56.54282
    },
    {
      "id": 6323834,
      "name": "Jauru",
      "nativeName": "Jauru",
      "code": "BR-MT-6323834",
      "countryId": 3469034,
      "countryCode": "BR",
      "stateCode": "BR-MT",
      "latitude": -15.32452,
      "longitude": -58.8458
    },
    {
      "id": 6323835,
      "name": "Juara Municipality",
      "nativeName": "Juara",
      "code": "BR-MT-6323835",
      "countryId": 3469034,
      "countryCode": "BR",
      "stateCode": "BR-MT",
      "latitude": -11.09828,
      "longitude": -57.49159
    },
    {
      "id": 6323837,
      "name": "Juruena",
      "nativeName": "Juruena",
      "code": "BR-MT-6323837",
      "countryId": 3469034,
      "countryCode": "BR",
      "stateCode": "BR-MT",
      "latitude": -10.28992,
      "longitude": -58.65303
    },
    {
      "id": 6323838,
      "name": "Juscimeira",
      "nativeName": "Juscimeira",
      "code": "BR-MT-6323838",
      "countryId": 3469034,
      "countryCode": "BR",
      "stateCode": "BR-MT",
      "latitude": -16.20525,
      "longitude": -54.88029
    },
    {
      "id": 6323836,
      "name": "Juína Municipality",
      "nativeName": "Juína",
      "code": "BR-MT-6323836",
      "countryId": 3469034,
      "countryCode": "BR",
      "stateCode": "BR-MT",
      "latitude": -11.40329,
      "longitude": -59.5081
    },
    {
      "id": 6319226,
      "name": "Lambari d'Oeste",
      "nativeName": "Lambari d'Oeste",
      "code": "BR-MT-6319226",
      "countryId": 3469034,
      "countryCode": "BR",
      "stateCode": "BR-MT",
      "latitude": -15.65457,
      "longitude": -57.78813
    },
    {
      "id": 6324217,
      "name": "Lucas do Rio Verde",
      "nativeName": "Lucas do Rio Verde",
      "code": "BR-MT-6324217",
      "countryId": 3469034,
      "countryCode": "BR",
      "stateCode": "BR-MT",
      "latitude": -13.04098,
      "longitude": -56.15577
    },
    {
      "id": 3458382,
      "name": "Luciara",
      "nativeName": "Luciara",
      "code": "BR-MT-3458382",
      "countryId": 3469034,
      "countryCode": "BR",
      "stateCode": "BR-MT",
      "latitude": -11.01415,
      "longitude": -50.94299
    },
    {
      "id": 6324164,
      "name": "Marcelândia",
      "nativeName": "Marcelândia",
      "code": "BR-MT-6324164",
      "countryId": 3469034,
      "countryCode": "BR",
      "stateCode": "BR-MT",
      "latitude": -11.00372,
      "longitude": -54.13318
    },
    {
      "id": 6324218,
      "name": "Matupá",
      "nativeName": "Matupá",
      "code": "BR-MT-6324218",
      "countryId": 3469034,
      "countryCode": "BR",
      "stateCode": "BR-MT",
      "latitude": -10.01532,
      "longitude": -54.35496
    },
    {
      "id": 6319225,
      "name": "Mirassol d'Oeste",
      "nativeName": "Mirassol d'Oeste",
      "code": "BR-MT-6319225",
      "countryId": 3469034,
      "countryCode": "BR",
      "stateCode": "BR-MT",
      "latitude": -15.63523,
      "longitude": -58.00508
    },
    {
      "id": 6324162,
      "name": "Nobres",
      "nativeName": "Nobres",
      "code": "BR-MT-6324162",
      "countryId": 3469034,
      "countryCode": "BR",
      "stateCode": "BR-MT",
      "latitude": -14.38578,
      "longitude": -55.77501
    },
    {
      "id": 6323840,
      "name": "Nortelândia",
      "nativeName": "Nortelândia",
      "code": "BR-MT-6323840",
      "countryId": 3469034,
      "countryCode": "BR",
      "stateCode": "BR-MT",
      "latitude": -14.42793,
      "longitude": -56.74152
    },
    {
      "id": 6323841,
      "name": "Nossa Senhora do Livramento",
      "nativeName": "Nossa Senhora do Livramento",
      "code": "BR-MT-6323841",
      "countryId": 3469034,
      "countryCode": "BR",
      "stateCode": "BR-MT",
      "latitude": -15.93447,
      "longitude": -56.5459
    },
    {
      "id": 6323842,
      "name": "Nova Bandeirantes",
      "nativeName": "Nova Bandeirantes",
      "code": "BR-MT-6323842",
      "countryId": 3469034,
      "countryCode": "BR",
      "stateCode": "BR-MT",
      "latitude": -9.68571,
      "longitude": -58.0184
    },
    {
      "id": 6323844,
      "name": "Nova Brasilândia",
      "nativeName": "Nova Brasilândia",
      "code": "BR-MT-6323844",
      "countryId": 3469034,
      "countryCode": "BR",
      "stateCode": "BR-MT",
      "latitude": -14.75742,
      "longitude": -55.10534
    },
    {
      "id": 6323845,
      "name": "Nova Canaã do Norte",
      "nativeName": "Nova Canaã do Norte",
      "code": "BR-MT-6323845",
      "countryId": 3469034,
      "countryCode": "BR",
      "stateCode": "BR-MT",
      "latitude": -10.71987,
      "longitude": -56.03436
    },
    {
      "id": 6323888,
      "name": "Nova Guarita",
      "nativeName": "Nova Guarita",
      "code": "BR-MT-6323888",
      "countryId": 3469034,
      "countryCode": "BR",
      "stateCode": "BR-MT",
      "latitude": -10.28525,
      "longitude": -55.3373
    },
    {
      "id": 6323843,
      "name": "Nova Lacerda",
      "nativeName": "Nova Lacerda",
      "code": "BR-MT-6323843",
      "countryId": 3469034,
      "countryCode": "BR",
      "stateCode": "BR-MT",
      "latitude": -14.26732,
      "longitude": -59.7928
    },
    {
      "id": 6319146,
      "name": "Nova Marilândia",
      "nativeName": "Nova Marilândia",
      "code": "BR-MT-6319146",
      "countryId": 3469034,
      "countryCode": "BR",
      "stateCode": "BR-MT",
      "latitude": -14.31258,
      "longitude": -57.26088
    },
    {
      "id": 6319147,
      "name": "Nova Maringá",
      "nativeName": "Nova Maringá",
      "code": "BR-MT-6319147",
      "countryId": 3469034,
      "countryCode": "BR",
      "stateCode": "BR-MT",
      "latitude": -12.98384,
      "longitude": -57.19167
    },
    {
      "id": 6323889,
      "name": "Nova Monte Verde",
      "nativeName": "Nova Monte Verde",
      "code": "BR-MT-6323889",
      "countryId": 3469034,
      "countryCode": "BR",
      "stateCode": "BR-MT",
      "latitude": -9.99743,
      "longitude": -57.29768
    },
    {
      "id": 6324219,
      "name": "Nova Mutum",
      "nativeName": "Nova Mutum",
      "code": "BR-MT-6324219",
      "countryId": 3469034,
      "countryCode": "BR",
      "stateCode": "BR-MT",
      "latitude": -13.58906,
      "longitude": -56.15193
    },
    {
      "id": 6319197,
      "name": "Nova Nazaré",
      "nativeName": "Nova Nazaré",
      "code": "BR-MT-6319197",
      "countryId": 3469034,
      "countryCode": "BR",
      "stateCode": "BR-MT",
      "latitude": -14.14648,
      "longitude": -51.79821
    },
    {
      "id": 6323846,
      "name": "Nova Olímpia",
      "nativeName": "Nova Olímpia",
      "code": "BR-MT-6323846",
      "countryId": 3469034,
      "countryCode": "BR",
      "stateCode": "BR-MT",
      "latitude": -14.79889,
      "longitude": -57.42886
    },
    {
      "id": 6324165,
      "name": "Nova Santa Helena",
      "nativeName": "Nova Santa Helena",
      "code": "BR-MT-6324165",
      "countryId": 3469034,
      "countryCode": "BR",
      "stateCode": "BR-MT",
      "latitude": -10.92036,
      "longitude": -54.90636
    },
    {
      "id": 6323847,
      "name": "Nova Ubiratã",
      "nativeName": "Nova Ubiratã",
      "code": "BR-MT-6323847",
      "countryId": 3469034,
      "countryCode": "BR",
      "stateCode": "BR-MT",
      "latitude": -12.68233,
      "longitude": -54.47729
    },
    {
      "id": 6323848,
      "name": "Nova Xavantina",
      "nativeName": "Nova Xavantina",
      "code": "BR-MT-6323848",
      "countryId": 3469034,
      "countryCode": "BR",
      "stateCode": "BR-MT",
      "latitude": -14.58752,
      "longitude": -52.3258
    },
    {
      "id": 6323849,
      "name": "Novo Horizonte do Norte",
      "nativeName": "Novo Horizonte do Norte",
      "code": "BR-MT-6323849",
      "countryId": 3469034,
      "countryCode": "BR",
      "stateCode": "BR-MT",
      "latitude": -11.37917,
      "longitude": -57.28359
    },
    {
      "id": 6324367,
      "name": "Novo Mundo",
      "nativeName": "Novo Mundo",
      "code": "BR-MT-6324367",
      "countryId": 3469034,
      "countryCode": "BR",
      "stateCode": "BR-MT",
      "latitude": -9.83661,
      "longitude": -55.31349
    },
    {
      "id": 6319196,
      "name": "Novo Santo Antônio",
      "nativeName": "Novo Santo Antônio",
      "code": "BR-MT-6319196",
      "countryId": 3469034,
      "countryCode": "BR",
      "stateCode": "BR-MT",
      "latitude": -12.32606,
      "longitude": -50.91431
    },
    {
      "id": 6324149,
      "name": "Novo São Joaquim",
      "nativeName": "Novo São Joaquim",
      "code": "BR-MT-6324149",
      "countryId": 3469034,
      "countryCode": "BR",
      "stateCode": "BR-MT",
      "latitude": -15.0957,
      "longitude": -53.29575
    },
    {
      "id": 6323851,
      "name": "Paranatinga Municipality",
      "nativeName": "Paranatinga",
      "code": "BR-MT-6323851",
      "countryId": 3469034,
      "countryCode": "BR",
      "stateCode": "BR-MT",
      "latitude": -13.34326,
      "longitude": -54.01552
    },
    {
      "id": 6323850,
      "name": "Paranaíta",
      "nativeName": "Paranaíta",
      "code": "BR-MT-6323850",
      "countryId": 3469034,
      "countryCode": "BR",
      "stateCode": "BR-MT",
      "latitude": -9.56371,
      "longitude": -56.76536
    },
    {
      "id": 6323852,
      "name": "Pedra Preta",
      "nativeName": "Pedra Preta",
      "code": "BR-MT-6323852",
      "countryId": 3469034,
      "countryCode": "BR",
      "stateCode": "BR-MT",
      "latitude": -16.76381,
      "longitude": -54.16343
    },
    {
      "id": 6324220,
      "name": "Peixoto de Azevedo",
      "nativeName": "Peixoto de Azevedo",
      "code": "BR-MT-6324220",
      "countryId": 3469034,
      "countryCode": "BR",
      "stateCode": "BR-MT",
      "latitude": -10.14722,
      "longitude": -53.58639
    },
    {
      "id": 6323853,
      "name": "Planalto da Serra",
      "nativeName": "Planalto da Serra",
      "code": "BR-MT-6323853",
      "countryId": 3469034,
      "countryCode": "BR",
      "stateCode": "BR-MT",
      "latitude": -14.56524,
      "longitude": -54.67771
    },
    {
      "id": 6323854,
      "name": "Poconé",
      "nativeName": "Poconé",
      "code": "BR-MT-6323854",
      "countryId": 3469034,
      "countryCode": "BR",
      "stateCode": "BR-MT",
      "latitude": -16.24896,
      "longitude": -56.65649
    },
    {
      "id": 6323855,
      "name": "Pontal do Araguaia",
      "nativeName": "Pontal do Araguaia",
      "code": "BR-MT-6323855",
      "countryId": 3469034,
      "countryCode": "BR",
      "stateCode": "BR-MT",
      "latitude": -15.96755,
      "longitude": -52.75421
    },
    {
      "id": 6323856,
      "name": "Ponte Branca",
      "nativeName": "Ponte Branca",
      "code": "BR-MT-6323856",
      "countryId": 3469034,
      "countryCode": "BR",
      "stateCode": "BR-MT",
      "latitude": -16.6505,
      "longitude": -52.90238
    },
    {
      "id": 6324145,
      "name": "Pontes e Lacerda",
      "nativeName": "Pontes e Lacerda",
      "code": "BR-MT-6324145",
      "countryId": 3469034,
      "countryCode": "BR",
      "stateCode": "BR-MT",
      "latitude": -15.36141,
      "longitude": -59.33403
    },
    {
      "id": 6323857,
      "name": "Porto Alegre do Norte",
      "nativeName": "Porto Alegre do Norte",
      "code": "BR-MT-6323857",
      "countryId": 3469034,
      "countryCode": "BR",
      "stateCode": "BR-MT",
      "latitude": -10.85081,
      "longitude": -51.76934
    },
    {
      "id": 6323859,
      "name": "Porto Esperidião",
      "nativeName": "Porto Esperidião",
      "code": "BR-MT-6323859",
      "countryId": 3469034,
      "countryCode": "BR",
      "stateCode": "BR-MT",
      "latitude": -15.88622,
      "longitude": -58.97107
    },
    {
      "id": 6323860,
      "name": "Porto Estrela",
      "nativeName": "Porto Estrela",
      "code": "BR-MT-6323860",
      "countryId": 3469034,
      "countryCode": "BR",
      "stateCode": "BR-MT",
      "latitude": -15.51966,
      "longitude": -57.22942
    },
    {
      "id": 6323858,
      "name": "Porto dos Gaúchos",
      "nativeName": "Porto dos Gaúchos",
      "code": "BR-MT-6323858",
      "countryId": 3469034,
      "countryCode": "BR",
      "stateCode": "BR-MT",
      "latitude": -11.76043,
      "longitude": -56.85721
    },
    {
      "id": 6323861,
      "name": "Poxoréu",
      "nativeName": "Poxoréu",
      "code": "BR-MT-6323861",
      "countryId": 3469034,
      "countryCode": "BR",
      "stateCode": "BR-MT",
      "latitude": -15.75635,
      "longitude": -54.11866
    },
    {
      "id": 6323862,
      "name": "Primavera do Leste",
      "nativeName": "Primavera do Leste",
      "code": "BR-MT-6323862",
      "countryId": 3469034,
      "countryCode": "BR",
      "stateCode": "BR-MT",
      "latitude": -15.14064,
      "longitude": -54.19501
    },
    {
      "id": 6323863,
      "name": "Querência",
      "nativeName": "Querência",
      "code": "BR-MT-6323863",
      "countryId": 3469034,
      "countryCode": "BR",
      "stateCode": "BR-MT",
      "latitude": -12.3212,
      "longitude": -52.5476
    },
    {
      "id": 6323865,
      "name": "Reserva do Cabaçal",
      "nativeName": "Reserva do Cabaçal",
      "code": "BR-MT-6323865",
      "countryId": 3469034,
      "countryCode": "BR",
      "stateCode": "BR-MT",
      "latitude": -14.92946,
      "longitude": -58.45849
    },
    {
      "id": 6319187,
      "name": "Ribeirão Cascalheira",
      "nativeName": "Ribeirão Cascalheira",
      "code": "BR-MT-6319187",
      "countryId": 3469034,
      "countryCode": "BR",
      "stateCode": "BR-MT",
      "latitude": -12.73516,
      "longitude": -51.71456
    },
    {
      "id": 6323866,
      "name": "Ribeirãozinho",
      "nativeName": "Ribeirãozinho",
      "code": "BR-MT-6323866",
      "countryId": 3469034,
      "countryCode": "BR",
      "stateCode": "BR-MT",
      "latitude": -16.50143,
      "longitude": -52.7591
    },
    {
      "id": 6323867,
      "name": "Rio Branco",
      "nativeName": "Rio Branco",
      "code": "BR-MT-6323867",
      "countryId": 3469034,
      "countryCode": "BR",
      "stateCode": "BR-MT",
      "latitude": -15.31117,
      "longitude": -58.1245
    },
    {
      "id": 6324142,
      "name": "Rondolândia",
      "nativeName": "Rondolândia",
      "code": "BR-MT-6324142",
      "countryId": 3469034,
      "countryCode": "BR",
      "stateCode": "BR-MT",
      "latitude": -10.27573,
      "longitude": -61.06224
    },
    {
      "id": 6323872,
      "name": "Rondonópolis",
      "nativeName": "Rondonópolis",
      "code": "BR-MT-6323872",
      "countryId": 3469034,
      "countryCode": "BR",
      "stateCode": "BR-MT",
      "latitude": -16.43317,
      "longitude": -54.63724
    },
    {
      "id": 6323873,
      "name": "Rosário Oeste",
      "nativeName": "Rosário Oeste",
      "code": "BR-MT-6323873",
      "countryId": 3469034,
      "countryCode": "BR",
      "stateCode": "BR-MT",
      "latitude": -14.57981,
      "longitude": -55.71482
    },
    {
      "id": 6323874,
      "name": "Salto do Céu",
      "nativeName": "Salto do Céu",
      "code": "BR-MT-6323874",
      "countryId": 3469034,
      "countryCode": "BR",
      "stateCode": "BR-MT",
      "latitude": -15.13439,
      "longitude": -57.95902
    },
    {
      "id": 6323868,
      "name": "Santa Carmem",
      "nativeName": "Santa Carmem",
      "code": "BR-MT-6323868",
      "countryId": 3469034,
      "countryCode": "BR",
      "stateCode": "BR-MT",
      "latitude": -11.90602,
      "longitude": -54.80769
    },
    {
      "id": 6324150,
      "name": "Santa Cruz do Xingu",
      "nativeName": "Santa Cruz do Xingu",
      "code": "BR-MT-6324150",
      "countryId": 3469034,
      "countryCode": "BR",
      "stateCode": "BR-MT",
      "latitude": -10.15595,
      "longitude": -52.49799
    },
    {
      "id": 6324163,
      "name": "Santa Rita do Trivelato",
      "nativeName": "Santa Rita do Trivelato",
      "code": "BR-MT-6324163",
      "countryId": 3469034,
      "countryCode": "BR",
      "stateCode": "BR-MT",
      "latitude": -13.71416,
      "longitude": -55.40171
    },
    {
      "id": 6324368,
      "name": "Santa Terezinha",
      "nativeName": "Santa Terezinha",
      "code": "BR-MT-6324368",
      "countryId": 3469034,
      "countryCode": "BR",
      "stateCode": "BR-MT",
      "latitude": -10.39138,
      "longitude": -50.83261
    },
    {
      "id": 6323869,
      "name": "Santo Afonso",
      "nativeName": "Santo Afonso",
      "code": "BR-MT-6323869",
      "countryId": 3469034,
      "countryCode": "BR",
      "stateCode": "BR-MT",
      "latitude": -14.46134,
      "longitude": -57.38575
    },
    {
      "id": 6324148,
      "name": "Santo Antônio do Leste",
      "nativeName": "Santo Antônio do Leste",
      "code": "BR-MT-6324148",
      "countryId": 3469034,
      "countryCode": "BR",
      "stateCode": "BR-MT",
      "latitude": -14.82454,
      "longitude": -53.74136
    },
    {
      "id": 6323875,
      "name": "Santo Antônio do Leverger",
      "nativeName": "Santo Antônio do Leverger",
      "code": "BR-MT-6323875",
      "countryId": 3469034,
      "countryCode": "BR",
      "stateCode": "BR-MT",
      "latitude": -16.78576,
      "longitude": -55.31327
    },
    {
      "id": 6323876,
      "name": "Sapezal",
      "nativeName": "Sapezal",
      "code": "BR-MT-6323876",
      "countryId": 3469034,
      "countryCode": "BR",
      "stateCode": "BR-MT",
      "latitude": -13.16448,
      "longitude": -58.68788
    },
    {
      "id": 6319179,
      "name": "Serra Nova Dourada",
      "nativeName": "Serra Nova Dourada",
      "code": "BR-MT-6319179",
      "countryId": 3469034,
      "countryCode": "BR",
      "stateCode": "BR-MT",
      "latitude": -12.02901,
      "longitude": -51.33412
    },
    {
      "id": 6323877,
      "name": "Sinop",
      "nativeName": "Sinop",
      "code": "BR-MT-6323877",
      "countryId": 3469034,
      "countryCode": "BR",
      "stateCode": "BR-MT",
      "latitude": -11.76411,
      "longitude": -55.44017
    },
    {
      "id": 6324221,
      "name": "Sorriso",
      "nativeName": "Sorriso",
      "code": "BR-MT-6324221",
      "countryId": 3469034,
      "countryCode": "BR",
      "stateCode": "BR-MT",
      "latitude": -12.68167,
      "longitude": -55.69953
    },
    {
      "id": 6319182,
      "name": "São Félix do Araguaia Municipality",
      "nativeName": "São Félix do Araguaia",
      "code": "BR-MT-6319182",
      "countryId": 3469034,
      "countryCode": "BR",
      "stateCode": "BR-MT",
      "latitude": -11.4423,
      "longitude": -52.13916
    },
    {
      "id": 6319145,
      "name": "São José do Povo",
      "nativeName": "São José do Povo",
      "code": "BR-MT-6319145",
      "countryId": 3469034,
      "countryCode": "BR",
      "stateCode": "BR-MT",
      "latitude": -16.44547,
      "longitude": -54.28499
    },
    {
      "id": 6323870,
      "name": "São José do Rio Claro",
      "nativeName": "São José do Rio Claro",
      "code": "BR-MT-6323870",
      "countryId": 3469034,
      "countryCode": "BR",
      "stateCode": "BR-MT",
      "latitude": -13.52704,
      "longitude": -56.85065
    },
    {
      "id": 6319161,
      "name": "São José do Xingu",
      "nativeName": "São José do Xingu",
      "code": "BR-MT-6319161",
      "countryId": 3469034,
      "countryCode": "BR",
      "stateCode": "BR-MT",
      "latitude": -10.72794,
      "longitude": -52.62112
    },
    {
      "id": 6323864,
      "name": "São José dos Quatro Marcos",
      "nativeName": "São José dos Quatro Marcos",
      "code": "BR-MT-6323864",
      "countryId": 3469034,
      "countryCode": "BR",
      "stateCode": "BR-MT",
      "latitude": -15.56664,
      "longitude": -58.29717
    },
    {
      "id": 6323871,
      "name": "São Pedro da Cipa",
      "nativeName": "São Pedro da Cipa",
      "code": "BR-MT-6323871",
      "countryId": 3469034,
      "countryCode": "BR",
      "stateCode": "BR-MT",
      "latitude": -15.95162,
      "longitude": -54.77958
    },
    {
      "id": 6323878,
      "name": "Tabaporã",
      "nativeName": "Tabaporã",
      "code": "BR-MT-6323878",
      "countryId": 3469034,
      "countryCode": "BR",
      "stateCode": "BR-MT",
      "latitude": -11.05295,
      "longitude": -56.64189
    },
    {
      "id": 6323879,
      "name": "Tangará da Serra",
      "nativeName": "Tangará da Serra",
      "code": "BR-MT-6323879",
      "countryId": 3469034,
      "countryCode": "BR",
      "stateCode": "BR-MT",
      "latitude": -14.52323,
      "longitude": -58.09862
    },
    {
      "id": 6323880,
      "name": "Tapurah",
      "nativeName": "Tapurah",
      "code": "BR-MT-6323880",
      "countryId": 3469034,
      "countryCode": "BR",
      "stateCode": "BR-MT",
      "latitude": -12.7426,
      "longitude": -56.46149
    },
    {
      "id": 6323881,
      "name": "Terra Nova do Norte",
      "nativeName": "Terra Nova do Norte",
      "code": "BR-MT-6323881",
      "countryId": 3469034,
      "countryCode": "BR",
      "stateCode": "BR-MT",
      "latitude": -10.49541,
      "longitude": -54.95547
    },
    {
      "id": 6323882,
      "name": "Tesouro",
      "nativeName": "Tesouro",
      "code": "BR-MT-6323882",
      "countryId": 3469034,
      "countryCode": "BR",
      "stateCode": "BR-MT",
      "latitude": -15.94904,
      "longitude": -53.43342
    },
    {
      "id": 6323883,
      "name": "Torixoréu",
      "nativeName": "Torixoréu",
      "code": "BR-MT-6323883",
      "countryId": 3469034,
      "countryCode": "BR",
      "stateCode": "BR-MT",
      "latitude": -16.27591,
      "longitude": -52.88117
    },
    {
      "id": 6323884,
      "name": "União do Sul",
      "nativeName": "União do Sul",
      "code": "BR-MT-6323884",
      "countryId": 3469034,
      "countryCode": "BR",
      "stateCode": "BR-MT",
      "latitude": -11.47198,
      "longitude": -54.18806
    },
    {
      "id": 6324146,
      "name": "Vale de São Domingos",
      "nativeName": "Vale de São Domingos",
      "code": "BR-MT-6324146",
      "countryId": 3469034,
      "countryCode": "BR",
      "stateCode": "BR-MT",
      "latitude": -14.9759,
      "longitude": -58.96377
    },
    {
      "id": 6323886,
      "name": "Vera",
      "nativeName": "Vera",
      "code": "BR-MT-6323886",
      "countryId": 3469034,
      "countryCode": "BR",
      "stateCode": "BR-MT",
      "latitude": -12.46612,
      "longitude": -55.3481
    },
    {
      "id": 6323839,
      "name": "Vila Bela da Santíssima Trindade",
      "nativeName": "Vila Bela da Santíssima Trindade",
      "code": "BR-MT-6323839",
      "countryId": 3469034,
      "countryCode": "BR",
      "stateCode": "BR-MT",
      "latitude": -14.89148,
      "longitude": -60.05777
    },
    {
      "id": 6323887,
      "name": "Vila Rica",
      "nativeName": "Vila Rica",
      "code": "BR-MT-6323887",
      "countryId": 3469034,
      "countryCode": "BR",
      "stateCode": "BR-MT",
      "latitude": -10.13413,
      "longitude": -51.41369
    },
    {
      "id": 6323885,
      "name": "Várzea Grande",
      "nativeName": "Várzea Grande",
      "code": "BR-MT-6323885",
      "countryId": 3469034,
      "countryCode": "BR",
      "stateCode": "BR-MT",
      "latitude": -15.56582,
      "longitude": -56.24391
    },
    {
      "id": 6319223,
      "name": "Água Boa",
      "nativeName": "Água Boa",
      "code": "BR-MT-6319223",
      "countryId": 3469034,
      "countryCode": "BR",
      "stateCode": "BR-MT",
      "latitude": -14.13584,
      "longitude": -52.49093
    }
  ]
}