{
  "stateId": 3455077,
  "stateCode": "BR-PR",
  "countryCode": "BR",
  "cities": [
    {
      "id": 6322659,
      "name": "Abatiá",
      "nativeName": "Abatiá",
      "code": "BR-PR-6322659",
      "countryId": 3469034,
      "countryCode": "BR",
      "stateCode": "BR-PR",
      "latitude": -23.29903,
      "longitude": -50.32176
    },
    {
      "id": 6322660,
      "name": "Adrianópolis",
      "nativeName": "Adrianópolis",
      "code": "BR-PR-6322660",
      "countryId": 3469034,
      "countryCode": "BR",
      "stateCode": "BR-PR",
      "latitude": -24.76632,
      "longitude": -48.79998
    },
    {
      "id": 6322661,
      "name": "Agudos do Sul",
      "nativeName": "Agudos do Sul",
      "code": "BR-PR-6322661",
      "countryId": 3469034,
      "countryCode": "BR",
      "stateCode": "BR-PR",
      "latitude": -26.04616,
      "longitude": -49.31186
    },
    {
      "id": 6322662,
      "name": "Almirante Tamandaré",
      "nativeName": "Almirante Tamandaré",
      "code": "BR-PR-6322662",
      "countryId": 3469034,
      "countryCode": "BR",
      "stateCode": "BR-PR",
      "latitude": -25.28178,
      "longitude": -49.33351
    },
    {
      "id": 6322663,
      "name": "Altamira do Paraná",
      "nativeName": "Altamira do Paraná",
      "code": "BR-PR-6322663",
      "countryId": 3469034,
      "countryCode": "BR",
      "stateCode": "BR-PR",
      "latitude": -24.81257,
      "longitude": -52.7074
    },
    {
      "id": 6322665,
      "name": "Alto Paraná",
      "nativeName": "Alto Paraná",
      "code": "BR-PR-6322665",
      "countryId": 3469034,
      "countryCode": "BR",
      "stateCode": "BR-PR",
      "latitude": -23.06783,
      "longitude": -52.31196
    },
    {
      "id": 6322666,
      "name": "Alto Piquiri",
      "nativeName": "Alto Piquiri",
      "code": "BR-PR-6322666",
      "countryId": 3469034,
      "countryCode": "BR",
      "stateCode": "BR-PR",
      "latitude": -24.12973,
      "longitude": -53.34661
    },
    {
      "id": 6322664,
      "name": "Altônia",
      "nativeName": "Altônia",
      "code": "BR-PR-6322664",
      "countryId": 3469034,
      "countryCode": "BR",
      "stateCode": "BR-PR",
      "latitude": -23.88648,
      "longitude": -53.96852
    },
    {
      "id": 6322667,
      "name": "Alvorada do Sul",
      "nativeName": "Alvorada do Sul",
      "code": "BR-PR-6322667",
      "countryId": 3469034,
      "countryCode": "BR",
      "stateCode": "BR-PR",
      "latitude": -22.80928,
      "longitude": -51.27421
    },
    {
      "id": 6322668,
      "name": "Amaporã",
      "nativeName": "Amaporã",
      "code": "BR-PR-6322668",
      "countryId": 3469034,
      "countryCode": "BR",
      "stateCode": "BR-PR",
      "latitude": -23.13633,
      "longitude": -52.8381
    },
    {
      "id": 6322669,
      "name": "Ampére",
      "nativeName": "Ampére",
      "code": "BR-PR-6322669",
      "countryId": 3469034,
      "countryCode": "BR",
      "stateCode": "BR-PR",
      "latitude": -25.91242,
      "longitude": -53.49366
    },
    {
      "id": 6322670,
      "name": "Anahy",
      "nativeName": "Anahy",
      "code": "BR-PR-6322670",
      "countryId": 3469034,
      "countryCode": "BR",
      "stateCode": "BR-PR",
      "latitude": -24.66517,
      "longitude": -53.13229
    },
    {
      "id": 6322671,
      "name": "Andirá",
      "nativeName": "Andirá",
      "code": "BR-PR-6322671",
      "countryId": 3469034,
      "countryCode": "BR",
      "stateCode": "BR-PR",
      "latitude": -23.03931,
      "longitude": -50.27404
    },
    {
      "id": 6322673,
      "name": "Antonina",
      "nativeName": "Antonina",
      "code": "BR-PR-6322673",
      "countryId": 3469034,
      "countryCode": "BR",
      "stateCode": "BR-PR",
      "latitude": -25.28425,
      "longitude": -48.72037
    },
    {
      "id": 6322674,
      "name": "Antônio Olinto",
      "nativeName": "Antônio Olinto",
      "code": "BR-PR-6322674",
      "countryId": 3469034,
      "countryCode": "BR",
      "stateCode": "BR-PR",
      "latitude": -25.96435,
      "longitude": -50.12992
    },
    {
      "id": 6322675,
      "name": "Apucarana",
      "nativeName": "Apucarana",
      "code": "BR-PR-6322675",
      "countryId": 3469034,
      "countryCode": "BR",
      "stateCode": "BR-PR",
      "latitude": -23.56159,
      "longitude": -51.45358
    },
    {
      "id": 6322676,
      "name": "Arapongas",
      "nativeName": "Arapongas",
      "code": "BR-PR-6322676",
      "countryId": 3469034,
      "countryCode": "BR",
      "stateCode": "BR-PR",
      "latitude": -23.44732,
      "longitude": -51.4595
    },
    {
      "id": 6322677,
      "name": "Arapoti",
      "nativeName": "Arapoti",
      "code": "BR-PR-6322677",
      "countryId": 3469034,
      "countryCode": "BR",
      "stateCode": "BR-PR",
      "latitude": -24.06902,
      "longitude": -50.03733
    },
    {
      "id": 6322678,
      "name": "Arapuã",
      "nativeName": "Arapuã",
      "code": "BR-PR-6322678",
      "countryId": 3469034,
      "countryCode": "BR",
      "stateCode": "BR-PR",
      "latitude": -24.31991,
      "longitude": -51.81138
    },
    {
      "id": 6322679,
      "name": "Araruna",
      "nativeName": "Araruna",
      "code": "BR-PR-6322679",
      "countryId": 3469034,
      "countryCode": "BR",
      "stateCode": "BR-PR",
      "latitude": -23.97219,
      "longitude": -52.59131
    },
    {
      "id": 6322680,
      "name": "Araucária",
      "nativeName": "Araucária",
      "code": "BR-PR-6322680",
      "countryId": 3469034,
      "countryCode": "BR",
      "stateCode": "BR-PR",
      "latitude": -25.59854,
      "longitude": -49.45864
    },
    {
      "id": 6322681,
      "name": "Ariranha do Ivaí",
      "nativeName": "Ariranha do Ivaí",
      "code": "BR-PR-6322681",
      "countryId": 3469034,
      "countryCode": "BR",
      "stateCode": "BR-PR",
      "latitude": -24.35185,
      "longitude": -51.53194
    },
    {
      "id": 6322682,
      "name": "Assaí",
      "nativeName": "Assaí",
      "code": "BR-PR-6322682",
      "countryId": 3469034,
      "countryCode": "BR",
      "stateCode": "BR-PR",
      "latitude": -23.42287,
      "longitude": -50.88329
    },
    {
      "id": 6322683,
      "name": "Assis Chateaubriand",
      "nativeName": "Assis Chateaubriand",
      "code": "BR-PR-6322683",
      "countryId": 3469034,
      "countryCode": "BR",
      "stateCode": "BR-PR",
      "latitude": -24.40824,
      "longitude": -53.53328
    },
    {
      "id": 6322684,
      "name": "Astorga",
      "nativeName": "Astorga",
      "code": "BR-PR-6322684",
      "countryId": 3469034,
      "countryCode": "BR",
      "stateCode": "BR-PR",
      "latitude": -23.24011,
      "longitude": -51.69541
    },
    {
      "id": 6322685,
      "name": "Atalaia",
      "nativeName": "Atalaia",
      "code": "BR-PR-6322685",
      "countryId": 3469034,
      "countryCode": "BR",
      "stateCode": "BR-PR",
      "latitude": -23.12728,
      "longitude": -52.04286
    },
    {
      "id": 6322686,
      "name": "Balsa Nova",
      "nativeName": "Balsa Nova",
      "code": "BR-PR-6322686",
      "countryId": 3469034,
      "countryCode": "BR",
      "stateCode": "BR-PR",
      "latitude": -25.52151,
      "longitude": -49.67738
    },
    {
      "id": 6322687,
      "name": "Bandeirantes",
      "nativeName": "Bandeirantes",
      "code": "BR-PR-6322687",
      "countryId": 3469034,
      "countryCode": "BR",
      "stateCode": "BR-PR",
      "latitude": -23.15516,
      "longitude": -50.33873
    },
    {
      "id": 6322688,
      "name": "Barbosa Ferraz",
      "nativeName": "Barbosa Ferraz",
      "code": "BR-PR-6322688",
      "countryId": 3469034,
      "countryCode": "BR",
      "stateCode": "BR-PR",
      "latitude": -24.06134,
      "longitude": -52.05494
    },
    {
      "id": 6322690,
      "name": "Barra do Jacaré",
      "nativeName": "Barra do Jacaré",
      "code": "BR-PR-6322690",
      "countryId": 3469034,
      "countryCode": "BR",
      "stateCode": "BR-PR",
      "latitude": -23.11066,
      "longitude": -50.15719
    },
    {
      "id": 6322689,
      "name": "Barracão",
      "nativeName": "Barracão",
      "code": "BR-PR-6322689",
      "countryId": 3469034,
      "countryCode": "BR",
      "stateCode": "BR-PR",
      "latitude": -26.24009,
      "longitude": -53.52586
    },
    {
      "id": 6322691,
      "name": "Bela Vista da Caroba",
      "nativeName": "Bela Vista da Caroba",
      "code": "BR-PR-6322691",
      "countryId": 3469034,
      "countryCode": "BR",
      "stateCode": "BR-PR",
      "latitude": -25.87398,
      "longitude": -53.62755
    },
    {
      "id": 6322692,
      "name": "Bela Vista do Paraíso",
      "nativeName": "Bela Vista do Paraíso",
      "code": "BR-PR-6322692",
      "countryId": 3469034,
      "countryCode": "BR",
      "stateCode": "BR-PR",
      "latitude": -22.96903,
      "longitude": -51.28003
    },
    {
      "id": 6322693,
      "name": "Bituruna",
      "nativeName": "Bituruna",
      "code": "BR-PR-6322693",
      "countryId": 3469034,
      "countryCode": "BR",
      "stateCode": "BR-PR",
      "latitude": -26.18538,
      "longitude": -51.54497
    },
    {
      "id": 6322694,
      "name": "Boa Esperança",
      "nativeName": "Boa Esperança",
      "code": "BR-PR-6322694",
      "countryId": 3469034,
      "countryCode": "BR",
      "stateCode": "BR-PR",
      "latitude": -24.24372,
      "longitude": -52.73574
    },
    {
      "id": 6322695,
      "name": "Boa Esperança do Iguaçu",
      "nativeName": "Boa Esperança do Iguaçu",
      "code": "BR-PR-6322695",
      "countryId": 3469034,
      "countryCode": "BR",
      "stateCode": "BR-PR",
      "latitude": -25.6352,
      "longitude": -53.22621
    },
    {
      "id": 6322696,
      "name": "Boa Ventura de São Roque",
      "nativeName": "Boa Ventura de São Roque",
      "code": "BR-PR-6322696",
      "countryId": 3469034,
      "countryCode": "BR",
      "stateCode": "BR-PR",
      "latitude": -24.84082,
      "longitude": -51.55638
    },
    {
      "id": 6322697,
      "name": "Boa Vista da Aparecida",
      "nativeName": "Boa Vista da Aparecida",
      "code": "BR-PR-6322697",
      "countryId": 3469034,
      "countryCode": "BR",
      "stateCode": "BR-PR",
      "latitude": -25.43709,
      "longitude": -53.41293
    },
    {
      "id": 6322698,
      "name": "Bocaiúva do Sul",
      "nativeName": "Bocaiúva do Sul",
      "code": "BR-PR-6322698",
      "countryId": 3469034,
      "countryCode": "BR",
      "stateCode": "BR-PR",
      "latitude": -25.1004,
      "longitude": -48.87116
    },
    {
      "id": 6322699,
      "name": "Bom Jesus do Sul",
      "nativeName": "Bom Jesus do Sul",
      "code": "BR-PR-6322699",
      "countryId": 3469034,
      "countryCode": "BR",
      "stateCode": "BR-PR",
      "latitude": -26.1528,
      "longitude": -53.54963
    },
    {
      "id": 6322700,
      "name": "Bom Sucesso",
      "nativeName": "Bom Sucesso",
      "code": "BR-PR-6322700",
      "countryId": 3469034,
      "countryCode": "BR",
      "stateCode": "BR-PR",
      "latitude": -23.69506,
      "longitude": -51.81945
    },
    {
      "id": 6322701,
      "name": "Bom Sucesso do Sul",
      "nativeName": "Bom Sucesso do Sul",
      "code": "BR-PR-6322701",
      "countryId": 3469034,
      "countryCode": "BR",
      "stateCode": "BR-PR",
      "latitude": -26.08239,
      "longitude": -52.85103
    },
    {
      "id": 6322702,
      "name": "Borrazópolis",
      "nativeName": "Borrazópolis",
      "code": "BR-PR-6322702",
      "countryId": 3469034,
      "countryCode": "BR",
      "stateCode": "BR-PR",
      "latitude": -23.93931,
      "longitude": -51.60141
    },
    {
      "id": 6322703,
      "name": "Braganey",
      "nativeName": "Braganey",
      "code": "BR-PR-6322703",
      "countryId": 3469034,
      "countryCode": "BR",
      "stateCode": "BR-PR",
      "latitude": -24.79019,
      "longitude": -53.08864
    },
    {
      "id": 6322704,
      "name": "Brasilândia do Sul",
      "nativeName": "Brasilândia do Sul",
      "code": "BR-PR-6322704",
      "countryId": 3469034,
      "countryCode": "BR",
      "stateCode": "BR-PR",
      "latitude": -24.21682,
      "longitude": -53.5725
    },
    {
      "id": 6322705,
      "name": "Cafeara",
      "nativeName": "Cafeara",
      "code": "BR-PR-6322705",
      "countryId": 3469034,
      "countryCode": "BR",
      "stateCode": "BR-PR",
      "latitude": -22.7998,
      "longitude": -51.71428
    },
    {
      "id": 6322706,
      "name": "Cafelândia",
      "nativeName": "Cafelândia",
      "code": "BR-PR-6322706",
      "countryId": 3469034,
      "countryCode": "BR",
      "stateCode": "BR-PR",
      "latitude": -24.69297,
      "longitude": -53.3509
    },
    {
      "id": 6322707,
      "name": "Cafezal do Sul",
      "nativeName": "Cafezal do Sul",
      "code": "BR-PR-6322707",
      "countryId": 3469034,
      "countryCode": "BR",
      "stateCode": "BR-PR",
      "latitude": -23.95645,
      "longitude": -53.6091
    },
    {
      "id": 6322708,
      "name": "Califórnia",
      "nativeName": "Califórnia",
      "code": "BR-PR-6322708",
      "countryId": 3469034,
      "countryCode": "BR",
      "stateCode": "BR-PR",
      "latitude": -23.6634,
      "longitude": -51.32824
    },
    {
      "id": 6322709,
      "name": "Cambará",
      "nativeName": "Cambará",
      "code": "BR-PR-6322709",
      "countryId": 3469034,
      "countryCode": "BR",
      "stateCode": "BR-PR",
      "latitude": -23.0042,
      "longitude": -50.08819
    },
    {
      "id": 6322711,
      "name": "Cambira",
      "nativeName": "Cambira",
      "code": "BR-PR-6322711",
      "countryId": 3469034,
      "countryCode": "BR",
      "stateCode": "BR-PR",
      "latitude": -23.63164,
      "longitude": -51.56671
    },
    {
      "id": 6322710,
      "name": "Cambé",
      "nativeName": "Cambé",
      "code": "BR-PR-6322710",
      "countryId": 3469034,
      "countryCode": "BR",
      "stateCode": "BR-PR",
      "latitude": -23.18029,
      "longitude": -51.29498
    },
    {
      "id": 6322714,
      "name": "Campina Grande do Sul",
      "nativeName": "Campina Grande do Sul",
      "code": "BR-PR-6322714",
      "countryId": 3469034,
      "countryCode": "BR",
      "stateCode": "BR-PR",
      "latitude": -25.18427,
      "longitude": -48.87208
    },
    {
      "id": 6322712,
      "name": "Campina da Lagoa",
      "nativeName": "Campina da Lagoa",
      "code": "BR-PR-6322712",
      "countryId": 3469034,
      "countryCode": "BR",
      "stateCode": "BR-PR",
      "latitude": -24.60154,
      "longitude": -52.78545
    },
    {
      "id": 6322713,
      "name": "Campina do Simão",
      "nativeName": "Campina do Simão",
      "code": "BR-PR-6322713",
      "countryId": 3469034,
      "countryCode": "BR",
      "stateCode": "BR-PR",
      "latitude": -25.08478,
      "longitude": -51.78423
    },
    {
      "id": 6322715,
      "name": "Campo Bonito",
      "nativeName": "Campo Bonito",
      "code": "BR-PR-6322715",
      "countryId": 3469034,
      "countryCode": "BR",
      "stateCode": "BR-PR",
      "latitude": -24.88808,
      "longitude": -53.01009
    },
    {
      "id": 6322717,
      "name": "Campo Largo",
      "nativeName": "Campo Largo",
      "code": "BR-PR-6322717",
      "countryId": 3469034,
      "countryCode": "BR",
      "stateCode": "BR-PR",
      "latitude": -25.28411,
      "longitude": -49.59612
    },
    {
      "id": 6322718,
      "name": "Campo Magro",
      "nativeName": "Campo Magro",
      "code": "BR-PR-6322718",
      "countryId": 3469034,
      "countryCode": "BR",
      "stateCode": "BR-PR",
      "latitude": -25.26822,
      "longitude": -49.4758
    },
    {
      "id": 6322719,
      "name": "Campo Mourão",
      "nativeName": "Campo Mourão",
      "code": "BR-PR-6322719",
      "countryId": 3469034,
      "countryCode": "BR",
      "stateCode": "BR-PR",
      "latitude": -24.11906,
      "longitude": -52.39187
    },
    {
      "id": 6322716,
      "name": "Campo do Tenente",
      "nativeName": "Campo do Tenente",
      "code": "BR-PR-6322716",
      "countryId": 3469034,
      "countryCode": "BR",
      "stateCode": "BR-PR",
      "latitude": -25.95791,
      "longitude": -49.65936
    },
    {
      "id": 6322721,
      "name": "Candói",
      "nativeName": "Candói",
      "code": "BR-PR-6322721",
      "countryId": 3469034,
      "countryCode": "BR",
      "stateCode": "BR-PR",
      "latitude": -25.51315,
      "longitude": -52.02243
    },
    {
      "id": 6322722,
      "name": "Cantagalo",
      "nativeName": "Cantagalo",
      "code": "BR-PR-6322722",
      "countryId": 3469034,
      "countryCode": "BR",
      "stateCode": "BR-PR",
      "latitude": -25.2953,
      "longitude": -52.15269
    },
    {
      "id": 6322723,
      "name": "Capanema",
      "nativeName": "Capanema",
      "code": "BR-PR-6322723",
      "countryId": 3469034,
      "countryCode": "BR",
      "stateCode": "BR-PR",
      "latitude": -25.61839,
      "longitude": -53.79262
    },
    {
      "id": 6322724,
      "name": "Capitão Leônidas Marques",
      "nativeName": "Capitão Leônidas Marques",
      "code": "BR-PR-6322724",
      "countryId": 3469034,
      "countryCode": "BR",
      "stateCode": "BR-PR",
      "latitude": -25.47998,
      "longitude": -53.58797
    },
    {
      "id": 6322725,
      "name": "Carambeí",
      "nativeName": "Carambeí",
      "code": "BR-PR-6322725",
      "countryId": 3469034,
      "countryCode": "BR",
      "stateCode": "BR-PR",
      "latitude": -24.90917,
      "longitude": -50.12717
    },
    {
      "id": 6322726,
      "name": "Carlópolis",
      "nativeName": "Carlópolis",
      "code": "BR-PR-6322726",
      "countryId": 3469034,
      "countryCode": "BR",
      "stateCode": "BR-PR",
      "latitude": -23.44971,
      "longitude": -49.70142
    },
    {
      "id": 6322727,
      "name": "Cascavel",
      "nativeName": "Cascavel",
      "code": "BR-PR-6322727",
      "countryId": 3469034,
      "countryCode": "BR",
      "stateCode": "BR-PR",
      "latitude": -25.05252,
      "longitude": -53.38807
    },
    {
      "id": 6322728,
      "name": "Castro",
      "nativeName": "Castro",
      "code": "BR-PR-6322728",
      "countryId": 3469034,
      "countryCode": "BR",
      "stateCode": "BR-PR",
      "latitude": -24.8304,
      "longitude": -49.85535
    },
    {
      "id": 6322729,
      "name": "Catanduvas",
      "nativeName": "Catanduvas",
      "code": "BR-PR-6322729",
      "countryId": 3469034,
      "countryCode": "BR",
      "stateCode": "BR-PR",
      "latitude": -25.26047,
      "longitude": -53.17016
    },
    {
      "id": 6322730,
      "name": "Centenário do Sul",
      "nativeName": "Centenário do Sul",
      "code": "BR-PR-6322730",
      "countryId": 3469034,
      "countryCode": "BR",
      "stateCode": "BR-PR",
      "latitude": -22.80933,
      "longitude": -51.54586
    },
    {
      "id": 6322731,
      "name": "Cerro Azul",
      "nativeName": "Cerro Azul",
      "code": "BR-PR-6322731",
      "countryId": 3469034,
      "countryCode": "BR",
      "stateCode": "BR-PR",
      "latitude": -24.85878,
      "longitude": -49.29561
    },
    {
      "id": 6322733,
      "name": "Chopinzinho",
      "nativeName": "Chopinzinho",
      "code": "BR-PR-6322733",
      "countryId": 3469034,
      "countryCode": "BR",
      "stateCode": "BR-PR",
      "latitude": -25.81428,
      "longitude": -52.45682
    },
    {
      "id": 6322734,
      "name": "Cianorte",
      "nativeName": "Cianorte",
      "code": "BR-PR-6322734",
      "countryId": 3469034,
      "countryCode": "BR",
      "stateCode": "BR-PR",
      "latitude": -23.69998,
      "longitude": -52.59033
    },
    {
      "id": 6322735,
      "name": "Cidade Gaúcha",
      "nativeName": "Cidade Gaúcha",
      "code": "BR-PR-6322735",
      "countryId": 3469034,
      "countryCode": "BR",
      "stateCode": "BR-PR",
      "latitude": -23.36535,
      "longitude": -52.97466
    },
    {
      "id": 6322736,
      "name": "Clevelândia",
      "nativeName": "Clevelândia",
      "code": "BR-PR-6322736",
      "countryId": 3469034,
      "countryCode": "BR",
      "stateCode": "BR-PR",
      "latitude": -26.30528,
      "longitude": -52.368
    },
    {
      "id": 6322737,
      "name": "Colombo",
      "nativeName": "Colombo",
      "code": "BR-PR-6322737",
      "countryId": 3469034,
      "countryCode": "BR",
      "stateCode": "BR-PR",
      "latitude": -25.30126,
      "longitude": -49.16965
    },
    {
      "id": 6322738,
      "name": "Colorado",
      "nativeName": "Colorado",
      "code": "BR-PR-6322738",
      "countryId": 3469034,
      "countryCode": "BR",
      "stateCode": "BR-PR",
      "latitude": -22.83827,
      "longitude": -51.98015
    },
    {
      "id": 6322739,
      "name": "Congonhinhas",
      "nativeName": "Congonhinhas",
      "code": "BR-PR-6322739",
      "countryId": 3469034,
      "countryCode": "BR",
      "stateCode": "BR-PR",
      "latitude": -23.62943,
      "longitude": -50.49858
    },
    {
      "id": 6322740,
      "name": "Conselheiro Mairinck",
      "nativeName": "Conselheiro Mairinck",
      "code": "BR-PR-6322740",
      "countryId": 3469034,
      "countryCode": "BR",
      "stateCode": "BR-PR",
      "latitude": -23.58771,
      "longitude": -50.11629
    },
    {
      "id": 6322741,
      "name": "Contenda",
      "nativeName": "Contenda",
      "code": "BR-PR-6322741",
      "countryId": 3469034,
      "countryCode": "BR",
      "stateCode": "BR-PR",
      "latitude": -25.71409,
      "longitude": -49.50798
    },
    {
      "id": 6322742,
      "name": "Corbélia",
      "nativeName": "Corbélia",
      "code": "BR-PR-6322742",
      "countryId": 3469034,
      "countryCode": "BR",
      "stateCode": "BR-PR",
      "latitude": -24.72684,
      "longitude": -53.23327
    },
    {
      "id": 6322743,
      "name": "Cornélio Procópio",
      "nativeName": "Cornélio Procópio",
      "code": "BR-PR-6322743",
      "countryId": 3469034,
      "countryCode": "BR",
      "stateCode": "BR-PR",
      "latitude": -23.23704,
      "longitude": -50.61888
    },
    {
      "id": 6322744,
      "name": "Coronel Domingos Soares",
      "nativeName": "Coronel Domingos Soares",
      "code": "BR-PR-6322744",
      "countryId": 3469034,
      "countryCode": "BR",
      "stateCode": "BR-PR",
      "latitude": -26.1829,
      "longitude": -51.97777
    },
    {
      "id": 6322745,
      "name": "Coronel Vivida",
      "nativeName": "Coronel Vivida",
      "code": "BR-PR-6322745",
      "countryId": 3469034,
      "countryCode": "BR",
      "stateCode": "BR-PR",
      "latitude": -26.00108,
      "longitude": -52.59599
    },
    {
      "id": 6322746,
      "name": "Corumbataí do Sul",
      "nativeName": "Corumbataí do Sul",
      "code": "BR-PR-6322746",
      "countryId": 3469034,
      "countryCode": "BR",
      "stateCode": "BR-PR",
      "latitude": -24.12007,
      "longitude": -52.14622
    },
    {
      "id": 6322750,
      "name": "Cruz Machado",
      "nativeName": "Cruz Machado",
      "code": "BR-PR-6322750",
      "countryId": 3469034,
      "countryCode": "BR",
      "stateCode": "BR-PR",
      "latitude": -25.91086,
      "longitude": -51.22563
    },
    {
      "id": 6322747,
      "name": "Cruzeiro do Iguaçu",
      "nativeName": "Cruzeiro do Iguaçu",
      "code": "BR-PR-6322747",
      "countryId": 3469034,
      "countryCode": "BR",
      "stateCode": "BR-PR",
      "latitude": -25.60303,
      "longitude": -53.12736
    },
    {
      "id": 6322748,
      "name": "Cruzeiro do Oeste",
      "nativeName": "Cruzeiro do Oeste",
      "code": "BR-PR-6322748",
      "countryId": 3469034,
      "countryCode": "BR",
      "stateCode": "BR-PR",
      "latitude": -23.80968,
      "longitude": -53.08429
    },
    {
      "id": 6322749,
      "name": "Cruzeiro do Sul",
      "nativeName": "Cruzeiro do Sul",
      "code": "BR-PR-6322749",
      "countryId": 3469034,
      "countryCode": "BR",
      "stateCode": "BR-PR",
      "latitude": -22.97418,
      "longitude": -52.15969
    },
    {
      "id": 6322751,
      "name": "Cruzmaltina",
      "nativeName": "Cruzmaltina",
      "code": "BR-PR-6322751",
      "countryId": 3469034,
      "countryCode": "BR",
      "stateCode": "BR-PR",
      "latitude": -24.02357,
      "longitude": -51.48481
    },
    {
      "id": 6322752,
      "name": "Curitiba",
      "nativeName": "Curitiba",
      "code": "BR-PR-6322752",
      "countryId": 3469034,
      "countryCode": "BR",
      "stateCode": "BR-PR",
      "latitude": -25.50395,
      "longitude": -49.29082
    },
    {
      "id": 6322753,
      "name": "Curiúva",
      "nativeName": "Curiúva",
      "code": "BR-PR-6322753",
      "countryId": 3469034,
      "countryCode": "BR",
      "stateCode": "BR-PR",
      "latitude": -24.00386,
      "longitude": -50.46541
    },
    {
      "id": 6322720,
      "name": "Cândido de Abreu",
      "nativeName": "Cândido de Abreu",
      "code": "BR-PR-6322720",
      "countryId": 3469034,
      "countryCode": "BR",
      "stateCode": "BR-PR",
      "latitude": -24.67055,
      "longitude": -51.25748
    },
    {
      "id": 6322732,
      "name": "Céu Azul",
      "nativeName": "Céu Azul",
      "code": "BR-PR-6322732",
      "countryId": 3469034,
      "countryCode": "BR",
      "stateCode": "BR-PR",
      "latitude": -25.29831,
      "longitude": -53.74848
    },
    {
      "id": 6322756,
      "name": "Diamante d'Oeste",
      "nativeName": "Diamante d'Oeste",
      "code": "BR-PR-6322756",
      "countryId": 3469034,
      "countryCode": "BR",
      "stateCode": "BR-PR",
      "latitude": -24.94559,
      "longitude": -54.10349
    },
    {
      "id": 6322754,
      "name": "Diamante do Norte",
      "nativeName": "Diamante do Norte",
      "code": "BR-PR-6322754",
      "countryId": 3469034,
      "countryCode": "BR",
      "stateCode": "BR-PR",
      "latitude": -22.63752,
      "longitude": -52.8728
    },
    {
      "id": 6322755,
      "name": "Diamante do Sul",
      "nativeName": "Diamante do Sul",
      "code": "BR-PR-6322755",
      "countryId": 3469034,
      "countryCode": "BR",
      "stateCode": "BR-PR",
      "latitude": -24.9868,
      "longitude": -52.70134
    },
    {
      "id": 6322757,
      "name": "Dois Vizinhos",
      "nativeName": "Dois Vizinhos",
      "code": "BR-PR-6322757",
      "countryId": 3469034,
      "countryCode": "BR",
      "stateCode": "BR-PR",
      "latitude": -25.74577,
      "longitude": -53.09132
    },
    {
      "id": 6322758,
      "name": "Douradina",
      "nativeName": "Douradina",
      "code": "BR-PR-6322758",
      "countryId": 3469034,
      "countryCode": "BR",
      "stateCode": "BR-PR",
      "latitude": -23.3404,
      "longitude": -53.27489
    },
    {
      "id": 6322759,
      "name": "Doutor Camargo",
      "nativeName": "Doutor Camargo",
      "code": "BR-PR-6322759",
      "countryId": 3469034,
      "countryCode": "BR",
      "stateCode": "BR-PR",
      "latitude": -23.56158,
      "longitude": -52.22341
    },
    {
      "id": 6322761,
      "name": "Engenheiro Beltrão",
      "nativeName": "Engenheiro Beltrão",
      "code": "BR-PR-6322761",
      "countryId": 3469034,
      "countryCode": "BR",
      "stateCode": "BR-PR",
      "latitude": -23.75543,
      "longitude": -52.20893
    },
    {
      "id": 6322763,
      "name": "Entre Rios do Oeste",
      "nativeName": "Entre Rios do Oeste",
      "code": "BR-PR-6322763",
      "countryId": 3469034,
      "countryCode": "BR",
      "stateCode": "BR-PR",
      "latitude": -24.70408,
      "longitude": -54.21562
    },
    {
      "id": 6322760,
      "name": "Enéas Marques",
      "nativeName": "Enéas Marques",
      "code": "BR-PR-6322760",
      "countryId": 3469034,
      "countryCode": "BR",
      "stateCode": "BR-PR",
      "latitude": -25.86454,
      "longitude": -53.15902
    },
    {
      "id": 6322762,
      "name": "Esperança Nova",
      "nativeName": "Esperança Nova",
      "code": "BR-PR-6322762",
      "countryId": 3469034,
      "countryCode": "BR",
      "stateCode": "BR-PR",
      "latitude": -23.71008,
      "longitude": -53.79362
    },
    {
      "id": 6322764,
      "name": "Espigão Alto do Iguaçu",
      "nativeName": "Espigão Alto do Iguaçu",
      "code": "BR-PR-6322764",
      "countryId": 3469034,
      "countryCode": "BR",
      "stateCode": "BR-PR",
      "latitude": -25.35011,
      "longitude": -52.77923
    },
    {
      "id": 6322765,
      "name": "Farol",
      "nativeName": "Farol",
      "code": "BR-PR-6322765",
      "countryId": 3469034,
      "countryCode": "BR",
      "stateCode": "BR-PR",
      "latitude": -24.10348,
      "longitude": -52.66314
    },
    {
      "id": 6322766,
      "name": "Faxinal",
      "nativeName": "Faxinal",
      "code": "BR-PR-6322766",
      "countryId": 3469034,
      "countryCode": "BR",
      "stateCode": "BR-PR",
      "latitude": -24.02657,
      "longitude": -51.30121
    },
    {
      "id": 6322767,
      "name": "Fazenda Rio Grande",
      "nativeName": "Fazenda Rio Grande",
      "code": "BR-PR-6322767",
      "countryId": 3469034,
      "countryCode": "BR",
      "stateCode": "BR-PR",
      "latitude": -25.66466,
      "longitude": -49.30426
    },
    {
      "id": 6322769,
      "name": "Fernandes Pinheiro",
      "nativeName": "Fernandes Pinheiro",
      "code": "BR-PR-6322769",
      "countryId": 3469034,
      "countryCode": "BR",
      "stateCode": "BR-PR",
      "latitude": -25.44403,
      "longitude": -50.51811
    },
    {
      "id": 6322770,
      "name": "Figueira",
      "nativeName": "Figueira",
      "code": "BR-PR-6322770",
      "countryId": 3469034,
      "countryCode": "BR",
      "stateCode": "BR-PR",
      "latitude": -23.86125,
      "longitude": -50.42076
    },
    {
      "id": 6322772,
      "name": "Flor da Serra do Sul",
      "nativeName": "Flor da Serra do Sul",
      "code": "BR-PR-6322772",
      "countryId": 3469034,
      "countryCode": "BR",
      "stateCode": "BR-PR",
      "latitude": -26.23081,
      "longitude": -53.30368
    },
    {
      "id": 6322771,
      "name": "Floraí",
      "nativeName": "Floraí",
      "code": "BR-PR-6322771",
      "countryId": 3469034,
      "countryCode": "BR",
      "stateCode": "BR-PR",
      "latitude": -23.3283,
      "longitude": -52.32422
    },
    {
      "id": 6322773,
      "name": "Floresta",
      "nativeName": "Floresta",
      "code": "BR-PR-6322773",
      "countryId": 3469034,
      "countryCode": "BR",
      "stateCode": "BR-PR",
      "latitude": -23.63014,
      "longitude": -52.0763
    },
    {
      "id": 6322774,
      "name": "Florestópolis",
      "nativeName": "Florestópolis",
      "code": "BR-PR-6322774",
      "countryId": 3469034,
      "countryCode": "BR",
      "stateCode": "BR-PR",
      "latitude": -22.90122,
      "longitude": -51.37632
    },
    {
      "id": 6322775,
      "name": "Flórida",
      "nativeName": "Flórida",
      "code": "BR-PR-6322775",
      "countryId": 3469034,
      "countryCode": "BR",
      "stateCode": "BR-PR",
      "latitude": -23.11265,
      "longitude": -51.97861
    },
    {
      "id": 6322776,
      "name": "Formosa do Oeste",
      "nativeName": "Formosa do Oeste",
      "code": "BR-PR-6322776",
      "countryId": 3469034,
      "countryCode": "BR",
      "stateCode": "BR-PR",
      "latitude": -24.30836,
      "longitude": -53.32776
    },
    {
      "id": 6322777,
      "name": "Foz do Iguaçu",
      "nativeName": "Foz do Iguaçu",
      "code": "BR-PR-6322777",
      "countryId": 3469034,
      "countryCode": "BR",
      "stateCode": "BR-PR",
      "latitude": -25.45309,
      "longitude": -54.55235
    },
    {
      "id": 6322780,
      "name": "Foz do Jordão",
      "nativeName": "Foz do Jordão",
      "code": "BR-PR-6322780",
      "countryId": 3469034,
      "countryCode": "BR",
      "stateCode": "BR-PR",
      "latitude": -25.69523,
      "longitude": -52.06075
    },
    {
      "id": 6322778,
      "name": "Francisco Alves",
      "nativeName": "Francisco Alves",
      "code": "BR-PR-6322778",
      "countryId": 3469034,
      "countryCode": "BR",
      "stateCode": "BR-PR",
      "latitude": -24.0651,
      "longitude": -53.88444
    },
    {
      "id": 6322779,
      "name": "Francisco Beltrão",
      "nativeName": "Francisco Beltrão",
      "code": "BR-PR-6322779",
      "countryId": 3469034,
      "countryCode": "BR",
      "stateCode": "BR-PR",
      "latitude": -26.06439,
      "longitude": -53.12544
    },
    {
      "id": 6322768,
      "name": "Fênix",
      "nativeName": "Fênix",
      "code": "BR-PR-6322768",
      "countryId": 3469034,
      "countryCode": "BR",
      "stateCode": "BR-PR",
      "latitude": -23.90551,
      "longitude": -52.03998
    },
    {
      "id": 6322781,
      "name": "General Carneiro",
      "nativeName": "General Carneiro",
      "code": "BR-PR-6322781",
      "countryId": 3469034,
      "countryCode": "BR",
      "stateCode": "BR-PR",
      "latitude": -26.43749,
      "longitude": -51.40075
    },
    {
      "id": 6322782,
      "name": "Godoy Moreira",
      "nativeName": "Godoy Moreira",
      "code": "BR-PR-6322782",
      "countryId": 3469034,
      "countryCode": "BR",
      "stateCode": "BR-PR",
      "latitude": -24.14813,
      "longitude": -51.91555
    },
    {
      "id": 6322783,
      "name": "Goioerê",
      "nativeName": "Goioerê",
      "code": "BR-PR-6322783",
      "countryId": 3469034,
      "countryCode": "BR",
      "stateCode": "BR-PR",
      "latitude": -24.18868,
      "longitude": -53.09916
    },
    {
      "id": 6322784,
      "name": "Goioxim",
      "nativeName": "Goioxim",
      "code": "BR-PR-6322784",
      "countryId": 3469034,
      "countryCode": "BR",
      "stateCode": "BR-PR",
      "latitude": -25.09533,
      "longitude": -52.00812
    },
    {
      "id": 6322785,
      "name": "Grandes Rios",
      "nativeName": "Grandes Rios",
      "code": "BR-PR-6322785",
      "countryId": 3469034,
      "countryCode": "BR",
      "stateCode": "BR-PR",
      "latitude": -24.18645,
      "longitude": -51.4346
    },
    {
      "id": 6322787,
      "name": "Guairaçá",
      "nativeName": "Guairaçá",
      "code": "BR-PR-6322787",
      "countryId": 3469034,
      "countryCode": "BR",
      "stateCode": "BR-PR",
      "latitude": -22.90548,
      "longitude": -52.74878
    },
    {
      "id": 6322788,
      "name": "Guamiranga",
      "nativeName": "Guamiranga",
      "code": "BR-PR-6322788",
      "countryId": 3469034,
      "countryCode": "BR",
      "stateCode": "BR-PR",
      "latitude": -25.15028,
      "longitude": -50.86182
    },
    {
      "id": 6322789,
      "name": "Guapirama",
      "nativeName": "Guapirama",
      "code": "BR-PR-6322789",
      "countryId": 3469034,
      "countryCode": "BR",
      "stateCode": "BR-PR",
      "latitude": -23.4684,
      "longitude": -50.09128
    },
    {
      "id": 6322790,
      "name": "Guaporema",
      "nativeName": "Guaporema",
      "code": "BR-PR-6322790",
      "countryId": 3469034,
      "countryCode": "BR",
      "stateCode": "BR-PR",
      "latitude": -23.31022,
      "longitude": -52.82479
    },
    {
      "id": 6322791,
      "name": "Guaraci",
      "nativeName": "Guaraci",
      "code": "BR-PR-6322791",
      "countryId": 3469034,
      "countryCode": "BR",
      "stateCode": "BR-PR",
      "latitude": -22.97343,
      "longitude": -51.69739
    },
    {
      "id": 6322792,
      "name": "Guaraniaçu",
      "nativeName": "Guaraniaçu",
      "code": "BR-PR-6322792",
      "countryId": 3469034,
      "countryCode": "BR",
      "stateCode": "BR-PR",
      "latitude": -25.07977,
      "longitude": -52.87644
    },
    {
      "id": 6322793,
      "name": "Guarapuava",
      "nativeName": "Guarapuava",
      "code": "BR-PR-6322793",
      "countryId": 3469034,
      "countryCode": "BR",
      "stateCode": "BR-PR",
      "latitude": -25.39858,
      "longitude": -51.45998
    },
    {
      "id": 6322794,
      "name": "Guaraqueçaba",
      "nativeName": "Guaraqueçaba",
      "code": "BR-PR-6322794",
      "countryId": 3469034,
      "countryCode": "BR",
      "stateCode": "BR-PR",
      "latitude": -25.15156,
      "longitude": -48.35949
    },
    {
      "id": 6322795,
      "name": "Guaratuba",
      "nativeName": "Guaratuba",
      "code": "BR-PR-6322795",
      "countryId": 3469034,
      "countryCode": "BR",
      "stateCode": "BR-PR",
      "latitude": -25.80341,
      "longitude": -48.80395
    },
    {
      "id": 6322786,
      "name": "Guaíra",
      "nativeName": "Guaíra",
      "code": "BR-PR-6322786",
      "countryId": 3469034,
      "countryCode": "BR",
      "stateCode": "BR-PR",
      "latitude": -24.26175,
      "longitude": -54.23821
    },
    {
      "id": 6322796,
      "name": "Honório Serpa",
      "nativeName": "Honório Serpa",
      "code": "BR-PR-6322796",
      "countryId": 3469034,
      "countryCode": "BR",
      "stateCode": "BR-PR",
      "latitude": -26.13779,
      "longitude": -52.39614
    },
    {
      "id": 6322797,
      "name": "Ibaiti",
      "nativeName": "Ibaiti",
      "code": "BR-PR-6322797",
      "countryId": 3469034,
      "countryCode": "BR",
      "stateCode": "BR-PR",
      "latitude": -23.80428,
      "longitude": -50.3156
    },
    {
      "id": 6322798,
      "name": "Ibema",
      "nativeName": "Ibema",
      "code": "BR-PR-6322798",
      "countryId": 3469034,
      "countryCode": "BR",
      "stateCode": "BR-PR",
      "latitude": -25.16493,
      "longitude": -53.01268
    },
    {
      "id": 6322799,
      "name": "Ibiporã",
      "nativeName": "Ibiporã",
      "code": "BR-PR-6322799",
      "countryId": 3469034,
      "countryCode": "BR",
      "stateCode": "BR-PR",
      "latitude": -23.22762,
      "longitude": -51.03104
    },
    {
      "id": 6322800,
      "name": "Icaraíma",
      "nativeName": "Icaraíma",
      "code": "BR-PR-6322800",
      "countryId": 3469034,
      "countryCode": "BR",
      "stateCode": "BR-PR",
      "latitude": -23.37235,
      "longitude": -53.59492
    },
    {
      "id": 6322801,
      "name": "Iguaraçu",
      "nativeName": "Iguaraçu",
      "code": "BR-PR-6322801",
      "countryId": 3469034,
      "countryCode": "BR",
      "stateCode": "BR-PR",
      "latitude": -23.23375,
      "longitude": -51.85341
    },
    {
      "id": 6324250,
      "name": "Iguatu",
      "nativeName": "Iguatu",
      "code": "BR-PR-6324250",
      "countryId": 3469034,
      "countryCode": "BR",
      "stateCode": "BR-PR",
      "latitude": -24.68784,
      "longitude": -53.08691
    },
    {
      "id": 6322802,
      "name": "Imbaú",
      "nativeName": "Imbaú",
      "code": "BR-PR-6322802",
      "countryId": 3469034,
      "countryCode": "BR",
      "stateCode": "BR-PR",
      "latitude": -24.44336,
      "longitude": -50.73882
    },
    {
      "id": 6322803,
      "name": "Imbituva",
      "nativeName": "Imbituva",
      "code": "BR-PR-6322803",
      "countryId": 3469034,
      "countryCode": "BR",
      "stateCode": "BR-PR",
      "latitude": -25.22508,
      "longitude": -50.62927
    },
    {
      "id": 6322805,
      "name": "Inajá",
      "nativeName": "Inajá",
      "code": "BR-PR-6322805",
      "countryId": 3469034,
      "countryCode": "BR",
      "stateCode": "BR-PR",
      "latitude": -22.71509,
      "longitude": -52.24126
    },
    {
      "id": 6322806,
      "name": "Indianópolis",
      "nativeName": "Indianópolis",
      "code": "BR-PR-6322806",
      "countryId": 3469034,
      "countryCode": "BR",
      "stateCode": "BR-PR",
      "latitude": -23.47975,
      "longitude": -52.64153
    },
    {
      "id": 6322804,
      "name": "Inácio Martins",
      "nativeName": "Inácio Martins",
      "code": "BR-PR-6322804",
      "countryId": 3469034,
      "countryCode": "BR",
      "stateCode": "BR-PR",
      "latitude": -25.64,
      "longitude": -51.22
    },
    {
      "id": 6322807,
      "name": "Ipiranga",
      "nativeName": "Ipiranga",
      "code": "BR-PR-6322807",
      "countryId": 3469034,
      "countryCode": "BR",
      "stateCode": "BR-PR",
      "latitude": -25.0159,
      "longitude": -50.55475
    },
    {
      "id": 6322808,
      "name": "Iporã",
      "nativeName": "Iporã",
      "code": "BR-PR-6322808",
      "countryId": 3469034,
      "countryCode": "BR",
      "stateCode": "BR-PR",
      "latitude": -24.04512,
      "longitude": -53.71983
    },
    {
      "id": 6322809,
      "name": "Iracema do Oeste",
      "nativeName": "Iracema do Oeste",
      "code": "BR-PR-6322809",
      "countryId": 3469034,
      "countryCode": "BR",
      "stateCode": "BR-PR",
      "latitude": -24.43665,
      "longitude": -53.33842
    },
    {
      "id": 6322810,
      "name": "Irati",
      "nativeName": "Irati",
      "code": "BR-PR-6322810",
      "countryId": 3469034,
      "countryCode": "BR",
      "stateCode": "BR-PR",
      "latitude": -25.49677,
      "longitude": -50.90054
    },
    {
      "id": 6322811,
      "name": "Iretama",
      "nativeName": "Iretama",
      "code": "BR-PR-6322811",
      "countryId": 3469034,
      "countryCode": "BR",
      "stateCode": "BR-PR",
      "latitude": -24.34412,
      "longitude": -52.10655
    },
    {
      "id": 6322812,
      "name": "Itaguajé",
      "nativeName": "Itaguajé",
      "code": "BR-PR-6322812",
      "countryId": 3469034,
      "countryCode": "BR",
      "stateCode": "BR-PR",
      "latitude": -22.66099,
      "longitude": -51.98288
    },
    {
      "id": 6322813,
      "name": "Itaipulândia",
      "nativeName": "Itaipulândia",
      "code": "BR-PR-6322813",
      "countryId": 3469034,
      "countryCode": "BR",
      "stateCode": "BR-PR",
      "latitude": -25.16335,
      "longitude": -54.34354
    },
    {
      "id": 6322814,
      "name": "Itambaracá",
      "nativeName": "Itambaracá",
      "code": "BR-PR-6322814",
      "countryId": 3469034,
      "countryCode": "BR",
      "stateCode": "BR-PR",
      "latitude": -22.98385,
      "longitude": -50.42715
    },
    {
      "id": 6322815,
      "name": "Itambé",
      "nativeName": "Itambé",
      "code": "BR-PR-6322815",
      "countryId": 3469034,
      "countryCode": "BR",
      "stateCode": "BR-PR",
      "latitude": -23.68805,
      "longitude": -52.01227
    },
    {
      "id": 6322816,
      "name": "Itapejara d'Oeste",
      "nativeName": "Itapejara d'Oeste",
      "code": "BR-PR-6322816",
      "countryId": 3469034,
      "countryCode": "BR",
      "stateCode": "BR-PR",
      "latitude": -25.97797,
      "longitude": -52.82583
    },
    {
      "id": 6322817,
      "name": "Itaperuçu",
      "nativeName": "Itaperuçu",
      "code": "BR-PR-6322817",
      "countryId": 3469034,
      "countryCode": "BR",
      "stateCode": "BR-PR",
      "latitude": -25.12101,
      "longitude": -49.49264
    },
    {
      "id": 6322818,
      "name": "Itaúna do Sul",
      "nativeName": "Itaúna do Sul",
      "code": "BR-PR-6322818",
      "countryId": 3469034,
      "countryCode": "BR",
      "stateCode": "BR-PR",
      "latitude": -22.73684,
      "longitude": -52.89236
    },
    {
      "id": 6319116,
      "name": "Ivaiporã Municipality",
      "nativeName": "Ivaiporã",
      "code": "BR-PR-6319116",
      "countryId": 3469034,
      "countryCode": "BR",
      "stateCode": "BR-PR",
      "latitude": -24.2823,
      "longitude": -51.63284
    },
    {
      "id": 6322820,
      "name": "Ivatuba",
      "nativeName": "Ivatuba",
      "code": "BR-PR-6322820",
      "countryId": 3469034,
      "countryCode": "BR",
      "stateCode": "BR-PR",
      "latitude": -23.59716,
      "longitude": -52.19434
    },
    {
      "id": 6322819,
      "name": "Ivaté",
      "nativeName": "Ivaté",
      "code": "BR-PR-6322819",
      "countryId": 3469034,
      "countryCode": "BR",
      "stateCode": "BR-PR",
      "latitude": -23.33716,
      "longitude": -53.42407
    },
    {
      "id": 6319115,
      "name": "Ivaí",
      "nativeName": "Ivaí",
      "code": "BR-PR-6319115",
      "countryId": 3469034,
      "countryCode": "BR",
      "stateCode": "BR-PR",
      "latitude": -24.99384,
      "longitude": -50.86192
    },
    {
      "id": 6322821,
      "name": "Jaboti",
      "nativeName": "Jaboti",
      "code": "BR-PR-6322821",
      "countryId": 3469034,
      "countryCode": "BR",
      "stateCode": "BR-PR",
      "latitude": -23.69532,
      "longitude": -50.07376
    },
    {
      "id": 6322822,
      "name": "Jacarezinho",
      "nativeName": "Jacarezinho",
      "code": "BR-PR-6322822",
      "countryId": 3469034,
      "countryCode": "BR",
      "stateCode": "BR-PR",
      "latitude": -23.19072,
      "longitude": -49.9541
    },
    {
      "id": 6322823,
      "name": "Jaguapitã",
      "nativeName": "Jaguapitã",
      "code": "BR-PR-6322823",
      "countryId": 3469034,
      "countryCode": "BR",
      "stateCode": "BR-PR",
      "latitude": -23.07631,
      "longitude": -51.58296
    },
    {
      "id": 6322824,
      "name": "Jaguariaíva",
      "nativeName": "Jaguariaíva",
      "code": "BR-PR-6322824",
      "countryId": 3469034,
      "countryCode": "BR",
      "stateCode": "BR-PR",
      "latitude": -24.34362,
      "longitude": -49.6655
    },
    {
      "id": 6322825,
      "name": "Jandaia do Sul",
      "nativeName": "Jandaia do Sul",
      "code": "BR-PR-6322825",
      "countryId": 3469034,
      "countryCode": "BR",
      "stateCode": "BR-PR",
      "latitude": -23.62786,
      "longitude": -51.69633
    },
    {
      "id": 6322826,
      "name": "Janiópolis",
      "nativeName": "Janiópolis",
      "code": "BR-PR-6322826",
      "countryId": 3469034,
      "countryCode": "BR",
      "stateCode": "BR-PR",
      "latitude": -24.08843,
      "longitude": -52.80294
    },
    {
      "id": 6322827,
      "name": "Japira",
      "nativeName": "Japira",
      "code": "BR-PR-6322827",
      "countryId": 3469034,
      "countryCode": "BR",
      "stateCode": "BR-PR",
      "latitude": -23.69047,
      "longitude": -50.18011
    },
    {
      "id": 6322828,
      "name": "Japurá",
      "nativeName": "Japurá",
      "code": "BR-PR-6322828",
      "countryId": 3469034,
      "countryCode": "BR",
      "stateCode": "BR-PR",
      "latitude": -23.4186,
      "longitude": -52.5622
    },
    {
      "id": 6322829,
      "name": "Jardim Alegre",
      "nativeName": "Jardim Alegre",
      "code": "BR-PR-6322829",
      "countryId": 3469034,
      "countryCode": "BR",
      "stateCode": "BR-PR",
      "latitude": -24.21451,
      "longitude": -51.7227
    },
    {
      "id": 6322830,
      "name": "Jardim Olinda",
      "nativeName": "Jardim Olinda",
      "code": "BR-PR-6322830",
      "countryId": 3469034,
      "countryCode": "BR",
      "stateCode": "BR-PR",
      "latitude": -22.56938,
      "longitude": -52.0652
    },
    {
      "id": 6322831,
      "name": "Jataizinho",
      "nativeName": "Jataizinho",
      "code": "BR-PR-6322831",
      "countryId": 3469034,
      "countryCode": "BR",
      "stateCode": "BR-PR",
      "latitude": -23.27304,
      "longitude": -50.91305
    },
    {
      "id": 6322832,
      "name": "Jesuítas",
      "nativeName": "Jesuítas",
      "code": "BR-PR-6322832",
      "countryId": 3469034,
      "countryCode": "BR",
      "stateCode": "BR-PR",
      "latitude": -24.41301,
      "longitude": -53.41344
    },
    {
      "id": 6322833,
      "name": "Joaquim Távora",
      "nativeName": "Joaquim Távora",
      "code": "BR-PR-6322833",
      "countryId": 3469034,
      "countryCode": "BR",
      "stateCode": "BR-PR",
      "latitude": -23.42218,
      "longitude": -49.90251
    },
    {
      "id": 6322834,
      "name": "Jundiaí do Sul",
      "nativeName": "Jundiaí do Sul",
      "code": "BR-PR-6322834",
      "countryId": 3469034,
      "countryCode": "BR",
      "stateCode": "BR-PR",
      "latitude": -23.47919,
      "longitude": -50.18065
    },
    {
      "id": 6322835,
      "name": "Juranda",
      "nativeName": "Juranda",
      "code": "BR-PR-6322835",
      "countryId": 3469034,
      "countryCode": "BR",
      "stateCode": "BR-PR",
      "latitude": -24.41323,
      "longitude": -52.8273
    },
    {
      "id": 6322836,
      "name": "Jussara",
      "nativeName": "Jussara",
      "code": "BR-PR-6322836",
      "countryId": 3469034,
      "countryCode": "BR",
      "stateCode": "BR-PR",
      "latitude": -23.62121,
      "longitude": -52.47084
    },
    {
      "id": 6322837,
      "name": "Kaloré",
      "nativeName": "Kaloré",
      "code": "BR-PR-6322837",
      "countryId": 3469034,
      "countryCode": "BR",
      "stateCode": "BR-PR",
      "latitude": -23.86713,
      "longitude": -51.68029
    },
    {
      "id": 6322838,
      "name": "Lapa",
      "nativeName": "Lapa",
      "code": "BR-PR-6322838",
      "countryId": 3469034,
      "countryCode": "BR",
      "stateCode": "BR-PR",
      "latitude": -25.79139,
      "longitude": -49.87405
    },
    {
      "id": 6322839,
      "name": "Laranjal",
      "nativeName": "Laranjal",
      "code": "BR-PR-6322839",
      "countryId": 3469034,
      "countryCode": "BR",
      "stateCode": "BR-PR",
      "latitude": -24.92573,
      "longitude": -52.45952
    },
    {
      "id": 6319117,
      "name": "Lupionópolis Municipality",
      "nativeName": "Lupionópolis",
      "code": "BR-PR-6319117",
      "countryId": 3469034,
      "countryCode": "BR",
      "stateCode": "BR-PR",
      "latitude": -22.73847,
      "longitude": -51.68386
    },
    {
      "id": 6324209,
      "name": "Ortigueira",
      "nativeName": "Ortigueira",
      "code": "BR-PR-6324209",
      "countryId": 3469034,
      "countryCode": "BR",
      "stateCode": "BR-PR",
      "latitude": -24.12724,
      "longitude": -51.00073
    },
    {
      "id": 6324247,
      "name": "Pinhão",
      "nativeName": "Pinhão",
      "code": "BR-PR-6324247",
      "countryId": 3469034,
      "countryCode": "BR",
      "stateCode": "BR-PR",
      "latitude": -25.76232,
      "longitude": -51.65284
    },
    {
      "id": 6319118,
      "name": "Planaltina do Paraná",
      "nativeName": "Planaltina do Paraná",
      "code": "BR-PR-6319118",
      "countryId": 3469034,
      "countryCode": "BR",
      "stateCode": "BR-PR",
      "latitude": -23.09388,
      "longitude": -52.92823
    },
    {
      "id": 3451782,
      "name": "Realeza Municiplaity",
      "nativeName": "Realeza",
      "code": "BR-PR-3451782",
      "countryId": 3469034,
      "countryCode": "BR",
      "stateCode": "BR-PR",
      "latitude": -25.67431,
      "longitude": -53.54659
    },
    {
      "id": 6319119,
      "name": "Santa Cecília do Pavão",
      "nativeName": "Santa Cecília do Pavão",
      "code": "BR-PR-6319119",
      "countryId": 3469034,
      "countryCode": "BR",
      "stateCode": "BR-PR",
      "latitude": -23.54436,
      "longitude": -50.82283
    },
    {
      "id": 6319120,
      "name": "Santa Cruz de Monte Castelo",
      "nativeName": "Santa Cruz de Monte Castelo",
      "code": "BR-PR-6319120",
      "countryId": 3469034,
      "countryCode": "BR",
      "stateCode": "BR-PR",
      "latitude": -23.14407,
      "longitude": -53.3664
    },
    {
      "id": 6319121,
      "name": "Santa Fé",
      "nativeName": "Santa Fé",
      "code": "BR-PR-6319121",
      "countryId": 3469034,
      "countryCode": "BR",
      "stateCode": "BR-PR",
      "latitude": -23.0399,
      "longitude": -51.81359
    },
    {
      "id": 6319122,
      "name": "Santana do Itararé",
      "nativeName": "Santana do Itararé",
      "code": "BR-PR-6319122",
      "countryId": 3469034,
      "countryCode": "BR",
      "stateCode": "BR-PR",
      "latitude": -23.73441,
      "longitude": -49.61942
    },
    {
      "id": 6319123,
      "name": "Santo Antônio do Paraíso",
      "nativeName": "Santo Antônio do Paraíso",
      "code": "BR-PR-6319123",
      "countryId": 3469034,
      "countryCode": "BR",
      "stateCode": "BR-PR",
      "latitude": -23.56361,
      "longitude": -50.6194
    },
    {
      "id": 6319126,
      "name": "Serranópolis do Iguaçu",
      "nativeName": "Serranópolis do Iguaçu",
      "code": "BR-PR-6319126",
      "countryId": 3469034,
      "countryCode": "BR",
      "stateCode": "BR-PR",
      "latitude": -25.47001,
      "longitude": -54.01644
    },
    {
      "id": 6319124,
      "name": "São José da Boa Vista",
      "nativeName": "São José da Boa Vista",
      "code": "BR-PR-6319124",
      "countryId": 3469034,
      "countryCode": "BR",
      "stateCode": "BR-PR",
      "latitude": -23.96483,
      "longitude": -49.6519
    },
    {
      "id": 6319125,
      "name": "São José das Palmeiras",
      "nativeName": "São José das Palmeiras",
      "code": "BR-PR-6319125",
      "countryId": 3469034,
      "countryCode": "BR",
      "stateCode": "BR-PR",
      "latitude": -24.83457,
      "longitude": -54.12721
    },
    {
      "id": 6319165,
      "name": "São João",
      "nativeName": "São João",
      "code": "BR-PR-6319165",
      "countryId": 3469034,
      "countryCode": "BR",
      "stateCode": "BR-PR",
      "latitude": -25.78385,
      "longitude": -52.80418
    },
    {
      "id": 6324210,
      "name": "Telêmaco Borba",
      "nativeName": "Telêmaco Borba",
      "code": "BR-PR-6324210",
      "countryId": 3469034,
      "countryCode": "BR",
      "stateCode": "BR-PR",
      "latitude": -24.22442,
      "longitude": -50.54151
    },
    {
      "id": 6319127,
      "name": "Três Barras do Paraná",
      "nativeName": "Três Barras do Paraná",
      "code": "BR-PR-6319127",
      "countryId": 3469034,
      "countryCode": "BR",
      "stateCode": "BR-PR",
      "latitude": -25.42222,
      "longitude": -53.23148
    },
    {
      "id": 6322672,
      "name": "Ângulo",
      "nativeName": "Ângulo",
      "code": "BR-PR-6322672",
      "countryId": 3469034,
      "countryCode": "BR",
      "stateCode": "BR-PR",
      "latitude": -23.21625,
      "longitude": -51.93851
    }
  ]
}