{
  "stateId": 3392213,
  "stateCode": "BR-PI",
  "countryCode": "BR",
  "cities": [
    {
      "id": 6319834,
      "name": "Acauã",
      "nativeName": "Acauã",
      "code": "BR-PI-6319834",
      "countryId": 3469034,
      "countryCode": "BR",
      "stateCode": "BR-PI",
      "latitude": -8.31552,
      "longitude": -40.91283
    },
    {
      "id": 6319835,
      "name": "Agricolândia",
      "nativeName": "Agricolândia",
      "code": "BR-PI-6319835",
      "countryId": 3469034,
      "countryCode": "BR",
      "stateCode": "BR-PI",
      "latitude": -5.74819,
      "longitude": -42.67458
    },
    {
      "id": 6319836,
      "name": "Alagoinha do Piauí",
      "nativeName": "Alagoinha do Piauí",
      "code": "BR-PI-6319836",
      "countryId": 3469034,
      "countryCode": "BR",
      "stateCode": "BR-PI",
      "latitude": -6.98016,
      "longitude": -40.91814
    },
    {
      "id": 6319837,
      "name": "Alegrete do Piauí",
      "nativeName": "Alegrete do Piauí",
      "code": "BR-PI-6319837",
      "countryId": 3469034,
      "countryCode": "BR",
      "stateCode": "BR-PI",
      "latitude": -7.16226,
      "longitude": -40.82488
    },
    {
      "id": 6319838,
      "name": "Alto Longá",
      "nativeName": "Alto Longá",
      "code": "BR-PI-6319838",
      "countryId": 3469034,
      "countryCode": "BR",
      "stateCode": "BR-PI",
      "latitude": -5.40788,
      "longitude": -42.06612
    },
    {
      "id": 6319221,
      "name": "Altos",
      "nativeName": "Altos",
      "code": "BR-PI-6319221",
      "countryId": 3469034,
      "countryCode": "BR",
      "stateCode": "BR-PI",
      "latitude": -5.1609,
      "longitude": -42.45038
    },
    {
      "id": 6319839,
      "name": "Alvorada do Gurguéia",
      "nativeName": "Alvorada do Gurguéia",
      "code": "BR-PI-6319839",
      "countryId": 3469034,
      "countryCode": "BR",
      "stateCode": "BR-PI",
      "latitude": -8.38553,
      "longitude": -43.83237
    },
    {
      "id": 6319840,
      "name": "Amarante",
      "nativeName": "Amarante",
      "code": "BR-PI-6319840",
      "countryId": 3469034,
      "countryCode": "BR",
      "stateCode": "BR-PI",
      "latitude": -6.3702,
      "longitude": -42.78806
    },
    {
      "id": 6319841,
      "name": "Angical do Piauí",
      "nativeName": "Angical do Piauí",
      "code": "BR-PI-6319841",
      "countryId": 3469034,
      "countryCode": "BR",
      "stateCode": "BR-PI",
      "latitude": -6.09884,
      "longitude": -42.72022
    },
    {
      "id": 6319843,
      "name": "Antônio Almeida",
      "nativeName": "Antônio Almeida",
      "code": "BR-PI-6319843",
      "countryId": 3469034,
      "countryCode": "BR",
      "stateCode": "BR-PI",
      "latitude": -7.12211,
      "longitude": -44.25307
    },
    {
      "id": 6319842,
      "name": "Anísio de Abreu",
      "nativeName": "Anísio de Abreu",
      "code": "BR-PI-6319842",
      "countryId": 3469034,
      "countryCode": "BR",
      "stateCode": "BR-PI",
      "latitude": -9.24779,
      "longitude": -43.05238
    },
    {
      "id": 6319844,
      "name": "Aroazes",
      "nativeName": "Aroazes",
      "code": "BR-PI-6319844",
      "countryId": 3469034,
      "countryCode": "BR",
      "stateCode": "BR-PI",
      "latitude": -6.20348,
      "longitude": -41.86926
    },
    {
      "id": 6319845,
      "name": "Arraial",
      "nativeName": "Arraial",
      "code": "BR-PI-6319845",
      "countryId": 3469034,
      "countryCode": "BR",
      "stateCode": "BR-PI",
      "latitude": -6.62721,
      "longitude": -42.49393
    },
    {
      "id": 6319846,
      "name": "Assunção do Piauí",
      "nativeName": "Assunção do Piauí",
      "code": "BR-PI-6319846",
      "countryId": 3469034,
      "countryCode": "BR",
      "stateCode": "BR-PI",
      "latitude": -5.85575,
      "longitude": -40.94796
    },
    {
      "id": 6319847,
      "name": "Baixa Grande do Ribeiro",
      "nativeName": "Baixa Grande do Ribeiro",
      "code": "BR-PI-6319847",
      "countryId": 3469034,
      "countryCode": "BR",
      "stateCode": "BR-PI",
      "latitude": -8.69171,
      "longitude": -45.12583
    },
    {
      "id": 6319848,
      "name": "Barra d'Alcântara",
      "nativeName": "Barra d'Alcântara",
      "code": "BR-PI-6319848",
      "countryId": 3469034,
      "countryCode": "BR",
      "stateCode": "BR-PI",
      "latitude": -6.54095,
      "longitude": -42.11504
    },
    {
      "id": 6319849,
      "name": "Barras",
      "nativeName": "Barras",
      "code": "BR-PI-6319849",
      "countryId": 3469034,
      "countryCode": "BR",
      "stateCode": "BR-PI",
      "latitude": -4.13224,
      "longitude": -42.31359
    },
    {
      "id": 6319850,
      "name": "Barreiras do Piauí",
      "nativeName": "Barreiras do Piauí",
      "code": "BR-PI-6319850",
      "countryId": 3469034,
      "countryCode": "BR",
      "stateCode": "BR-PI",
      "latitude": -9.99042,
      "longitude": -45.69329
    },
    {
      "id": 6319851,
      "name": "Barro Duro",
      "nativeName": "Barro Duro",
      "code": "BR-PI-6319851",
      "countryId": 3469034,
      "countryCode": "BR",
      "stateCode": "BR-PI",
      "latitude": -5.85063,
      "longitude": -42.45878
    },
    {
      "id": 6319852,
      "name": "Bela Vista do Piauí",
      "nativeName": "Bela Vista do Piauí",
      "code": "BR-PI-6319852",
      "countryId": 3469034,
      "countryCode": "BR",
      "stateCode": "BR-PI",
      "latitude": -7.91606,
      "longitude": -41.90091
    },
    {
      "id": 6319853,
      "name": "Belém do Piauí",
      "nativeName": "Belém do Piauí",
      "code": "BR-PI-6319853",
      "countryId": 3469034,
      "countryCode": "BR",
      "stateCode": "BR-PI",
      "latitude": -7.40657,
      "longitude": -40.98873
    },
    {
      "id": 6319017,
      "name": "Beneditinos",
      "nativeName": "Beneditinos",
      "code": "BR-PI-6319017",
      "countryId": 3469034,
      "countryCode": "BR",
      "stateCode": "BR-PI",
      "latitude": -5.46008,
      "longitude": -42.43965
    },
    {
      "id": 6319854,
      "name": "Bertolínia",
      "nativeName": "Bertolínia",
      "code": "BR-PI-6319854",
      "countryId": 3469034,
      "countryCode": "BR",
      "stateCode": "BR-PI",
      "latitude": -7.75477,
      "longitude": -43.79588
    },
    {
      "id": 6319855,
      "name": "Betânia do Piauí",
      "nativeName": "Betânia do Piauí",
      "code": "BR-PI-6319855",
      "countryId": 3469034,
      "countryCode": "BR",
      "stateCode": "BR-PI",
      "latitude": -8.0643,
      "longitude": -40.85924
    },
    {
      "id": 6319856,
      "name": "Boa Hora",
      "nativeName": "Boa Hora",
      "code": "BR-PI-6319856",
      "countryId": 3469034,
      "countryCode": "BR",
      "stateCode": "BR-PI",
      "latitude": -4.35576,
      "longitude": -42.14109
    },
    {
      "id": 6319857,
      "name": "Bocaina",
      "nativeName": "Bocaina",
      "code": "BR-PI-6319857",
      "countryId": 3469034,
      "countryCode": "BR",
      "stateCode": "BR-PI",
      "latitude": -6.89508,
      "longitude": -41.32746
    },
    {
      "id": 6319858,
      "name": "Bom Jesus",
      "nativeName": "Bom Jesus",
      "code": "BR-PI-6319858",
      "countryId": 3469034,
      "countryCode": "BR",
      "stateCode": "BR-PI",
      "latitude": -9.1626,
      "longitude": -44.60177
    },
    {
      "id": 6319859,
      "name": "Bom Princípio do Piauí",
      "nativeName": "Bom Princípio do Piauí",
      "code": "BR-PI-6319859",
      "countryId": 3469034,
      "countryCode": "BR",
      "stateCode": "BR-PI",
      "latitude": -3.23751,
      "longitude": -41.64572
    },
    {
      "id": 6319860,
      "name": "Bonfim do Piauí",
      "nativeName": "Bonfim do Piauí",
      "code": "BR-PI-6319860",
      "countryId": 3469034,
      "countryCode": "BR",
      "stateCode": "BR-PI",
      "latitude": -9.16462,
      "longitude": -42.88253
    },
    {
      "id": 6319861,
      "name": "Boqueirão do Piauí",
      "nativeName": "Boqueirão do Piauí",
      "code": "BR-PI-6319861",
      "countryId": 3469034,
      "countryCode": "BR",
      "stateCode": "BR-PI",
      "latitude": -4.5665,
      "longitude": -42.13601
    },
    {
      "id": 6319862,
      "name": "Brasileira",
      "nativeName": "Brasileira",
      "code": "BR-PI-6319862",
      "countryId": 3469034,
      "countryCode": "BR",
      "stateCode": "BR-PI",
      "latitude": -4.13325,
      "longitude": -41.58774
    },
    {
      "id": 6319863,
      "name": "Brejo do Piauí",
      "nativeName": "Brejo do Piauí",
      "code": "BR-PI-6319863",
      "countryId": 3469034,
      "countryCode": "BR",
      "stateCode": "BR-PI",
      "latitude": -8.26858,
      "longitude": -42.78801
    },
    {
      "id": 6319864,
      "name": "Buriti dos Lopes",
      "nativeName": "Buriti dos Lopes",
      "code": "BR-PI-6319864",
      "countryId": 3469034,
      "countryCode": "BR",
      "stateCode": "BR-PI",
      "latitude": -3.23977,
      "longitude": -41.80378
    },
    {
      "id": 6319865,
      "name": "Buriti dos Montes",
      "nativeName": "Buriti dos Montes",
      "code": "BR-PI-6319865",
      "countryId": 3469034,
      "countryCode": "BR",
      "stateCode": "BR-PI",
      "latitude": -5.20888,
      "longitude": -41.25078
    },
    {
      "id": 6319866,
      "name": "Cabeceiras do Piauí",
      "nativeName": "Cabeceiras do Piauí",
      "code": "BR-PI-6319866",
      "countryId": 3469034,
      "countryCode": "BR",
      "stateCode": "BR-PI",
      "latitude": -4.43347,
      "longitude": -42.2306
    },
    {
      "id": 6319867,
      "name": "Cajazeiras do Piauí",
      "nativeName": "Cajazeiras do Piauí",
      "code": "BR-PI-6319867",
      "countryId": 3469034,
      "countryCode": "BR",
      "stateCode": "BR-PI",
      "latitude": -6.78182,
      "longitude": -42.39243
    },
    {
      "id": 6319868,
      "name": "Cajueiro da Praia",
      "nativeName": "Cajueiro da Praia",
      "code": "BR-PI-6319868",
      "countryId": 3469034,
      "countryCode": "BR",
      "stateCode": "BR-PI",
      "latitude": -2.98747,
      "longitude": -41.35439
    },
    {
      "id": 6319869,
      "name": "Caldeirão Grande do Piauí",
      "nativeName": "Caldeirão Grande do Piauí",
      "code": "BR-PI-6319869",
      "countryId": 3469034,
      "countryCode": "BR",
      "stateCode": "BR-PI",
      "latitude": -7.34361,
      "longitude": -40.58774
    },
    {
      "id": 6319870,
      "name": "Campinas do Piauí",
      "nativeName": "Campinas do Piauí",
      "code": "BR-PI-6319870",
      "countryId": 3469034,
      "countryCode": "BR",
      "stateCode": "BR-PI",
      "latitude": -7.67905,
      "longitude": -41.87938
    },
    {
      "id": 6319871,
      "name": "Campo Alegre do Fidalgo",
      "nativeName": "Campo Alegre do Fidalgo",
      "code": "BR-PI-6319871",
      "countryId": 3469034,
      "countryCode": "BR",
      "stateCode": "BR-PI",
      "latitude": -8.31452,
      "longitude": -41.79184
    },
    {
      "id": 6319872,
      "name": "Campo Grande do Piauí",
      "nativeName": "Campo Grande do Piauí",
      "code": "BR-PI-6319872",
      "countryId": 3469034,
      "countryCode": "BR",
      "stateCode": "BR-PI",
      "latitude": -7.2207,
      "longitude": -41.04511
    },
    {
      "id": 6319873,
      "name": "Campo Largo do Piauí",
      "nativeName": "Campo Largo do Piauí",
      "code": "BR-PI-6319873",
      "countryId": 3469034,
      "countryCode": "BR",
      "stateCode": "BR-PI",
      "latitude": -3.85518,
      "longitude": -42.60317
    },
    {
      "id": 6319874,
      "name": "Campo Maior",
      "nativeName": "Campo Maior",
      "code": "BR-PI-6319874",
      "countryId": 3469034,
      "countryCode": "BR",
      "stateCode": "BR-PI",
      "latitude": -4.78675,
      "longitude": -42.10869
    },
    {
      "id": 6319875,
      "name": "Canavieira",
      "nativeName": "Canavieira",
      "code": "BR-PI-6319875",
      "countryId": 3469034,
      "countryCode": "BR",
      "stateCode": "BR-PI",
      "latitude": -7.50756,
      "longitude": -43.6863
    },
    {
      "id": 6319876,
      "name": "Canto do Buriti",
      "nativeName": "Canto do Buriti",
      "code": "BR-PI-6319876",
      "countryId": 3469034,
      "countryCode": "BR",
      "stateCode": "BR-PI",
      "latitude": -8.25966,
      "longitude": -43.08036
    },
    {
      "id": 6319878,
      "name": "Capitão Gervásio Oliveira",
      "nativeName": "Capitão Gervásio Oliveira",
      "code": "BR-PI-6319878",
      "countryId": 3469034,
      "countryCode": "BR",
      "stateCode": "BR-PI",
      "latitude": -8.52938,
      "longitude": -41.90126
    },
    {
      "id": 6319877,
      "name": "Capitão de Campos",
      "nativeName": "Capitão de Campos",
      "code": "BR-PI-6319877",
      "countryId": 3469034,
      "countryCode": "BR",
      "stateCode": "BR-PI",
      "latitude": -4.47203,
      "longitude": -41.88512
    },
    {
      "id": 6319879,
      "name": "Caracol",
      "nativeName": "Caracol",
      "code": "BR-PI-6319879",
      "countryId": 3469034,
      "countryCode": "BR",
      "stateCode": "BR-PI",
      "latitude": -9.34943,
      "longitude": -43.27078
    },
    {
      "id": 6319880,
      "name": "Caraúbas do Piauí",
      "nativeName": "Caraúbas do Piauí",
      "code": "BR-PI-6319880",
      "countryId": 3469034,
      "countryCode": "BR",
      "stateCode": "BR-PI",
      "latitude": -3.53699,
      "longitude": -41.84588
    },
    {
      "id": 6319018,
      "name": "Caridade do Piauí",
      "nativeName": "Caridade do Piauí",
      "code": "BR-PI-6319018",
      "countryId": 3469034,
      "countryCode": "BR",
      "stateCode": "BR-PI",
      "latitude": -7.70139,
      "longitude": -40.89597
    },
    {
      "id": 6319881,
      "name": "Castelo do Piauí",
      "nativeName": "Castelo do Piauí",
      "code": "BR-PI-6319881",
      "countryId": 3469034,
      "countryCode": "BR",
      "stateCode": "BR-PI",
      "latitude": -5.2158,
      "longitude": -41.55735
    },
    {
      "id": 6319882,
      "name": "Caxingó",
      "nativeName": "Caxingó",
      "code": "BR-PI-6319882",
      "countryId": 3469034,
      "countryCode": "BR",
      "stateCode": "BR-PI",
      "latitude": -3.40863,
      "longitude": -41.88771
    },
    {
      "id": 6319883,
      "name": "Cocal",
      "nativeName": "Cocal",
      "code": "BR-PI-6319883",
      "countryId": 3469034,
      "countryCode": "BR",
      "stateCode": "BR-PI",
      "latitude": -3.43751,
      "longitude": -41.54594
    },
    {
      "id": 6319884,
      "name": "Cocal de Telha",
      "nativeName": "Cocal de Telha",
      "code": "BR-PI-6319884",
      "countryId": 3469034,
      "countryCode": "BR",
      "stateCode": "BR-PI",
      "latitude": -4.64857,
      "longitude": -41.99568
    },
    {
      "id": 6319885,
      "name": "Cocal dos Alves",
      "nativeName": "Cocal dos Alves",
      "code": "BR-PI-6319885",
      "countryId": 3469034,
      "countryCode": "BR",
      "stateCode": "BR-PI",
      "latitude": -3.57383,
      "longitude": -41.45183
    },
    {
      "id": 6319886,
      "name": "Coivaras",
      "nativeName": "Coivaras",
      "code": "BR-PI-6319886",
      "countryId": 3469034,
      "countryCode": "BR",
      "stateCode": "BR-PI",
      "latitude": -5.11661,
      "longitude": -42.26583
    },
    {
      "id": 6319887,
      "name": "Colônia do Gurguéia",
      "nativeName": "Colônia do Gurguéia",
      "code": "BR-PI-6319887",
      "countryId": 3469034,
      "countryCode": "BR",
      "stateCode": "BR-PI",
      "latitude": -8.14465,
      "longitude": -43.77459
    },
    {
      "id": 6319888,
      "name": "Colônia do Piauí",
      "nativeName": "Colônia do Piauí",
      "code": "BR-PI-6319888",
      "countryId": 3469034,
      "countryCode": "BR",
      "stateCode": "BR-PI",
      "latitude": -7.22638,
      "longitude": -42.21262
    },
    {
      "id": 6319889,
      "name": "Conceição do Canindé",
      "nativeName": "Conceição do Canindé",
      "code": "BR-PI-6319889",
      "countryId": 3469034,
      "countryCode": "BR",
      "stateCode": "BR-PI",
      "latitude": -7.98695,
      "longitude": -41.57544
    },
    {
      "id": 6319890,
      "name": "Coronel José Dias",
      "nativeName": "Coronel José Dias",
      "code": "BR-PI-6319890",
      "countryId": 3469034,
      "countryCode": "BR",
      "stateCode": "BR-PI",
      "latitude": -9.07216,
      "longitude": -42.27241
    },
    {
      "id": 6319891,
      "name": "Corrente",
      "nativeName": "Corrente",
      "code": "BR-PI-6319891",
      "countryId": 3469034,
      "countryCode": "BR",
      "stateCode": "BR-PI",
      "latitude": -10.47219,
      "longitude": -45.04691
    },
    {
      "id": 6319892,
      "name": "Cristalândia do Piauí",
      "nativeName": "Cristalândia do Piauí",
      "code": "BR-PI-6319892",
      "countryId": 3469034,
      "countryCode": "BR",
      "stateCode": "BR-PI",
      "latitude": -10.82007,
      "longitude": -45.11052
    },
    {
      "id": 6319893,
      "name": "Cristino Castro",
      "nativeName": "Cristino Castro",
      "code": "BR-PI-6319893",
      "countryId": 3469034,
      "countryCode": "BR",
      "stateCode": "BR-PI",
      "latitude": -8.69043,
      "longitude": -44.04806
    },
    {
      "id": 3464981,
      "name": "Curimatá",
      "nativeName": "Curimatá",
      "code": "BR-PI-3464981",
      "countryId": 3469034,
      "countryCode": "BR",
      "stateCode": "BR-PI",
      "latitude": -9.86209,
      "longitude": -44.38994
    },
    {
      "id": 6319894,
      "name": "Currais",
      "nativeName": "Currais",
      "code": "BR-PI-6319894",
      "countryId": 3469034,
      "countryCode": "BR",
      "stateCode": "BR-PI",
      "latitude": -8.73985,
      "longitude": -44.86466
    },
    {
      "id": 6319019,
      "name": "Curral Novo do Piauí",
      "nativeName": "Curral Novo do Piauí",
      "code": "BR-PI-6319019",
      "countryId": 3469034,
      "countryCode": "BR",
      "stateCode": "BR-PI",
      "latitude": -7.88978,
      "longitude": -40.76427
    },
    {
      "id": 6319895,
      "name": "Curralinhos",
      "nativeName": "Curralinhos",
      "code": "BR-PI-6319895",
      "countryId": 3469034,
      "countryCode": "BR",
      "stateCode": "BR-PI",
      "latitude": -5.58488,
      "longitude": -42.86082
    },
    {
      "id": 6319896,
      "name": "Demerval Lobão",
      "nativeName": "Demerval Lobão",
      "code": "BR-PI-6319896",
      "countryId": 3469034,
      "countryCode": "BR",
      "stateCode": "BR-PI",
      "latitude": -5.31543,
      "longitude": -42.6663
    },
    {
      "id": 6319020,
      "name": "Dirceu Arcoverde",
      "nativeName": "Dirceu Arcoverde",
      "code": "BR-PI-6319020",
      "countryId": 3469034,
      "countryCode": "BR",
      "stateCode": "BR-PI",
      "latitude": -9.3323,
      "longitude": -42.43422
    },
    {
      "id": 6319897,
      "name": "Dom Expedito Lopes",
      "nativeName": "Dom Expedito Lopes",
      "code": "BR-PI-6319897",
      "countryId": 3469034,
      "countryCode": "BR",
      "stateCode": "BR-PI",
      "latitude": -6.95806,
      "longitude": -41.71629
    },
    {
      "id": 6319899,
      "name": "Dom Inocêncio",
      "nativeName": "Dom Inocêncio",
      "code": "BR-PI-6319899",
      "countryId": 3469034,
      "countryCode": "BR",
      "stateCode": "BR-PI",
      "latitude": -8.8848,
      "longitude": -41.72
    },
    {
      "id": 6319898,
      "name": "Domingos Mourão",
      "nativeName": "Domingos Mourão",
      "code": "BR-PI-6319898",
      "countryId": 3469034,
      "countryCode": "BR",
      "stateCode": "BR-PI",
      "latitude": -4.19141,
      "longitude": -41.34833
    },
    {
      "id": 6319900,
      "name": "Elesbão Veloso",
      "nativeName": "Elesbão Veloso",
      "code": "BR-PI-6319900",
      "countryId": 3469034,
      "countryCode": "BR",
      "stateCode": "BR-PI",
      "latitude": -6.19359,
      "longitude": -42.16607
    },
    {
      "id": 6319901,
      "name": "Eliseu Martins",
      "nativeName": "Eliseu Martins",
      "code": "BR-PI-6319901",
      "countryId": 3469034,
      "countryCode": "BR",
      "stateCode": "BR-PI",
      "latitude": -7.90155,
      "longitude": -43.77769
    },
    {
      "id": 6319902,
      "name": "Esperantina",
      "nativeName": "Esperantina",
      "code": "BR-PI-6319902",
      "countryId": 3469034,
      "countryCode": "BR",
      "stateCode": "BR-PI",
      "latitude": -3.84898,
      "longitude": -42.17102
    },
    {
      "id": 6319903,
      "name": "Fartura do Piauí",
      "nativeName": "Fartura do Piauí",
      "code": "BR-PI-6319903",
      "countryId": 3469034,
      "countryCode": "BR",
      "stateCode": "BR-PI",
      "latitude": -9.52033,
      "longitude": -42.78927
    },
    {
      "id": 6319904,
      "name": "Flores do Piauí",
      "nativeName": "Flores do Piauí",
      "code": "BR-PI-6319904",
      "countryId": 3469034,
      "countryCode": "BR",
      "stateCode": "BR-PI",
      "latitude": -7.64121,
      "longitude": -42.84551
    },
    {
      "id": 6319905,
      "name": "Floresta do Piauí",
      "nativeName": "Floresta do Piauí",
      "code": "BR-PI-6319905",
      "countryId": 3469034,
      "countryCode": "BR",
      "stateCode": "BR-PI",
      "latitude": -7.47628,
      "longitude": -41.84428
    },
    {
      "id": 6319906,
      "name": "Francinópolis",
      "nativeName": "Francinópolis",
      "code": "BR-PI-6319906",
      "countryId": 3469034,
      "countryCode": "BR",
      "stateCode": "BR-PI",
      "latitude": -6.41032,
      "longitude": -42.24638
    },
    {
      "id": 6319907,
      "name": "Francisco Ayres",
      "nativeName": "Francisco Ayres",
      "code": "BR-PI-6319907",
      "countryId": 3469034,
      "countryCode": "BR",
      "stateCode": "BR-PI",
      "latitude": -6.6913,
      "longitude": -42.69202
    },
    {
      "id": 6319908,
      "name": "Francisco Macedo",
      "nativeName": "Francisco Macedo",
      "code": "BR-PI-6319908",
      "countryId": 3469034,
      "countryCode": "BR",
      "stateCode": "BR-PI",
      "latitude": -7.35845,
      "longitude": -40.77056
    },
    {
      "id": 6319909,
      "name": "Francisco Santos",
      "nativeName": "Francisco Santos",
      "code": "BR-PI-6319909",
      "countryId": 3469034,
      "countryCode": "BR",
      "stateCode": "BR-PI",
      "latitude": -7.10293,
      "longitude": -41.145
    },
    {
      "id": 6319021,
      "name": "Fronteiras",
      "nativeName": "Fronteiras",
      "code": "BR-PI-6319021",
      "countryId": 3469034,
      "countryCode": "BR",
      "stateCode": "BR-PI",
      "latitude": -7.0125,
      "longitude": -40.56213
    },
    {
      "id": 6319910,
      "name": "Geminiano",
      "nativeName": "Geminiano",
      "code": "BR-PI-6319910",
      "countryId": 3469034,
      "countryCode": "BR",
      "stateCode": "BR-PI",
      "latitude": -7.16595,
      "longitude": -41.38802
    },
    {
      "id": 6319911,
      "name": "Gilbués",
      "nativeName": "Gilbués",
      "code": "BR-PI-6319911",
      "countryId": 3469034,
      "countryCode": "BR",
      "stateCode": "BR-PI",
      "latitude": -9.72737,
      "longitude": -45.52017
    },
    {
      "id": 6319912,
      "name": "Guadalupe",
      "nativeName": "Guadalupe",
      "code": "BR-PI-6319912",
      "countryId": 3469034,
      "countryCode": "BR",
      "stateCode": "BR-PI",
      "latitude": -6.82297,
      "longitude": -43.77762
    },
    {
      "id": 6319913,
      "name": "Guaribas",
      "nativeName": "Guaribas",
      "code": "BR-PI-6319913",
      "countryId": 3469034,
      "countryCode": "BR",
      "stateCode": "BR-PI",
      "latitude": -9.2887,
      "longitude": -43.58188
    },
    {
      "id": 6319914,
      "name": "Hugo Napoleão",
      "nativeName": "Hugo Napoleão",
      "code": "BR-PI-6319914",
      "countryId": 3469034,
      "countryCode": "BR",
      "stateCode": "BR-PI",
      "latitude": -6.03293,
      "longitude": -42.46773
    },
    {
      "id": 6319915,
      "name": "Ilha Grande",
      "nativeName": "Ilha Grande",
      "code": "BR-PI-6319915",
      "countryId": 3469034,
      "countryCode": "BR",
      "stateCode": "BR-PI",
      "latitude": -2.84022,
      "longitude": -41.82881
    },
    {
      "id": 6319916,
      "name": "Inhuma",
      "nativeName": "Inhuma",
      "code": "BR-PI-6319916",
      "countryId": 3469034,
      "countryCode": "BR",
      "stateCode": "BR-PI",
      "latitude": -6.66187,
      "longitude": -41.68135
    },
    {
      "id": 6319917,
      "name": "Ipiranga do Piauí",
      "nativeName": "Ipiranga do Piauí",
      "code": "BR-PI-6319917",
      "countryId": 3469034,
      "countryCode": "BR",
      "stateCode": "BR-PI",
      "latitude": -6.84634,
      "longitude": -41.74687
    },
    {
      "id": 6319918,
      "name": "Isaías Coelho",
      "nativeName": "Isaías Coelho",
      "code": "BR-PI-6319918",
      "countryId": 3469034,
      "countryCode": "BR",
      "stateCode": "BR-PI",
      "latitude": -7.54521,
      "longitude": -41.64289
    },
    {
      "id": 6319919,
      "name": "Itainópolis",
      "nativeName": "Itainópolis",
      "code": "BR-PI-6319919",
      "countryId": 3469034,
      "countryCode": "BR",
      "stateCode": "BR-PI",
      "latitude": -7.45524,
      "longitude": -41.54165
    },
    {
      "id": 6319920,
      "name": "Itaueira",
      "nativeName": "Itaueira",
      "code": "BR-PI-6319920",
      "countryId": 3469034,
      "countryCode": "BR",
      "stateCode": "BR-PI",
      "latitude": -7.55236,
      "longitude": -43.09874
    },
    {
      "id": 6319921,
      "name": "Jacobina do Piauí",
      "nativeName": "Jacobina do Piauí",
      "code": "BR-PI-6319921",
      "countryId": 3469034,
      "countryCode": "BR",
      "stateCode": "BR-PI",
      "latitude": -7.96488,
      "longitude": -41.17396
    },
    {
      "id": 6319922,
      "name": "Jaicós",
      "nativeName": "Jaicós",
      "code": "BR-PI-6319922",
      "countryId": 3469034,
      "countryCode": "BR",
      "stateCode": "BR-PI",
      "latitude": -7.45645,
      "longitude": -41.22016
    },
    {
      "id": 6319923,
      "name": "Jardim do Mulato",
      "nativeName": "Jardim do Mulato",
      "code": "BR-PI-6319923",
      "countryId": 3469034,
      "countryCode": "BR",
      "stateCode": "BR-PI",
      "latitude": -6.15734,
      "longitude": -42.47763
    },
    {
      "id": 6319022,
      "name": "Jatobá do Piauí",
      "nativeName": "Jatobá do Piauí",
      "code": "BR-PI-6319022",
      "countryId": 3469034,
      "countryCode": "BR",
      "stateCode": "BR-PI",
      "latitude": -4.80296,
      "longitude": -41.89545
    },
    {
      "id": 6319023,
      "name": "Jerumenha",
      "nativeName": "Jerumenha",
      "code": "BR-PI-6319023",
      "countryId": 3469034,
      "countryCode": "BR",
      "stateCode": "BR-PI",
      "latitude": -7.09885,
      "longitude": -43.54675
    },
    {
      "id": 6319925,
      "name": "Joaquim Pires",
      "nativeName": "Joaquim Pires",
      "code": "BR-PI-6319925",
      "countryId": 3469034,
      "countryCode": "BR",
      "stateCode": "BR-PI",
      "latitude": -3.53692,
      "longitude": -42.0775
    },
    {
      "id": 6319926,
      "name": "Joca Marques",
      "nativeName": "Joca Marques",
      "code": "BR-PI-6319926",
      "countryId": 3469034,
      "countryCode": "BR",
      "stateCode": "BR-PI",
      "latitude": -3.54211,
      "longitude": -42.43579
    },
    {
      "id": 6319927,
      "name": "José de Freitas",
      "nativeName": "José de Freitas",
      "code": "BR-PI-6319927",
      "countryId": 3469034,
      "countryCode": "BR",
      "stateCode": "BR-PI",
      "latitude": -4.72992,
      "longitude": -42.61373
    },
    {
      "id": 6319924,
      "name": "João Costa",
      "nativeName": "João Costa",
      "code": "BR-PI-6319924",
      "countryId": 3469034,
      "countryCode": "BR",
      "stateCode": "BR-PI",
      "latitude": -8.54315,
      "longitude": -42.41513
    },
    {
      "id": 6319928,
      "name": "Juazeiro do Piauí",
      "nativeName": "Juazeiro do Piauí",
      "code": "BR-PI-6319928",
      "countryId": 3469034,
      "countryCode": "BR",
      "stateCode": "BR-PI",
      "latitude": -5.02486,
      "longitude": -41.52841
    },
    {
      "id": 6319930,
      "name": "Jurema",
      "nativeName": "Jurema",
      "code": "BR-PI-6319930",
      "countryId": 3469034,
      "countryCode": "BR",
      "stateCode": "BR-PI",
      "latitude": -9.29862,
      "longitude": -43.15301
    },
    {
      "id": 6319929,
      "name": "Júlio Borges",
      "nativeName": "Júlio Borges",
      "code": "BR-PI-6319929",
      "countryId": 3469034,
      "countryCode": "BR",
      "stateCode": "BR-PI",
      "latitude": -10.5158,
      "longitude": -44.19178
    },
    {
      "id": 6319932,
      "name": "Lagoa Alegre",
      "nativeName": "Lagoa Alegre",
      "code": "BR-PI-6319932",
      "countryId": 3469034,
      "countryCode": "BR",
      "stateCode": "BR-PI",
      "latitude": -4.4951,
      "longitude": -42.56555
    },
    {
      "id": 6319934,
      "name": "Lagoa de São Francisco",
      "nativeName": "Lagoa de São Francisco",
      "code": "BR-PI-6319934",
      "countryId": 3469034,
      "countryCode": "BR",
      "stateCode": "BR-PI",
      "latitude": -4.35468,
      "longitude": -41.59168
    },
    {
      "id": 6319933,
      "name": "Lagoa do Barro do Piauí",
      "nativeName": "Lagoa do Barro do Piauí",
      "code": "BR-PI-6319933",
      "countryId": 3469034,
      "countryCode": "BR",
      "stateCode": "BR-PI",
      "latitude": -8.73535,
      "longitude": -41.54813
    },
    {
      "id": 6319935,
      "name": "Lagoa do Piauí",
      "nativeName": "Lagoa do Piauí",
      "code": "BR-PI-6319935",
      "countryId": 3469034,
      "countryCode": "BR",
      "stateCode": "BR-PI",
      "latitude": -5.47513,
      "longitude": -42.54814
    },
    {
      "id": 6319936,
      "name": "Lagoa do Sítio",
      "nativeName": "Lagoa do Sítio",
      "code": "BR-PI-6319936",
      "countryId": 3469034,
      "countryCode": "BR",
      "stateCode": "BR-PI",
      "latitude": -6.51918,
      "longitude": -41.42058
    },
    {
      "id": 6319931,
      "name": "Lagoinha do Piauí",
      "nativeName": "Lagoinha do Piauí",
      "code": "BR-PI-6319931",
      "countryId": 3469034,
      "countryCode": "BR",
      "stateCode": "BR-PI",
      "latitude": -5.80702,
      "longitude": -42.62796
    },
    {
      "id": 6319937,
      "name": "Landri Sales",
      "nativeName": "Landri Sales",
      "code": "BR-PI-6319937",
      "countryId": 3469034,
      "countryCode": "BR",
      "stateCode": "BR-PI",
      "latitude": -7.23268,
      "longitude": -43.86456
    },
    {
      "id": 6319939,
      "name": "Luzilândia",
      "nativeName": "Luzilândia",
      "code": "BR-PI-6319939",
      "countryId": 3469034,
      "countryCode": "BR",
      "stateCode": "BR-PI",
      "latitude": -3.60743,
      "longitude": -42.36456
    },
    {
      "id": 6319938,
      "name": "Luís Correia",
      "nativeName": "Luís Correia",
      "code": "BR-PI-6319938",
      "countryId": 3469034,
      "countryCode": "BR",
      "stateCode": "BR-PI",
      "latitude": -3.03117,
      "longitude": -41.51665
    },
    {
      "id": 6319940,
      "name": "Madeiro",
      "nativeName": "Madeiro",
      "code": "BR-PI-6319940",
      "countryId": 3469034,
      "countryCode": "BR",
      "stateCode": "BR-PI",
      "latitude": -3.54658,
      "longitude": -42.51114
    },
    {
      "id": 6319941,
      "name": "Manoel Emídio",
      "nativeName": "Manoel Emídio",
      "code": "BR-PI-6319941",
      "countryId": 3469034,
      "countryCode": "BR",
      "stateCode": "BR-PI",
      "latitude": -8.16469,
      "longitude": -43.8336
    },
    {
      "id": 6319942,
      "name": "Marcolândia",
      "nativeName": "Marcolândia",
      "code": "BR-PI-6319942",
      "countryId": 3469034,
      "countryCode": "BR",
      "stateCode": "BR-PI",
      "latitude": -7.40891,
      "longitude": -40.74945
    },
    {
      "id": 6319943,
      "name": "Marcos Parente",
      "nativeName": "Marcos Parente",
      "code": "BR-PI-6319943",
      "countryId": 3469034,
      "countryCode": "BR",
      "stateCode": "BR-PI",
      "latitude": -7.05412,
      "longitude": -43.91664
    },
    {
      "id": 6319944,
      "name": "Massapê do Piauí",
      "nativeName": "Massapê do Piauí",
      "code": "BR-PI-6319944",
      "countryId": 3469034,
      "countryCode": "BR",
      "stateCode": "BR-PI",
      "latitude": -7.53879,
      "longitude": -41.01755
    },
    {
      "id": 6319945,
      "name": "Matias Olímpio",
      "nativeName": "Matias Olímpio",
      "code": "BR-PI-6319945",
      "countryId": 3469034,
      "countryCode": "BR",
      "stateCode": "BR-PI",
      "latitude": -3.68774,
      "longitude": -42.60695
    },
    {
      "id": 6319946,
      "name": "Miguel Alves",
      "nativeName": "Miguel Alves",
      "code": "BR-PI-6319946",
      "countryId": 3469034,
      "countryCode": "BR",
      "stateCode": "BR-PI",
      "latitude": -4.1579,
      "longitude": -42.77263
    },
    {
      "id": 6319947,
      "name": "Miguel Leão",
      "nativeName": "Miguel Leão",
      "code": "BR-PI-6319947",
      "countryId": 3469034,
      "countryCode": "BR",
      "stateCode": "BR-PI",
      "latitude": -5.72867,
      "longitude": -42.68942
    },
    {
      "id": 6319948,
      "name": "Milton Brandão",
      "nativeName": "Milton Brandão",
      "code": "BR-PI-6319948",
      "countryId": 3469034,
      "countryCode": "BR",
      "stateCode": "BR-PI",
      "latitude": -4.74021,
      "longitude": -41.59457
    },
    {
      "id": 6319949,
      "name": "Monsenhor Gil",
      "nativeName": "Monsenhor Gil",
      "code": "BR-PI-6319949",
      "countryId": 3469034,
      "countryCode": "BR",
      "stateCode": "BR-PI",
      "latitude": -5.64162,
      "longitude": -42.54879
    },
    {
      "id": 6319950,
      "name": "Monsenhor Hipólito",
      "nativeName": "Monsenhor Hipólito",
      "code": "BR-PI-6319950",
      "countryId": 3469034,
      "countryCode": "BR",
      "stateCode": "BR-PI",
      "latitude": -6.94982,
      "longitude": -41.03155
    },
    {
      "id": 6319951,
      "name": "Monte Alegre do Piauí",
      "nativeName": "Monte Alegre do Piauí",
      "code": "BR-PI-6319951",
      "countryId": 3469034,
      "countryCode": "BR",
      "stateCode": "BR-PI",
      "latitude": -9.74213,
      "longitude": -44.98266
    },
    {
      "id": 6319952,
      "name": "Morro do Chapéu do Piauí",
      "nativeName": "Morro do Chapéu do Piauí",
      "code": "BR-PI-6319952",
      "countryId": 3469034,
      "countryCode": "BR",
      "stateCode": "BR-PI",
      "latitude": -3.68694,
      "longitude": -42.22185
    },
    {
      "id": 6319953,
      "name": "Murici dos Portelas",
      "nativeName": "Murici dos Portelas",
      "code": "BR-PI-6319953",
      "countryId": 3469034,
      "countryCode": "BR",
      "stateCode": "BR-PI",
      "latitude": -3.36504,
      "longitude": -42.00218
    },
    {
      "id": 6319954,
      "name": "Nazaré do Piauí",
      "nativeName": "Nazaré do Piauí",
      "code": "BR-PI-6319954",
      "countryId": 3469034,
      "countryCode": "BR",
      "stateCode": "BR-PI",
      "latitude": -7.03279,
      "longitude": -42.73216
    },
    {
      "id": 6319955,
      "name": "Nossa Senhora de Nazaré",
      "nativeName": "Nossa Senhora de Nazaré",
      "code": "BR-PI-6319955",
      "countryId": 3469034,
      "countryCode": "BR",
      "stateCode": "BR-PI",
      "latitude": -4.63841,
      "longitude": -42.19017
    },
    {
      "id": 6319956,
      "name": "Nossa Senhora dos Remédios",
      "nativeName": "Nossa Senhora dos Remédios",
      "code": "BR-PI-6319956",
      "countryId": 3469034,
      "countryCode": "BR",
      "stateCode": "BR-PI",
      "latitude": -4.05765,
      "longitude": -42.60651
    },
    {
      "id": 6319973,
      "name": "Nova Santa Rita",
      "nativeName": "Nova Santa Rita",
      "code": "BR-PI-6319973",
      "countryId": 3469034,
      "countryCode": "BR",
      "stateCode": "BR-PI",
      "latitude": -8.11204,
      "longitude": -42.01361
    },
    {
      "id": 6319957,
      "name": "Novo Oriente do Piauí",
      "nativeName": "Novo Oriente do Piauí",
      "code": "BR-PI-6319957",
      "countryId": 3469034,
      "countryCode": "BR",
      "stateCode": "BR-PI",
      "latitude": -6.55034,
      "longitude": -41.98555
    },
    {
      "id": 6319958,
      "name": "Novo Santo Antônio",
      "nativeName": "Novo Santo Antônio",
      "code": "BR-PI-6319958",
      "countryId": 3469034,
      "countryCode": "BR",
      "stateCode": "BR-PI",
      "latitude": -5.32848,
      "longitude": -41.96256
    },
    {
      "id": 6319959,
      "name": "Oeiras",
      "nativeName": "Oeiras",
      "code": "BR-PI-6319959",
      "countryId": 3469034,
      "countryCode": "BR",
      "stateCode": "BR-PI",
      "latitude": -6.90686,
      "longitude": -42.17529
    },
    {
      "id": 6319960,
      "name": "Olho d'Água do Piauí",
      "nativeName": "Olho d'Água do Piauí",
      "code": "BR-PI-6319960",
      "countryId": 3469034,
      "countryCode": "BR",
      "stateCode": "BR-PI",
      "latitude": -5.84854,
      "longitude": -42.53937
    },
    {
      "id": 6319961,
      "name": "Padre Marcos",
      "nativeName": "Padre Marcos",
      "code": "BR-PI-6319961",
      "countryId": 3469034,
      "countryCode": "BR",
      "stateCode": "BR-PI",
      "latitude": -7.36533,
      "longitude": -40.93416
    },
    {
      "id": 6319962,
      "name": "Paes Landim",
      "nativeName": "Paes Landim",
      "code": "BR-PI-6319962",
      "countryId": 3469034,
      "countryCode": "BR",
      "stateCode": "BR-PI",
      "latitude": -7.77461,
      "longitude": -42.35087
    },
    {
      "id": 6319963,
      "name": "Pajeú do Piauí",
      "nativeName": "Pajeú do Piauí",
      "code": "BR-PI-6319963",
      "countryId": 3469034,
      "countryCode": "BR",
      "stateCode": "BR-PI",
      "latitude": -8.05364,
      "longitude": -42.86625
    },
    {
      "id": 6319964,
      "name": "Palmeira do Piauí",
      "nativeName": "Palmeira do Piauí",
      "code": "BR-PI-6319964",
      "countryId": 3469034,
      "countryCode": "BR",
      "stateCode": "BR-PI",
      "latitude": -8.51549,
      "longitude": -44.43642
    },
    {
      "id": 6319965,
      "name": "Palmeirais",
      "nativeName": "Palmeirais",
      "code": "BR-PI-6319965",
      "countryId": 3469034,
      "countryCode": "BR",
      "stateCode": "BR-PI",
      "latitude": -5.78548,
      "longitude": -43.02434
    },
    {
      "id": 6319966,
      "name": "Paquetá",
      "nativeName": "Paquetá",
      "code": "BR-PI-6319966",
      "countryId": 3469034,
      "countryCode": "BR",
      "stateCode": "BR-PI",
      "latitude": -7.10746,
      "longitude": -41.64719
    },
    {
      "id": 6319024,
      "name": "Parnaguá",
      "nativeName": "Parnaguá",
      "code": "BR-PI-6319024",
      "countryId": 3469034,
      "countryCode": "BR",
      "stateCode": "BR-PI",
      "latitude": -10.12155,
      "longitude": -44.56012
    },
    {
      "id": 6319967,
      "name": "Parnaíba",
      "nativeName": "Parnaíba",
      "code": "BR-PI-6319967",
      "countryId": 3469034,
      "countryCode": "BR",
      "stateCode": "BR-PI",
      "latitude": -2.92278,
      "longitude": -41.73536
    },
    {
      "id": 6319968,
      "name": "Passagem Franca do Piauí",
      "nativeName": "Passagem Franca do Piauí",
      "code": "BR-PI-6319968",
      "countryId": 3469034,
      "countryCode": "BR",
      "stateCode": "BR-PI",
      "latitude": -5.82734,
      "longitude": -42.40584
    },
    {
      "id": 6319969,
      "name": "Patos do Piauí",
      "nativeName": "Patos do Piauí",
      "code": "BR-PI-6319969",
      "countryId": 3469034,
      "countryCode": "BR",
      "stateCode": "BR-PI",
      "latitude": -7.60918,
      "longitude": -41.29464
    },
    {
      "id": 6319194,
      "name": "Pau D'arco do Piauí",
      "nativeName": "Pau D'arco do Piauí",
      "code": "BR-PI-6319194",
      "countryId": 3469034,
      "countryCode": "BR",
      "stateCode": "BR-PI",
      "latitude": -5.24511,
      "longitude": -42.45473
    },
    {
      "id": 6319970,
      "name": "Paulistana",
      "nativeName": "Paulistana",
      "code": "BR-PI-6319970",
      "countryId": 3469034,
      "countryCode": "BR",
      "stateCode": "BR-PI",
      "latitude": -8.22526,
      "longitude": -41.22746
    },
    {
      "id": 6319971,
      "name": "Pavussu",
      "nativeName": "Pavussu",
      "code": "BR-PI-6319971",
      "countryId": 3469034,
      "countryCode": "BR",
      "stateCode": "BR-PI",
      "latitude": -7.88646,
      "longitude": -43.19694
    },
    {
      "id": 6319972,
      "name": "Pedro II",
      "nativeName": "Pedro II",
      "code": "BR-PI-6319972",
      "countryId": 3469034,
      "countryCode": "BR",
      "stateCode": "BR-PI",
      "latitude": -4.49028,
      "longitude": -41.39962
    },
    {
      "id": 6319025,
      "name": "Pedro Laurentino",
      "nativeName": "Pedro Laurentino",
      "code": "BR-PI-6319025",
      "countryId": 3469034,
      "countryCode": "BR",
      "stateCode": "BR-PI",
      "latitude": -8.11766,
      "longitude": -42.23542
    },
    {
      "id": 6319974,
      "name": "Picos",
      "nativeName": "Picos",
      "code": "BR-PI-6319974",
      "countryId": 3469034,
      "countryCode": "BR",
      "stateCode": "BR-PI",
      "latitude": -7.10697,
      "longitude": -41.51271
    },
    {
      "id": 6319975,
      "name": "Pimenteiras",
      "nativeName": "Pimenteiras",
      "code": "BR-PI-6319975",
      "countryId": 3469034,
      "countryCode": "BR",
      "stateCode": "BR-PI",
      "latitude": -6.33065,
      "longitude": -41.21807
    },
    {
      "id": 6319976,
      "name": "Pio IX",
      "nativeName": "Pio IX",
      "code": "BR-PI-6319976",
      "countryId": 3469034,
      "countryCode": "BR",
      "stateCode": "BR-PI",
      "latitude": -6.86982,
      "longitude": -40.59717
    },
    {
      "id": 6319977,
      "name": "Piracuruca",
      "nativeName": "Piracuruca",
      "code": "BR-PI-6319977",
      "countryId": 3469034,
      "countryCode": "BR",
      "stateCode": "BR-PI",
      "latitude": -3.86656,
      "longitude": -41.74153
    },
    {
      "id": 6319978,
      "name": "Piripiri",
      "nativeName": "Piripiri",
      "code": "BR-PI-6319978",
      "countryId": 3469034,
      "countryCode": "BR",
      "stateCode": "BR-PI",
      "latitude": -4.39488,
      "longitude": -41.78819
    },
    {
      "id": 6319979,
      "name": "Porto",
      "nativeName": "Porto",
      "code": "BR-PI-6319979",
      "countryId": 3469034,
      "countryCode": "BR",
      "stateCode": "BR-PI",
      "latitude": -3.94558,
      "longitude": -42.68879
    },
    {
      "id": 6319980,
      "name": "Porto Alegre do Piauí",
      "nativeName": "Porto Alegre do Piauí",
      "code": "BR-PI-6319980",
      "countryId": 3469034,
      "countryCode": "BR",
      "stateCode": "BR-PI",
      "latitude": -6.95931,
      "longitude": -44.07411
    },
    {
      "id": 6319981,
      "name": "Prata do Piauí",
      "nativeName": "Prata do Piauí",
      "code": "BR-PI-6319981",
      "countryId": 3469034,
      "countryCode": "BR",
      "stateCode": "BR-PI",
      "latitude": -5.71099,
      "longitude": -42.15331
    },
    {
      "id": 6319982,
      "name": "Queimada Nova",
      "nativeName": "Queimada Nova",
      "code": "BR-PI-6319982",
      "countryId": 3469034,
      "countryCode": "BR",
      "stateCode": "BR-PI",
      "latitude": -8.53997,
      "longitude": -41.24753
    },
    {
      "id": 6319983,
      "name": "Redenção do Gurguéia",
      "nativeName": "Redenção do Gurguéia",
      "code": "BR-PI-6319983",
      "countryId": 3469034,
      "countryCode": "BR",
      "stateCode": "BR-PI",
      "latitude": -9.58205,
      "longitude": -44.53802
    },
    {
      "id": 6319984,
      "name": "Regeneração",
      "nativeName": "Regeneração",
      "code": "BR-PI-6319984",
      "countryId": 3469034,
      "countryCode": "BR",
      "stateCode": "BR-PI",
      "latitude": -6.27844,
      "longitude": -42.48165
    },
    {
      "id": 6319985,
      "name": "Riacho Frio",
      "nativeName": "Riacho Frio",
      "code": "BR-PI-6319985",
      "countryId": 3469034,
      "countryCode": "BR",
      "stateCode": "BR-PI",
      "latitude": -9.8366,
      "longitude": -44.67899
    },
    {
      "id": 6319986,
      "name": "Ribeira do Piauí",
      "nativeName": "Ribeira do Piauí",
      "code": "BR-PI-6319986",
      "countryId": 3469034,
      "countryCode": "BR",
      "stateCode": "BR-PI",
      "latitude": -8.09706,
      "longitude": -42.57609
    },
    {
      "id": 6319987,
      "name": "Ribeiro Gonçalves",
      "nativeName": "Ribeiro Gonçalves",
      "code": "BR-PI-6319987",
      "countryId": 3469034,
      "countryCode": "BR",
      "stateCode": "BR-PI",
      "latitude": -8.08721,
      "longitude": -45.47197
    },
    {
      "id": 6319988,
      "name": "Rio Grande do Piauí",
      "nativeName": "Rio Grande do Piauí",
      "code": "BR-PI-6319988",
      "countryId": 3469034,
      "countryCode": "BR",
      "stateCode": "BR-PI",
      "latitude": -7.86062,
      "longitude": -43.14551
    },
    {
      "id": 6319989,
      "name": "Santa Cruz do Piauí",
      "nativeName": "Santa Cruz do Piauí",
      "code": "BR-PI-6319989",
      "countryId": 3469034,
      "countryCode": "BR",
      "stateCode": "BR-PI",
      "latitude": -7.2649,
      "longitude": -41.7638
    },
    {
      "id": 6319026,
      "name": "Santa Cruz dos Milagres",
      "nativeName": "Santa Cruz dos Milagres",
      "code": "BR-PI-6319026",
      "countryId": 3469034,
      "countryCode": "BR",
      "stateCode": "BR-PI",
      "latitude": -5.83227,
      "longitude": -41.95795
    },
    {
      "id": 6319990,
      "name": "Santa Filomena",
      "nativeName": "Santa Filomena",
      "code": "BR-PI-6319990",
      "countryId": 3469034,
      "countryCode": "BR",
      "stateCode": "BR-PI",
      "latitude": -8.89582,
      "longitude": -45.66715
    },
    {
      "id": 6319991,
      "name": "Santa Luz",
      "nativeName": "Santa Luz",
      "code": "BR-PI-6319991",
      "countryId": 3469034,
      "countryCode": "BR",
      "stateCode": "BR-PI",
      "latitude": -8.97437,
      "longitude": -44.27778
    },
    {
      "id": 6319993,
      "name": "Santa Rosa do Piauí",
      "nativeName": "Santa Rosa do Piauí",
      "code": "BR-PI-6319993",
      "countryId": 3469034,
      "countryCode": "BR",
      "stateCode": "BR-PI",
      "latitude": -6.82877,
      "longitude": -42.24627
    },
    {
      "id": 6319992,
      "name": "Santana do Piauí",
      "nativeName": "Santana do Piauí",
      "code": "BR-PI-6319992",
      "countryId": 3469034,
      "countryCode": "BR",
      "stateCode": "BR-PI",
      "latitude": -6.95247,
      "longitude": -41.46185
    },
    {
      "id": 6319994,
      "name": "Santo Antônio de Lisboa",
      "nativeName": "Santo Antônio de Lisboa",
      "code": "BR-PI-6319994",
      "countryId": 3469034,
      "countryCode": "BR",
      "stateCode": "BR-PI",
      "latitude": -6.87642,
      "longitude": -41.18103
    },
    {
      "id": 6319995,
      "name": "Santo Antônio dos Milagres",
      "nativeName": "Santo Antônio dos Milagres",
      "code": "BR-PI-6319995",
      "countryId": 3469034,
      "countryCode": "BR",
      "stateCode": "BR-PI",
      "latitude": -6.05399,
      "longitude": -42.70083
    },
    {
      "id": 6319996,
      "name": "Santo Inácio do Piauí",
      "nativeName": "Santo Inácio do Piauí",
      "code": "BR-PI-6319996",
      "countryId": 3469034,
      "countryCode": "BR",
      "stateCode": "BR-PI",
      "latitude": -7.46906,
      "longitude": -41.91794
    },
    {
      "id": 6320017,
      "name": "Sebastião Barros",
      "nativeName": "Sebastião Barros",
      "code": "BR-PI-6320017",
      "countryId": 3469034,
      "countryCode": "BR",
      "stateCode": "BR-PI",
      "latitude": -10.59755,
      "longitude": -44.83609
    },
    {
      "id": 6319029,
      "name": "Simões",
      "nativeName": "Simões",
      "code": "BR-PI-6319029",
      "countryId": 3469034,
      "countryCode": "BR",
      "stateCode": "BR-PI",
      "latitude": -7.7382,
      "longitude": -40.72738
    },
    {
      "id": 6319997,
      "name": "São Braz do Piauí",
      "nativeName": "São Braz do Piauí",
      "code": "BR-PI-6319997",
      "countryId": 3469034,
      "countryCode": "BR",
      "stateCode": "BR-PI",
      "latitude": -8.9738,
      "longitude": -42.97568
    },
    {
      "id": 6319998,
      "name": "São Francisco de Assis do Piauí",
      "nativeName": "São Francisco de Assis do Piauí",
      "code": "BR-PI-6319998",
      "countryId": 3469034,
      "countryCode": "BR",
      "stateCode": "BR-PI",
      "latitude": -8.12334,
      "longitude": -41.48056
    },
    {
      "id": 6319999,
      "name": "São Francisco do Piauí",
      "nativeName": "São Francisco do Piauí",
      "code": "BR-PI-6319999",
      "countryId": 3469034,
      "countryCode": "BR",
      "stateCode": "BR-PI",
      "latitude": -7.16899,
      "longitude": -42.55086
    },
    {
      "id": 6319027,
      "name": "São Félix do Piauí",
      "nativeName": "São Félix do Piauí",
      "code": "BR-PI-6319027",
      "countryId": 3469034,
      "countryCode": "BR",
      "stateCode": "BR-PI",
      "latitude": -5.88422,
      "longitude": -42.1083
    },
    {
      "id": 6320000,
      "name": "São Gonçalo do Gurguéia",
      "nativeName": "São Gonçalo do Gurguéia",
      "code": "BR-PI-6320000",
      "countryId": 3469034,
      "countryCode": "BR",
      "stateCode": "BR-PI",
      "latitude": -10.0763,
      "longitude": -45.42387
    },
    {
      "id": 6320001,
      "name": "São Gonçalo do Piauí",
      "nativeName": "São Gonçalo do Piauí",
      "code": "BR-PI-6320001",
      "countryId": 3469034,
      "countryCode": "BR",
      "stateCode": "BR-PI",
      "latitude": -6.02033,
      "longitude": -42.6702
    },
    {
      "id": 6320007,
      "name": "São José do Divino",
      "nativeName": "São José do Divino",
      "code": "BR-PI-6320007",
      "countryId": 3469034,
      "countryCode": "BR",
      "stateCode": "BR-PI",
      "latitude": -3.74297,
      "longitude": -41.90119
    },
    {
      "id": 6320008,
      "name": "São José do Peixe",
      "nativeName": "São José do Peixe",
      "code": "BR-PI-6320008",
      "countryId": 3469034,
      "countryCode": "BR",
      "stateCode": "BR-PI",
      "latitude": -7.49544,
      "longitude": -42.49355
    },
    {
      "id": 6319028,
      "name": "São José do Piauí",
      "nativeName": "São José do Piauí",
      "code": "BR-PI-6319028",
      "countryId": 3469034,
      "countryCode": "BR",
      "stateCode": "BR-PI",
      "latitude": -6.84096,
      "longitude": -41.51702
    },
    {
      "id": 6320002,
      "name": "São João da Canabrava",
      "nativeName": "São João da Canabrava",
      "code": "BR-PI-6320002",
      "countryId": 3469034,
      "countryCode": "BR",
      "stateCode": "BR-PI",
      "latitude": -6.72756,
      "longitude": -41.38226
    },
    {
      "id": 6320003,
      "name": "São João da Serra",
      "nativeName": "São João da Serra",
      "code": "BR-PI-6320003",
      "countryId": 3469034,
      "countryCode": "BR",
      "stateCode": "BR-PI",
      "latitude": -5.44173,
      "longitude": -41.85793
    },
    {
      "id": 6320004,
      "name": "São João da Varjota",
      "nativeName": "São João da Varjota",
      "code": "BR-PI-6320004",
      "countryId": 3469034,
      "countryCode": "BR",
      "stateCode": "BR-PI",
      "latitude": -6.94733,
      "longitude": -41.92917
    },
    {
      "id": 6320005,
      "name": "São João do Arraial",
      "nativeName": "São João do Arraial",
      "code": "BR-PI-6320005",
      "countryId": 3469034,
      "countryCode": "BR",
      "stateCode": "BR-PI",
      "latitude": -3.80325,
      "longitude": -42.46973
    },
    {
      "id": 6320006,
      "name": "São João do Piauí",
      "nativeName": "São João do Piauí",
      "code": "BR-PI-6320006",
      "countryId": 3469034,
      "countryCode": "BR",
      "stateCode": "BR-PI",
      "latitude": -8.27575,
      "longitude": -42.34005
    },
    {
      "id": 6320009,
      "name": "São Julião",
      "nativeName": "São Julião",
      "code": "BR-PI-6320009",
      "countryId": 3469034,
      "countryCode": "BR",
      "stateCode": "BR-PI",
      "latitude": -7.05987,
      "longitude": -40.79725
    },
    {
      "id": 6320010,
      "name": "São Lourenço do Piauí",
      "nativeName": "São Lourenço do Piauí",
      "code": "BR-PI-6320010",
      "countryId": 3469034,
      "countryCode": "BR",
      "stateCode": "BR-PI",
      "latitude": -9.13336,
      "longitude": -42.40297
    },
    {
      "id": 6320011,
      "name": "São Luis do Piauí",
      "nativeName": "São Luis do Piauí",
      "code": "BR-PI-6320011",
      "countryId": 3469034,
      "countryCode": "BR",
      "stateCode": "BR-PI",
      "latitude": -6.77801,
      "longitude": -41.2765
    },
    {
      "id": 6320012,
      "name": "São Miguel da Baixa Grande",
      "nativeName": "São Miguel da Baixa Grande",
      "code": "BR-PI-6320012",
      "countryId": 3469034,
      "countryCode": "BR",
      "stateCode": "BR-PI",
      "latitude": -5.81791,
      "longitude": -42.27077
    },
    {
      "id": 6320013,
      "name": "São Miguel do Fidalgo",
      "nativeName": "São Miguel do Fidalgo",
      "code": "BR-PI-6320013",
      "countryId": 3469034,
      "countryCode": "BR",
      "stateCode": "BR-PI",
      "latitude": -7.59935,
      "longitude": -42.38796
    },
    {
      "id": 6320014,
      "name": "São Miguel do Tapuio",
      "nativeName": "São Miguel do Tapuio",
      "code": "BR-PI-6320014",
      "countryId": 3469034,
      "countryCode": "BR",
      "stateCode": "BR-PI",
      "latitude": -5.70486,
      "longitude": -41.61634
    },
    {
      "id": 6320015,
      "name": "São Pedro do Piauí",
      "nativeName": "São Pedro do Piauí",
      "code": "BR-PI-6320015",
      "countryId": 3469034,
      "countryCode": "BR",
      "stateCode": "BR-PI",
      "latitude": -5.82135,
      "longitude": -42.77168
    },
    {
      "id": 6320016,
      "name": "São Raimundo Nonato",
      "nativeName": "São Raimundo Nonato",
      "code": "BR-PI-6320016",
      "countryId": 3469034,
      "countryCode": "BR",
      "stateCode": "BR-PI",
      "latitude": -9.0522,
      "longitude": -42.60836
    }
  ]
}