{
  "stateId": 3474575,
  "stateCode": "BR-TO",
  "countryCode": "BR",
  "cities": [
    {
      "id": 6319504,
      "name": "Abreulândia",
      "nativeName": "Abreulândia",
      "code": "BR-TO-6319504",
      "countryId": 3469034,
      "countryCode": "BR",
      "stateCode": "BR-TO",
      "latitude": -9.43672,
      "longitude": -49.31733
    },
    {
      "id": 6319505,
      "name": "Aguiarnópolis",
      "nativeName": "Aguiarnópolis",
      "code": "BR-TO-6319505",
      "countryId": 3469034,
      "countryCode": "BR",
      "stateCode": "BR-TO",
      "latitude": -6.48176,
      "longitude": -47.51435
    },
    {
      "id": 6319506,
      "name": "Aliança do Tocantins",
      "nativeName": "Aliança do Tocantins",
      "code": "BR-TO-6319506",
      "countryId": 3469034,
      "countryCode": "BR",
      "stateCode": "BR-TO",
      "latitude": -11.32864,
      "longitude": -48.95855
    },
    {
      "id": 6319507,
      "name": "Almas",
      "nativeName": "Almas",
      "code": "BR-TO-6319507",
      "countryId": 3469034,
      "countryCode": "BR",
      "stateCode": "BR-TO",
      "latitude": -11.43527,
      "longitude": -47.23635
    },
    {
      "id": 6319508,
      "name": "Alvorada",
      "nativeName": "Alvorada",
      "code": "BR-TO-6319508",
      "countryId": 3469034,
      "countryCode": "BR",
      "stateCode": "BR-TO",
      "latitude": -12.41786,
      "longitude": -49.10605
    },
    {
      "id": 6319509,
      "name": "Ananás",
      "nativeName": "Ananás",
      "code": "BR-TO-6319509",
      "countryId": 3469034,
      "countryCode": "BR",
      "stateCode": "BR-TO",
      "latitude": -6.14621,
      "longitude": -48.21505
    },
    {
      "id": 6319510,
      "name": "Angico",
      "nativeName": "Angico",
      "code": "BR-TO-6319510",
      "countryId": 3469034,
      "countryCode": "BR",
      "stateCode": "BR-TO",
      "latitude": -6.34335,
      "longitude": -47.93112
    },
    {
      "id": 6319511,
      "name": "Aparecida do Rio Negro",
      "nativeName": "Aparecida do Rio Negro",
      "code": "BR-TO-6319511",
      "countryId": 3469034,
      "countryCode": "BR",
      "stateCode": "BR-TO",
      "latitude": -10.06183,
      "longitude": -47.96514
    },
    {
      "id": 6319512,
      "name": "Aragominas",
      "nativeName": "Aragominas",
      "code": "BR-TO-6319512",
      "countryId": 3469034,
      "countryCode": "BR",
      "stateCode": "BR-TO",
      "latitude": -6.89259,
      "longitude": -48.61589
    },
    {
      "id": 6319513,
      "name": "Araguacema",
      "nativeName": "Araguacema",
      "code": "BR-TO-6319513",
      "countryId": 3469034,
      "countryCode": "BR",
      "stateCode": "BR-TO",
      "latitude": -8.91352,
      "longitude": -49.40915
    },
    {
      "id": 6319516,
      "name": "Araguanã",
      "nativeName": "Araguanã",
      "code": "BR-TO-6319516",
      "countryId": 3469034,
      "countryCode": "BR",
      "stateCode": "BR-TO",
      "latitude": -6.76634,
      "longitude": -48.52702
    },
    {
      "id": 6319517,
      "name": "Araguatins",
      "nativeName": "Araguatins",
      "code": "BR-TO-6319517",
      "countryId": 3469034,
      "countryCode": "BR",
      "stateCode": "BR-TO",
      "latitude": -5.64071,
      "longitude": -48.08859
    },
    {
      "id": 6319514,
      "name": "Araguaçu",
      "nativeName": "Araguaçu",
      "code": "BR-TO-6319514",
      "countryId": 3469034,
      "countryCode": "BR",
      "stateCode": "BR-TO",
      "latitude": -12.72579,
      "longitude": -49.74942
    },
    {
      "id": 6319515,
      "name": "Araguaína",
      "nativeName": "Araguaína",
      "code": "BR-TO-6319515",
      "countryId": 3469034,
      "countryCode": "BR",
      "stateCode": "BR-TO",
      "latitude": -7.31139,
      "longitude": -48.62113
    },
    {
      "id": 6319518,
      "name": "Arapoema",
      "nativeName": "Arapoema",
      "code": "BR-TO-6319518",
      "countryId": 3469034,
      "countryCode": "BR",
      "stateCode": "BR-TO",
      "latitude": -7.71941,
      "longitude": -49.03285
    },
    {
      "id": 6319519,
      "name": "Arraias",
      "nativeName": "Arraias",
      "code": "BR-TO-6319519",
      "countryId": 3469034,
      "countryCode": "BR",
      "stateCode": "BR-TO",
      "latitude": -12.8411,
      "longitude": -46.90868
    },
    {
      "id": 6319520,
      "name": "Augustinópolis",
      "nativeName": "Augustinópolis",
      "code": "BR-TO-6319520",
      "countryId": 3469034,
      "countryCode": "BR",
      "stateCode": "BR-TO",
      "latitude": -5.5108,
      "longitude": -47.91538
    },
    {
      "id": 6319521,
      "name": "Aurora do Tocantins",
      "nativeName": "Aurora do Tocantins",
      "code": "BR-TO-6319521",
      "countryId": 3469034,
      "countryCode": "BR",
      "stateCode": "BR-TO",
      "latitude": -12.61624,
      "longitude": -46.44441
    },
    {
      "id": 6319522,
      "name": "Axixá do Tocantins",
      "nativeName": "Axixá do Tocantins",
      "code": "BR-TO-6319522",
      "countryId": 3469034,
      "countryCode": "BR",
      "stateCode": "BR-TO",
      "latitude": -5.6485,
      "longitude": -47.77278
    },
    {
      "id": 6319523,
      "name": "Babaçulândia",
      "nativeName": "Babaçulândia",
      "code": "BR-TO-6319523",
      "countryId": 3469034,
      "countryCode": "BR",
      "stateCode": "BR-TO",
      "latitude": -7.20516,
      "longitude": -47.76821
    },
    {
      "id": 6319524,
      "name": "Bandeirantes do Tocantins",
      "nativeName": "Bandeirantes do Tocantins",
      "code": "BR-TO-6319524",
      "countryId": 3469034,
      "countryCode": "BR",
      "stateCode": "BR-TO",
      "latitude": -8.00418,
      "longitude": -48.68223
    },
    {
      "id": 6319525,
      "name": "Barra do Ouro",
      "nativeName": "Barra do Ouro",
      "code": "BR-TO-6319525",
      "countryId": 3469034,
      "countryCode": "BR",
      "stateCode": "BR-TO",
      "latitude": -7.75845,
      "longitude": -47.58781
    },
    {
      "id": 6319526,
      "name": "Barrolândia",
      "nativeName": "Barrolândia",
      "code": "BR-TO-6319526",
      "countryId": 3469034,
      "countryCode": "BR",
      "stateCode": "BR-TO",
      "latitude": -9.84999,
      "longitude": -48.83437
    },
    {
      "id": 6319527,
      "name": "Bernardo Sayão",
      "nativeName": "Bernardo Sayão",
      "code": "BR-TO-6319527",
      "countryId": 3469034,
      "countryCode": "BR",
      "stateCode": "BR-TO",
      "latitude": -7.97377,
      "longitude": -48.98609
    },
    {
      "id": 6319528,
      "name": "Bom Jesus do Tocantins",
      "nativeName": "Bom Jesus do Tocantins",
      "code": "BR-TO-6319528",
      "countryId": 3469034,
      "countryCode": "BR",
      "stateCode": "BR-TO",
      "latitude": -9.01838,
      "longitude": -47.86969
    },
    {
      "id": 6319529,
      "name": "Brasilândia do Tocantins",
      "nativeName": "Brasilândia do Tocantins",
      "code": "BR-TO-6319529",
      "countryId": 3469034,
      "countryCode": "BR",
      "stateCode": "BR-TO",
      "latitude": -8.26045,
      "longitude": -48.4345
    },
    {
      "id": 6319530,
      "name": "Brejinho de Nazaré",
      "nativeName": "Brejinho de Nazaré",
      "code": "BR-TO-6319530",
      "countryId": 3469034,
      "countryCode": "BR",
      "stateCode": "BR-TO",
      "latitude": -11.01872,
      "longitude": -48.64695
    },
    {
      "id": 6319531,
      "name": "Buriti do Tocantins",
      "nativeName": "Buriti do Tocantins",
      "code": "BR-TO-6319531",
      "countryId": 3469034,
      "countryCode": "BR",
      "stateCode": "BR-TO",
      "latitude": -5.37057,
      "longitude": -48.13476
    },
    {
      "id": 6319532,
      "name": "Cachoeirinha",
      "nativeName": "Cachoeirinha",
      "code": "BR-TO-6319532",
      "countryId": 3469034,
      "countryCode": "BR",
      "stateCode": "BR-TO",
      "latitude": -6.09807,
      "longitude": -47.87888
    },
    {
      "id": 6319533,
      "name": "Campos Lindos",
      "nativeName": "Campos Lindos",
      "code": "BR-TO-6319533",
      "countryId": 3469034,
      "countryCode": "BR",
      "stateCode": "BR-TO",
      "latitude": -8.22553,
      "longitude": -46.84507
    },
    {
      "id": 6319534,
      "name": "Cariri do Tocantins",
      "nativeName": "Cariri do Tocantins",
      "code": "BR-TO-6319534",
      "countryId": 3469034,
      "countryCode": "BR",
      "stateCode": "BR-TO",
      "latitude": -11.945,
      "longitude": -49.20796
    },
    {
      "id": 6319535,
      "name": "Carmolândia",
      "nativeName": "Carmolândia",
      "code": "BR-TO-6319535",
      "countryId": 3469034,
      "countryCode": "BR",
      "stateCode": "BR-TO",
      "latitude": -7.03001,
      "longitude": -48.35627
    },
    {
      "id": 6319536,
      "name": "Carrasco Bonito",
      "nativeName": "Carrasco Bonito",
      "code": "BR-TO-6319536",
      "countryId": 3469034,
      "countryCode": "BR",
      "stateCode": "BR-TO",
      "latitude": -5.31027,
      "longitude": -48.0336
    },
    {
      "id": 6319537,
      "name": "Caseara",
      "nativeName": "Caseara",
      "code": "BR-TO-6319537",
      "countryId": 3469034,
      "countryCode": "BR",
      "stateCode": "BR-TO",
      "latitude": -9.45982,
      "longitude": -49.83604
    },
    {
      "id": 6319538,
      "name": "Centenário",
      "nativeName": "Centenário",
      "code": "BR-TO-6319538",
      "countryId": 3469034,
      "countryCode": "BR",
      "stateCode": "BR-TO",
      "latitude": -9.15331,
      "longitude": -47.44772
    },
    {
      "id": 6319540,
      "name": "Chapada da Natividade",
      "nativeName": "Chapada da Natividade",
      "code": "BR-TO-6319540",
      "countryId": 3469034,
      "countryCode": "BR",
      "stateCode": "BR-TO",
      "latitude": -11.54159,
      "longitude": -47.88094
    },
    {
      "id": 6319539,
      "name": "Chapada de Areia",
      "nativeName": "Chapada de Areia",
      "code": "BR-TO-6319539",
      "countryId": 3469034,
      "countryCode": "BR",
      "stateCode": "BR-TO",
      "latitude": -10.14838,
      "longitude": -49.19998
    },
    {
      "id": 6319541,
      "name": "Colinas do Tocantins",
      "nativeName": "Colinas do Tocantins",
      "code": "BR-TO-6319541",
      "countryId": 3469034,
      "countryCode": "BR",
      "stateCode": "BR-TO",
      "latitude": -8.09451,
      "longitude": -48.52143
    },
    {
      "id": 6319594,
      "name": "Colméia",
      "nativeName": "Colméia",
      "code": "BR-TO-6319594",
      "countryId": 3469034,
      "countryCode": "BR",
      "stateCode": "BR-TO",
      "latitude": -8.87655,
      "longitude": -48.75788
    },
    {
      "id": 6319542,
      "name": "Combinado",
      "nativeName": "Combinado",
      "code": "BR-TO-6319542",
      "countryId": 3469034,
      "countryCode": "BR",
      "stateCode": "BR-TO",
      "latitude": -12.82321,
      "longitude": -46.53424
    },
    {
      "id": 6319543,
      "name": "Conceição do Tocantins",
      "nativeName": "Conceição do Tocantins",
      "code": "BR-TO-6319543",
      "countryId": 3469034,
      "countryCode": "BR",
      "stateCode": "BR-TO",
      "latitude": -12.09878,
      "longitude": -47.27047
    },
    {
      "id": 6319544,
      "name": "Couto Magalhães",
      "nativeName": "Couto Magalhães",
      "code": "BR-TO-6319544",
      "countryId": 3469034,
      "countryCode": "BR",
      "stateCode": "BR-TO",
      "latitude": -8.50138,
      "longitude": -49.17287
    },
    {
      "id": 6319545,
      "name": "Cristalândia",
      "nativeName": "Cristalândia",
      "code": "BR-TO-6319545",
      "countryId": 3469034,
      "countryCode": "BR",
      "stateCode": "BR-TO",
      "latitude": -10.62568,
      "longitude": -49.36863
    },
    {
      "id": 6319546,
      "name": "Crixás do Tocantins",
      "nativeName": "Crixás do Tocantins",
      "code": "BR-TO-6319546",
      "countryId": 3469034,
      "countryCode": "BR",
      "stateCode": "BR-TO",
      "latitude": -11.16426,
      "longitude": -49.07254
    },
    {
      "id": 6319547,
      "name": "Darcinópolis",
      "nativeName": "Darcinópolis",
      "code": "BR-TO-6319547",
      "countryId": 3469034,
      "countryCode": "BR",
      "stateCode": "BR-TO",
      "latitude": -6.76072,
      "longitude": -47.75687
    },
    {
      "id": 6319548,
      "name": "Dianópolis",
      "nativeName": "Dianópolis",
      "code": "BR-TO-6319548",
      "countryId": 3469034,
      "countryCode": "BR",
      "stateCode": "BR-TO",
      "latitude": -11.69578,
      "longitude": -46.73544
    },
    {
      "id": 6319549,
      "name": "Divinópolis do Tocantins",
      "nativeName": "Divinópolis do Tocantins",
      "code": "BR-TO-6319549",
      "countryId": 3469034,
      "countryCode": "BR",
      "stateCode": "BR-TO",
      "latitude": -9.65731,
      "longitude": -49.38737
    },
    {
      "id": 6319550,
      "name": "Dois Irmãos do Tocantins",
      "nativeName": "Dois Irmãos do Tocantins",
      "code": "BR-TO-6319550",
      "countryId": 3469034,
      "countryCode": "BR",
      "stateCode": "BR-TO",
      "latitude": -9.29074,
      "longitude": -49.15573
    },
    {
      "id": 6319551,
      "name": "Dueré",
      "nativeName": "Dueré",
      "code": "BR-TO-6319551",
      "countryId": 3469034,
      "countryCode": "BR",
      "stateCode": "BR-TO",
      "latitude": -11.35537,
      "longitude": -49.46137
    },
    {
      "id": 6319552,
      "name": "Esperantina",
      "nativeName": "Esperantina",
      "code": "BR-TO-6319552",
      "countryId": 3469034,
      "countryCode": "BR",
      "stateCode": "BR-TO",
      "latitude": -5.30432,
      "longitude": -48.54762
    },
    {
      "id": 6319554,
      "name": "Figueirópolis",
      "nativeName": "Figueirópolis",
      "code": "BR-TO-6319554",
      "countryId": 3469034,
      "countryCode": "BR",
      "stateCode": "BR-TO",
      "latitude": -12.26857,
      "longitude": -49.28976
    },
    {
      "id": 6319555,
      "name": "Filadélfia",
      "nativeName": "Filadélfia",
      "code": "BR-TO-6319555",
      "countryId": 3469034,
      "countryCode": "BR",
      "stateCode": "BR-TO",
      "latitude": -7.48804,
      "longitude": -47.85623
    },
    {
      "id": 6319556,
      "name": "Formoso do Araguaia",
      "nativeName": "Formoso do Araguaia",
      "code": "BR-TO-6319556",
      "countryId": 3469034,
      "countryCode": "BR",
      "stateCode": "BR-TO",
      "latitude": -11.95898,
      "longitude": -50.09809
    },
    {
      "id": 6319557,
      "name": "Fortaleza do Tabocão",
      "nativeName": "Fortaleza do Tabocão",
      "code": "BR-TO-6319557",
      "countryId": 3469034,
      "countryCode": "BR",
      "stateCode": "BR-TO",
      "latitude": -9.08805,
      "longitude": -48.55638
    },
    {
      "id": 6319553,
      "name": "Fátima",
      "nativeName": "Fátima",
      "code": "BR-TO-6319553",
      "countryId": 3469034,
      "countryCode": "BR",
      "stateCode": "BR-TO",
      "latitude": -10.81953,
      "longitude": -48.86757
    },
    {
      "id": 6319558,
      "name": "Goianorte",
      "nativeName": "Goianorte",
      "code": "BR-TO-6319558",
      "countryId": 3469034,
      "countryCode": "BR",
      "stateCode": "BR-TO",
      "latitude": -8.83664,
      "longitude": -48.99356
    },
    {
      "id": 6319559,
      "name": "Goiatins",
      "nativeName": "Goiatins",
      "code": "BR-TO-6319559",
      "countryId": 3469034,
      "countryCode": "BR",
      "stateCode": "BR-TO",
      "latitude": -8.04432,
      "longitude": -47.47183
    },
    {
      "id": 3398566,
      "name": "Guaraí",
      "nativeName": "Guaraí",
      "code": "BR-TO-3398566",
      "countryId": 3469034,
      "countryCode": "BR",
      "stateCode": "BR-TO",
      "latitude": -8.70233,
      "longitude": -48.40251
    },
    {
      "id": 6319560,
      "name": "Gurupi",
      "nativeName": "Gurupi",
      "code": "BR-TO-6319560",
      "countryId": 3469034,
      "countryCode": "BR",
      "stateCode": "BR-TO",
      "latitude": -11.66673,
      "longitude": -48.84218
    },
    {
      "id": 6324252,
      "name": "Ipueiras",
      "nativeName": "Ipueiras",
      "code": "BR-TO-6324252",
      "countryId": 3469034,
      "countryCode": "BR",
      "stateCode": "BR-TO",
      "latitude": -11.15847,
      "longitude": -48.37886
    },
    {
      "id": 6319561,
      "name": "Itacajá",
      "nativeName": "Itacajá",
      "code": "BR-TO-6319561",
      "countryId": 3469034,
      "countryCode": "BR",
      "stateCode": "BR-TO",
      "latitude": -8.55538,
      "longitude": -47.62201
    },
    {
      "id": 6319562,
      "name": "Itaguatins",
      "nativeName": "Itaguatins",
      "code": "BR-TO-6319562",
      "countryId": 3469034,
      "countryCode": "BR",
      "stateCode": "BR-TO",
      "latitude": -5.81408,
      "longitude": -47.65425
    },
    {
      "id": 6319563,
      "name": "Itapiratins",
      "nativeName": "Itapiratins",
      "code": "BR-TO-6319563",
      "countryId": 3469034,
      "countryCode": "BR",
      "stateCode": "BR-TO",
      "latitude": -8.3582,
      "longitude": -47.99703
    },
    {
      "id": 6319564,
      "name": "Itaporã do Tocantins",
      "nativeName": "Itaporã do Tocantins",
      "code": "BR-TO-6319564",
      "countryId": 3469034,
      "countryCode": "BR",
      "stateCode": "BR-TO",
      "latitude": -8.50178,
      "longitude": -48.75214
    },
    {
      "id": 6319565,
      "name": "Jaú do Tocantins",
      "nativeName": "Jaú do Tocantins",
      "code": "BR-TO-6319565",
      "countryId": 3469034,
      "countryCode": "BR",
      "stateCode": "BR-TO",
      "latitude": -12.83943,
      "longitude": -48.63203
    },
    {
      "id": 6319566,
      "name": "Juarina",
      "nativeName": "Juarina",
      "code": "BR-TO-6319566",
      "countryId": 3469034,
      "countryCode": "BR",
      "stateCode": "BR-TO",
      "latitude": -8.1018,
      "longitude": -49.07995
    },
    {
      "id": 6324280,
      "name": "Lagoa da Confusão",
      "nativeName": "Lagoa da Confusão",
      "code": "BR-TO-6324280",
      "countryId": 3469034,
      "countryCode": "BR",
      "stateCode": "BR-TO",
      "latitude": -10.99307,
      "longitude": -49.93702
    },
    {
      "id": 6319567,
      "name": "Lagoa do Tocantins",
      "nativeName": "Lagoa do Tocantins",
      "code": "BR-TO-6319567",
      "countryId": 3469034,
      "countryCode": "BR",
      "stateCode": "BR-TO",
      "latitude": -10.33721,
      "longitude": -47.48133
    },
    {
      "id": 6319568,
      "name": "Lajeado",
      "nativeName": "Lajeado",
      "code": "BR-TO-6319568",
      "countryId": 3469034,
      "countryCode": "BR",
      "stateCode": "BR-TO",
      "latitude": -9.86927,
      "longitude": -48.28058
    },
    {
      "id": 6319569,
      "name": "Lavandeira",
      "nativeName": "Lavandeira",
      "code": "BR-TO-6319569",
      "countryId": 3469034,
      "countryCode": "BR",
      "stateCode": "BR-TO",
      "latitude": -12.83658,
      "longitude": -46.39307
    },
    {
      "id": 6319570,
      "name": "Lizarda",
      "nativeName": "Lizarda",
      "code": "BR-TO-6319570",
      "countryId": 3469034,
      "countryCode": "BR",
      "stateCode": "BR-TO",
      "latitude": -9.52341,
      "longitude": -46.97679
    },
    {
      "id": 6319571,
      "name": "Luzinópolis",
      "nativeName": "Luzinópolis",
      "code": "BR-TO-6319571",
      "countryId": 3469034,
      "countryCode": "BR",
      "stateCode": "BR-TO",
      "latitude": -6.20636,
      "longitude": -47.83045
    },
    {
      "id": 6319572,
      "name": "Marianópolis do Tocantins",
      "nativeName": "Marianópolis do Tocantins",
      "code": "BR-TO-6319572",
      "countryId": 3469034,
      "countryCode": "BR",
      "stateCode": "BR-TO",
      "latitude": -9.81443,
      "longitude": -49.71607
    },
    {
      "id": 6319573,
      "name": "Mateiros",
      "nativeName": "Mateiros",
      "code": "BR-TO-6319573",
      "countryId": 3469034,
      "countryCode": "BR",
      "stateCode": "BR-TO",
      "latitude": -10.41802,
      "longitude": -46.4838
    },
    {
      "id": 6319574,
      "name": "Maurilândia do Tocantins",
      "nativeName": "Maurilândia do Tocantins",
      "code": "BR-TO-6319574",
      "countryId": 3469034,
      "countryCode": "BR",
      "stateCode": "BR-TO",
      "latitude": -5.98609,
      "longitude": -47.57986
    },
    {
      "id": 6319575,
      "name": "Miracema do Tocantins",
      "nativeName": "Miracema do Tocantins",
      "code": "BR-TO-6319575",
      "countryId": 3469034,
      "countryCode": "BR",
      "stateCode": "BR-TO",
      "latitude": -9.76855,
      "longitude": -48.58348
    },
    {
      "id": 6319576,
      "name": "Miranorte",
      "nativeName": "Miranorte",
      "code": "BR-TO-6319576",
      "countryId": 3469034,
      "countryCode": "BR",
      "stateCode": "BR-TO",
      "latitude": -9.39114,
      "longitude": -48.66598
    },
    {
      "id": 6319577,
      "name": "Monte Santo do Tocantins",
      "nativeName": "Monte Santo do Tocantins",
      "code": "BR-TO-6319577",
      "countryId": 3469034,
      "countryCode": "BR",
      "stateCode": "BR-TO",
      "latitude": -10.00972,
      "longitude": -49.12747
    },
    {
      "id": 6324189,
      "name": "Monte do Carmo",
      "nativeName": "Monte do Carmo",
      "code": "BR-TO-6324189",
      "countryId": 3469034,
      "countryCode": "BR",
      "stateCode": "BR-TO",
      "latitude": -10.72034,
      "longitude": -48.01807
    },
    {
      "id": 6319579,
      "name": "Muricilândia",
      "nativeName": "Muricilândia",
      "code": "BR-TO-6319579",
      "countryId": 3469034,
      "countryCode": "BR",
      "stateCode": "BR-TO",
      "latitude": -6.98598,
      "longitude": -48.79167
    },
    {
      "id": 6324190,
      "name": "Natividade",
      "nativeName": "Natividade",
      "code": "BR-TO-6324190",
      "countryId": 3469034,
      "countryCode": "BR",
      "stateCode": "BR-TO",
      "latitude": -11.75889,
      "longitude": -47.64485
    },
    {
      "id": 6319580,
      "name": "Nazaré",
      "nativeName": "Nazaré",
      "code": "BR-TO-6319580",
      "countryId": 3469034,
      "countryCode": "BR",
      "stateCode": "BR-TO",
      "latitude": -6.31311,
      "longitude": -47.78944
    },
    {
      "id": 6319581,
      "name": "Nova Olinda",
      "nativeName": "Nova Olinda",
      "code": "BR-TO-6319581",
      "countryId": 3469034,
      "countryCode": "BR",
      "stateCode": "BR-TO",
      "latitude": -7.68973,
      "longitude": -48.28152
    },
    {
      "id": 6319582,
      "name": "Nova Rosalândia",
      "nativeName": "Nova Rosalândia",
      "code": "BR-TO-6319582",
      "countryId": 3469034,
      "countryCode": "BR",
      "stateCode": "BR-TO",
      "latitude": -10.56285,
      "longitude": -48.97053
    },
    {
      "id": 6319583,
      "name": "Novo Acordo",
      "nativeName": "Novo Acordo",
      "code": "BR-TO-6319583",
      "countryId": 3469034,
      "countryCode": "BR",
      "stateCode": "BR-TO",
      "latitude": -10.15197,
      "longitude": -47.47165
    },
    {
      "id": 6319584,
      "name": "Novo Alegre",
      "nativeName": "Novo Alegre",
      "code": "BR-TO-6319584",
      "countryId": 3469034,
      "countryCode": "BR",
      "stateCode": "BR-TO",
      "latitude": -12.87311,
      "longitude": -46.56936
    },
    {
      "id": 6319585,
      "name": "Novo Jardim",
      "nativeName": "Novo Jardim",
      "code": "BR-TO-6319585",
      "countryId": 3469034,
      "countryCode": "BR",
      "stateCode": "BR-TO",
      "latitude": -11.75148,
      "longitude": -46.54138
    },
    {
      "id": 6319586,
      "name": "Oliveira de Fátima",
      "nativeName": "Oliveira de Fátima",
      "code": "BR-TO-6319586",
      "countryId": 3469034,
      "countryCode": "BR",
      "stateCode": "BR-TO",
      "latitude": -10.67053,
      "longitude": -48.90783
    },
    {
      "id": 6319626,
      "name": "Palmas",
      "nativeName": "Palmas",
      "code": "BR-TO-6319626",
      "countryId": 3469034,
      "countryCode": "BR",
      "stateCode": "BR-TO",
      "latitude": -10.11592,
      "longitude": -48.0777
    },
    {
      "id": 6319587,
      "name": "Palmeirante",
      "nativeName": "Palmeirante",
      "code": "BR-TO-6319587",
      "countryId": 3469034,
      "countryCode": "BR",
      "stateCode": "BR-TO",
      "latitude": -7.86937,
      "longitude": -48.17585
    },
    {
      "id": 6319578,
      "name": "Palmeiras do Tocantins",
      "nativeName": "Palmeiras do Tocantins",
      "code": "BR-TO-6319578",
      "countryId": 3469034,
      "countryCode": "BR",
      "stateCode": "BR-TO",
      "latitude": -6.61304,
      "longitude": -47.66259
    },
    {
      "id": 6319588,
      "name": "Palmeirópolis",
      "nativeName": "Palmeirópolis",
      "code": "BR-TO-6319588",
      "countryId": 3469034,
      "countryCode": "BR",
      "stateCode": "BR-TO",
      "latitude": -13.06026,
      "longitude": -48.38866
    },
    {
      "id": 6319590,
      "name": "Paranã",
      "nativeName": "Paranã",
      "code": "BR-TO-6319590",
      "countryId": 3469034,
      "countryCode": "BR",
      "stateCode": "BR-TO",
      "latitude": -12.73875,
      "longitude": -47.94338
    },
    {
      "id": 6319589,
      "name": "Paraíso do Tocantins",
      "nativeName": "Paraíso do Tocantins",
      "code": "BR-TO-6319589",
      "countryId": 3469034,
      "countryCode": "BR",
      "stateCode": "BR-TO",
      "latitude": -10.23212,
      "longitude": -48.88032
    },
    {
      "id": 6319002,
      "name": "Pau d'Arco",
      "nativeName": "Pau d'Arco",
      "code": "BR-TO-6319002",
      "countryId": 3469034,
      "countryCode": "BR",
      "stateCode": "BR-TO",
      "latitude": -7.55877,
      "longitude": -48.93697
    },
    {
      "id": 6319591,
      "name": "Pedro Afonso",
      "nativeName": "Pedro Afonso",
      "code": "BR-TO-6319591",
      "countryId": 3469034,
      "countryCode": "BR",
      "stateCode": "BR-TO",
      "latitude": -9.20623,
      "longitude": -47.97805
    },
    {
      "id": 6319592,
      "name": "Peixe",
      "nativeName": "Peixe",
      "code": "BR-TO-6319592",
      "countryId": 3469034,
      "countryCode": "BR",
      "stateCode": "BR-TO",
      "latitude": -11.99612,
      "longitude": -48.53284
    },
    {
      "id": 6319593,
      "name": "Pequizeiro",
      "nativeName": "Pequizeiro",
      "code": "BR-TO-6319593",
      "countryId": 3469034,
      "countryCode": "BR",
      "stateCode": "BR-TO",
      "latitude": -8.40977,
      "longitude": -48.94148
    },
    {
      "id": 6319595,
      "name": "Pindorama do Tocantins",
      "nativeName": "Pindorama do Tocantins",
      "code": "BR-TO-6319595",
      "countryId": 3469034,
      "countryCode": "BR",
      "stateCode": "BR-TO",
      "latitude": -11.13233,
      "longitude": -47.5617
    },
    {
      "id": 6319596,
      "name": "Piraquê",
      "nativeName": "Piraquê",
      "code": "BR-TO-6319596",
      "countryId": 3469034,
      "countryCode": "BR",
      "stateCode": "BR-TO",
      "latitude": -6.68862,
      "longitude": -48.23711
    },
    {
      "id": 6319597,
      "name": "Pium",
      "nativeName": "Pium",
      "code": "BR-TO-6319597",
      "countryId": 3469034,
      "countryCode": "BR",
      "stateCode": "BR-TO",
      "latitude": -10.07399,
      "longitude": -49.69857
    },
    {
      "id": 6319598,
      "name": "Ponte Alta do Bom Jesus",
      "nativeName": "Ponte Alta do Bom Jesus",
      "code": "BR-TO-6319598",
      "countryId": 3469034,
      "countryCode": "BR",
      "stateCode": "BR-TO",
      "latitude": -12.09696,
      "longitude": -46.62629
    },
    {
      "id": 6319599,
      "name": "Ponte Alta do Tocantins",
      "nativeName": "Ponte Alta do Tocantins",
      "code": "BR-TO-6319599",
      "countryId": 3469034,
      "countryCode": "BR",
      "stateCode": "BR-TO",
      "latitude": -10.78604,
      "longitude": -47.1813
    },
    {
      "id": 6319600,
      "name": "Porto Alegre do Tocantins",
      "nativeName": "Porto Alegre do Tocantins",
      "code": "BR-TO-6319600",
      "countryId": 3469034,
      "countryCode": "BR",
      "stateCode": "BR-TO",
      "latitude": -11.53239,
      "longitude": -47.03453
    },
    {
      "id": 6319601,
      "name": "Porto Nacional",
      "nativeName": "Porto Nacional",
      "code": "BR-TO-6319601",
      "countryId": 3469034,
      "countryCode": "BR",
      "stateCode": "BR-TO",
      "latitude": -10.52826,
      "longitude": -48.47443
    },
    {
      "id": 6319602,
      "name": "Praia Norte",
      "nativeName": "Praia Norte",
      "code": "BR-TO-6319602",
      "countryId": 3469034,
      "countryCode": "BR",
      "stateCode": "BR-TO",
      "latitude": -5.46958,
      "longitude": -47.79732
    },
    {
      "id": 6324281,
      "name": "Presidente Kennedy",
      "nativeName": "Presidente Kennedy",
      "code": "BR-TO-6324281",
      "countryId": 3469034,
      "countryCode": "BR",
      "stateCode": "BR-TO",
      "latitude": -8.48264,
      "longitude": -48.44075
    },
    {
      "id": 6319603,
      "name": "Pugmil",
      "nativeName": "Pugmil",
      "code": "BR-TO-6319603",
      "countryId": 3469034,
      "countryCode": "BR",
      "stateCode": "BR-TO",
      "latitude": -10.42875,
      "longitude": -48.85558
    },
    {
      "id": 6319604,
      "name": "Recursolândia",
      "nativeName": "Recursolândia",
      "code": "BR-TO-6319604",
      "countryId": 3469034,
      "countryCode": "BR",
      "stateCode": "BR-TO",
      "latitude": -8.66852,
      "longitude": -47.07333
    },
    {
      "id": 6319605,
      "name": "Riachinho",
      "nativeName": "Riachinho",
      "code": "BR-TO-6319605",
      "countryId": 3469034,
      "countryCode": "BR",
      "stateCode": "BR-TO",
      "latitude": -6.46034,
      "longitude": -48.13618
    },
    {
      "id": 6319608,
      "name": "Rio Sono",
      "nativeName": "Rio Sono",
      "code": "BR-TO-6319608",
      "countryId": 3469034,
      "countryCode": "BR",
      "stateCode": "BR-TO",
      "latitude": -9.64479,
      "longitude": -47.38387
    },
    {
      "id": 6319606,
      "name": "Rio da Conceição",
      "nativeName": "Rio da Conceição",
      "code": "BR-TO-6319606",
      "countryId": 3469034,
      "countryCode": "BR",
      "stateCode": "BR-TO",
      "latitude": -11.36815,
      "longitude": -46.77445
    },
    {
      "id": 6319607,
      "name": "Rio dos Bois",
      "nativeName": "Rio dos Bois",
      "code": "BR-TO-6319607",
      "countryId": 3469034,
      "countryCode": "BR",
      "stateCode": "BR-TO",
      "latitude": -9.20901,
      "longitude": -48.44308
    },
    {
      "id": 6319609,
      "name": "Sampaio",
      "nativeName": "Sampaio",
      "code": "BR-TO-6319609",
      "countryId": 3469034,
      "countryCode": "BR",
      "stateCode": "BR-TO",
      "latitude": -5.36587,
      "longitude": -47.91898
    },
    {
      "id": 6319610,
      "name": "Sandolândia",
      "nativeName": "Sandolândia",
      "code": "BR-TO-6319610",
      "countryId": 3469034,
      "countryCode": "BR",
      "stateCode": "BR-TO",
      "latitude": -12.40743,
      "longitude": -49.85491
    },
    {
      "id": 6319003,
      "name": "Santa Fé do Araguaia",
      "nativeName": "Santa Fé do Araguaia",
      "code": "BR-TO-6319003",
      "countryId": 3469034,
      "countryCode": "BR",
      "stateCode": "BR-TO",
      "latitude": -7.10746,
      "longitude": -48.9558
    },
    {
      "id": 6319004,
      "name": "Santa Maria do Tocantins",
      "nativeName": "Santa Maria do Tocantins",
      "code": "BR-TO-6319004",
      "countryId": 3469034,
      "countryCode": "BR",
      "stateCode": "BR-TO",
      "latitude": -8.81566,
      "longitude": -47.85337
    },
    {
      "id": 6319611,
      "name": "Santa Rita do Tocantins",
      "nativeName": "Santa Rita do Tocantins",
      "code": "BR-TO-6319611",
      "countryId": 3469034,
      "countryCode": "BR",
      "stateCode": "BR-TO",
      "latitude": -10.9736,
      "longitude": -49.37112
    },
    {
      "id": 6319612,
      "name": "Santa Rosa do Tocantins",
      "nativeName": "Santa Rosa do Tocantins",
      "code": "BR-TO-6319612",
      "countryId": 3469034,
      "countryCode": "BR",
      "stateCode": "BR-TO",
      "latitude": -11.38278,
      "longitude": -48.07295
    },
    {
      "id": 6319613,
      "name": "Santa Tereza do Tocantins",
      "nativeName": "Santa Tereza do Tocantins",
      "code": "BR-TO-6319613",
      "countryId": 3469034,
      "countryCode": "BR",
      "stateCode": "BR-TO",
      "latitude": -10.2998,
      "longitude": -47.72597
    },
    {
      "id": 6319614,
      "name": "Santa Terezinha do Tocantins",
      "nativeName": "Santa Terezinha do Tocantins",
      "code": "BR-TO-6319614",
      "countryId": 3469034,
      "countryCode": "BR",
      "stateCode": "BR-TO",
      "latitude": -6.4804,
      "longitude": -47.70055
    },
    {
      "id": 6319620,
      "name": "Silvanópolis",
      "nativeName": "Silvanópolis",
      "code": "BR-TO-6319620",
      "countryId": 3469034,
      "countryCode": "BR",
      "stateCode": "BR-TO",
      "latitude": -11.11343,
      "longitude": -48.22341
    },
    {
      "id": 6319622,
      "name": "Sucupira",
      "nativeName": "Sucupira",
      "code": "BR-TO-6319622",
      "countryId": 3469034,
      "countryCode": "BR",
      "stateCode": "BR-TO",
      "latitude": -12.019,
      "longitude": -48.84477
    },
    {
      "id": 6319615,
      "name": "São Bento do Tocantins",
      "nativeName": "São Bento do Tocantins",
      "code": "BR-TO-6319615",
      "countryId": 3469034,
      "countryCode": "BR",
      "stateCode": "BR-TO",
      "latitude": -5.95028,
      "longitude": -47.9963
    },
    {
      "id": 6319616,
      "name": "São Félix do Tocantins",
      "nativeName": "São Félix do Tocantins",
      "code": "BR-TO-6319616",
      "countryId": 3469034,
      "countryCode": "BR",
      "stateCode": "BR-TO",
      "latitude": -10.06488,
      "longitude": -46.72778
    },
    {
      "id": 6319617,
      "name": "São Miguel do Tocantins",
      "nativeName": "São Miguel do Tocantins",
      "code": "BR-TO-6319617",
      "countryId": 3469034,
      "countryCode": "BR",
      "stateCode": "BR-TO",
      "latitude": -5.53458,
      "longitude": -47.6082
    },
    {
      "id": 6319618,
      "name": "São Salvador do Tocantins",
      "nativeName": "São Salvador do Tocantins",
      "code": "BR-TO-6319618",
      "countryId": 3469034,
      "countryCode": "BR",
      "stateCode": "BR-TO",
      "latitude": -12.54945,
      "longitude": -48.40184
    },
    {
      "id": 6319619,
      "name": "São Sebastião do Tocantins",
      "nativeName": "São Sebastião do Tocantins",
      "code": "BR-TO-6319619",
      "countryId": 3469034,
      "countryCode": "BR",
      "stateCode": "BR-TO",
      "latitude": -5.25181,
      "longitude": -48.34602
    },
    {
      "id": 6324191,
      "name": "São Valério",
      "nativeName": "São Valério",
      "code": "BR-TO-6324191",
      "countryId": 3469034,
      "countryCode": "BR",
      "stateCode": "BR-TO",
      "latitude": -11.86029,
      "longitude": -48.13995
    },
    {
      "id": 6319621,
      "name": "Sítio Novo do Tocantins",
      "nativeName": "Sítio Novo do Tocantins",
      "code": "BR-TO-6319621",
      "countryId": 3469034,
      "countryCode": "BR",
      "stateCode": "BR-TO",
      "latitude": -5.6299,
      "longitude": -47.68644
    },
    {
      "id": 6319623,
      "name": "Taguatinga",
      "nativeName": "Taguatinga",
      "code": "BR-TO-6319623",
      "countryId": 3469034,
      "countryCode": "BR",
      "stateCode": "BR-TO",
      "latitude": -12.38568,
      "longitude": -46.5711
    },
    {
      "id": 6319624,
      "name": "Taipas do Tocantins",
      "nativeName": "Taipas do Tocantins",
      "code": "BR-TO-6319624",
      "countryId": 3469034,
      "countryCode": "BR",
      "stateCode": "BR-TO",
      "latitude": -12.15677,
      "longitude": -47.03342
    },
    {
      "id": 6319625,
      "name": "Talismã",
      "nativeName": "Talismã",
      "code": "BR-TO-6319625",
      "countryId": 3469034,
      "countryCode": "BR",
      "stateCode": "BR-TO",
      "latitude": -12.67795,
      "longitude": -49.07863
    },
    {
      "id": 6319628,
      "name": "Tocantinópolis",
      "nativeName": "Tocantinópolis",
      "code": "BR-TO-6319628",
      "countryId": 3469034,
      "countryCode": "BR",
      "stateCode": "BR-TO",
      "latitude": -6.26254,
      "longitude": -47.55767
    },
    {
      "id": 6319627,
      "name": "Tocantínia",
      "nativeName": "Tocantínia",
      "code": "BR-TO-6319627",
      "countryId": 3469034,
      "countryCode": "BR",
      "stateCode": "BR-TO",
      "latitude": -9.5644,
      "longitude": -48.18709
    },
    {
      "id": 6319629,
      "name": "Tupirama",
      "nativeName": "Tupirama",
      "code": "BR-TO-6319629",
      "countryId": 3469034,
      "countryCode": "BR",
      "stateCode": "BR-TO",
      "latitude": -8.9192,
      "longitude": -48.27661
    },
    {
      "id": 6324282,
      "name": "Tupiratins",
      "nativeName": "Tupiratins",
      "code": "BR-TO-6324282",
      "countryId": 3469034,
      "countryCode": "BR",
      "stateCode": "BR-TO",
      "latitude": -8.38578,
      "longitude": -48.22299
    },
    {
      "id": 6319630,
      "name": "Wanderlândia",
      "nativeName": "Wanderlândia",
      "code": "BR-TO-6319630",
      "countryId": 3469034,
      "countryCode": "BR",
      "stateCode": "BR-TO",
      "latitude": -6.79803,
      "longitude": -48.00415
    },
    {
      "id": 6319631,
      "name": "Xambioá",
      "nativeName": "Xambioá",
      "code": "BR-TO-6319631",
      "countryId": 3469034,
      "countryCode": "BR",
      "stateCode": "BR-TO",
      "latitude": -6.59413,
      "longitude": -48.43142
    }
  ]
}