{
  "stateId": 932184,
  "stateCode": "LS-G",
  "countryCode": "LS",
  "cities": [
    {
      "id": 932183,
      "name": "Quthing",
      "nativeName": "Quthing",
      "code": "LS-G-932183",
      "countryId": 932692,
      "countryCode": "LS",
      "stateCode": "LS-G",
      "latitude": -30.40001,
      "longitude": 27.70027
    },
    {
      "id": 11429054,
      "name": "Ha Machakela",
      "nativeName": "Ha Machakela",
      "code": "LS-G-11429054",
      "countryId": 932692,
      "countryCode": "LS",
      "stateCode": "LS-G",
      "latitude": -30.15158,
      "longitude": 27.91368
    },
    {
      "id": 11496159,
      "name": "Ha Majara",
      "nativeName": "Ha Majara",
      "code": "LS-G-11496159",
      "countryId": 932692,
      "countryCode": "LS",
      "stateCode": "LS-G",
      "latitude": -30.11879,
      "longitude": 27.99471
    },
    {
      "id": 11280250,
      "name": "Ha Malibe",
      "nativeName": "Ha Malibe",
      "code": "LS-G-11280250",
      "countryId": 932692,
      "countryCode": "LS",
      "stateCode": "LS-G",
      "latitude": -30.38836,
      "longitude": 27.64384
    },
    {
      "id": 11427347,
      "name": "Ha Mosi",
      "nativeName": "Ha Mosi",
      "code": "LS-G-11427347",
      "countryId": 932692,
      "countryCode": "LS",
      "stateCode": "LS-G",
      "latitude": -30.05279,
      "longitude": 28.28407
    },
    {
      "id": 11300083,
      "name": "Ha Motsapi",
      "nativeName": "Ha Motsapi",
      "code": "LS-G-11300083",
      "countryId": 932692,
      "countryCode": "LS",
      "stateCode": "LS-G",
      "latitude": -30.572,
      "longitude": 27.769
    },
    {
      "id": 11475545,
      "name": "Ha Raphera",
      "nativeName": "Ha Raphera",
      "code": "LS-G-11475545",
      "countryId": 932692,
      "countryCode": "LS",
      "stateCode": "LS-G",
      "latitude": -30.43444,
      "longitude": 27.81833
    },
    {
      "id": 11352139,
      "name": "Ha Sejakhosi",
      "nativeName": "Ha Sejakhosi",
      "code": "LS-G-11352139",
      "countryId": 932692,
      "countryCode": "LS",
      "stateCode": "LS-G",
      "latitude": -30.407,
      "longitude": 27.854
    },
    {
      "id": 11427335,
      "name": "Ha Sikara",
      "nativeName": "Ha Sikara",
      "code": "LS-G-11427335",
      "countryId": 932692,
      "countryCode": "LS",
      "stateCode": "LS-G",
      "latitude": -30.39907,
      "longitude": 27.7006
    },
    {
      "id": 11281632,
      "name": "Manekoleng",
      "nativeName": "Manekoleng",
      "code": "LS-G-11281632",
      "countryId": 932692,
      "countryCode": "LS",
      "stateCode": "LS-G",
      "latitude": -30.3838,
      "longitude": 27.76933
    },
    {
      "id": 932341,
      "name": "Mount Moorosi",
      "nativeName": "Mount Moorosi",
      "code": "LS-G-932341",
      "countryId": 932692,
      "countryCode": "LS",
      "stateCode": "LS-G",
      "latitude": -30.2731,
      "longitude": 27.87076
    },
    {
      "id": 12687283,
      "name": "Mphaki",
      "nativeName": "Mphaki",
      "code": "LS-G-12687283",
      "countryId": 932692,
      "countryCode": "LS",
      "stateCode": "LS-G",
      "latitude": -30.19397,
      "longitude": 28.12965
    },
    {
      "id": 11281883,
      "name": "Nkaus",
      "nativeName": "Nkaus",
      "code": "LS-G-11281883",
      "countryId": 932692,
      "countryCode": "LS",
      "stateCode": "LS-G",
      "latitude": -30.03315,
      "longitude": 28.20005
    },
    {
      "id": 932111,
      "name": "Seforong",
      "nativeName": "Seforong",
      "code": "LS-G-932111",
      "countryId": 932692,
      "countryCode": "LS",
      "stateCode": "LS-G",
      "latitude": -30.05252,
      "longitude": 28.24791
    },
    {
      "id": 11103537,
      "name": "Taung",
      "nativeName": "Taung",
      "code": "LS-G-11103537",
      "countryId": 932692,
      "countryCode": "LS",
      "stateCode": "LS-G",
      "latitude": -30.365,
      "longitude": 27.61333
    }
  ]
}