{
  "stateId": 2294234,
  "stateCode": "GH-TV",
  "countryCode": "GH",
  "cities": [
    {
      "id": 12105093,
      "name": "Adaklu",
      "nativeName": "Adaklu",
      "code": "GH-TV-12105093",
      "countryId": 2300660,
      "countryCode": "GH",
      "stateCode": "GH-TV",
      "latitude": 6.42881,
      "longitude": 0.54592
    },
    {
      "id": 12105095,
      "name": "Afadzato South",
      "nativeName": "Afadzato South",
      "code": "GH-TV-12105095",
      "countryId": 2300660,
      "countryCode": "GH",
      "stateCode": "GH-TV",
      "latitude": 6.90854,
      "longitude": 0.41421
    },
    {
      "id": 12105121,
      "name": "Agotime Ziope",
      "nativeName": "Agotime Ziope",
      "code": "GH-TV-12105121",
      "countryId": 2300660,
      "countryCode": "GH",
      "stateCode": "GH-TV",
      "latitude": 6.48477,
      "longitude": 0.69358
    },
    {
      "id": 7648934,
      "name": "Akatsi District",
      "nativeName": "Akatsi District",
      "code": "GH-TV-7648934",
      "countryId": 2300660,
      "countryCode": "GH",
      "stateCode": "GH-TV",
      "latitude": 6.197,
      "longitude": 0.799
    },
    {
      "id": 12105119,
      "name": "Akatsi South",
      "nativeName": "Akatsi South",
      "code": "GH-TV-12105119",
      "countryId": 2300660,
      "countryCode": "GH",
      "stateCode": "GH-TV",
      "latitude": 6.14739,
      "longitude": 0.78154
    },
    {
      "id": 12105120,
      "name": "Central Tongu",
      "nativeName": "Central Tongu",
      "code": "GH-TV-12105120",
      "countryId": 2300660,
      "countryCode": "GH",
      "stateCode": "GH-TV",
      "latitude": 6.18042,
      "longitude": 0.57336
    },
    {
      "id": 7648984,
      "name": "Ho",
      "nativeName": "Ho",
      "code": "GH-TV-7648984",
      "countryId": 2300660,
      "countryCode": "GH",
      "stateCode": "GH-TV",
      "latitude": 6.6,
      "longitude": 0.46667
    },
    {
      "id": 12105094,
      "name": "Ho West",
      "nativeName": "Ho West",
      "code": "GH-TV-12105094",
      "countryId": 2300660,
      "countryCode": "GH",
      "stateCode": "GH-TV",
      "latitude": 6.5599,
      "longitude": 0.36638
    },
    {
      "id": 7648985,
      "name": "Hohoe",
      "nativeName": "Hohoe",
      "code": "GH-TV-7648985",
      "countryId": 2300660,
      "countryCode": "GH",
      "stateCode": "GH-TV",
      "latitude": 7.15,
      "longitude": 0.46667
    },
    {
      "id": 2299646,
      "name": "Keta",
      "nativeName": "Keta",
      "code": "GH-TV-2299646",
      "countryId": 2300660,
      "countryCode": "GH",
      "stateCode": "GH-TV",
      "latitude": 5.905,
      "longitude": 0.877
    },
    {
      "id": 7648994,
      "name": "Ketu North District",
      "nativeName": "Ketu North District",
      "code": "GH-TV-7648994",
      "countryId": 2300660,
      "countryCode": "GH",
      "stateCode": "GH-TV",
      "latitude": 6.213,
      "longitude": 0.971
    },
    {
      "id": 7648995,
      "name": "Ketu South District",
      "nativeName": "Ketu South District",
      "code": "GH-TV-7648995",
      "countryId": 2300660,
      "countryCode": "GH",
      "stateCode": "GH-TV",
      "latitude": 6.086,
      "longitude": 1.047
    },
    {
      "id": 7648999,
      "name": "Kpando",
      "nativeName": "Kpando",
      "code": "GH-TV-7648999",
      "countryId": 2300660,
      "countryCode": "GH",
      "stateCode": "GH-TV",
      "latitude": 7,
      "longitude": 0.3
    },
    {
      "id": 12076867,
      "name": "North Dayi",
      "nativeName": "North Dayi",
      "code": "GH-TV-12076867",
      "countryId": 2300660,
      "countryCode": "GH",
      "stateCode": "GH-TV",
      "latitude": 6.86508,
      "longitude": 0.32547
    },
    {
      "id": 7649019,
      "name": "North Tongu",
      "nativeName": "North Tongu",
      "code": "GH-TV-7649019",
      "countryId": 2300660,
      "countryCode": "GH",
      "stateCode": "GH-TV",
      "latitude": 6.10297,
      "longitude": 0.35401
    },
    {
      "id": 7649041,
      "name": "South Dayi",
      "nativeName": "South Dayi",
      "code": "GH-TV-7649041",
      "countryId": 2300660,
      "countryCode": "GH",
      "stateCode": "GH-TV",
      "latitude": 6.56463,
      "longitude": 0.21404
    },
    {
      "id": 7649043,
      "name": "South Tongu District",
      "nativeName": "South Tongu District",
      "code": "GH-TV-7649043",
      "countryId": 2300660,
      "countryCode": "GH",
      "stateCode": "GH-TV",
      "latitude": 5.977,
      "longitude": 0.647
    }
  ]
}