{
  "stateId": 3572937,
  "stateCode": "BS-AK",
  "countryCode": "BS",
  "cities": [
    {
      "id": 3571908,
      "name": "Masons Bay",
      "nativeName": "Masons Bay",
      "code": "BS-AK-3571908",
      "countryId": 3572887,
      "countryCode": "BS",
      "stateCode": "BS-AK",
      "latitude": 22.54352,
      "longitude": -73.8778
    },
    {
      "id": 3572946,
      "name": "Abercorn",
      "nativeName": "Abercorn",
      "code": "BS-AK-3572946",
      "countryId": 3572887,
      "countryCode": "BS",
      "stateCode": "BS-AK",
      "latitude": 22.36667,
      "longitude": -73.95
    },
    {
      "id": 3572930,
      "name": "Albert Town",
      "nativeName": "Albert Town",
      "code": "BS-AK-3572930",
      "countryId": 3572887,
      "countryCode": "BS",
      "stateCode": "BS-AK",
      "latitude": 22.60091,
      "longitude": -74.34687
    },
    {
      "id": 3572913,
      "name": "Anderson",
      "nativeName": "Anderson",
      "code": "BS-AK-3572913",
      "countryId": 3572887,
      "countryCode": "BS",
      "stateCode": "BS-AK",
      "latitude": 22.61667,
      "longitude": -73.86667
    },
    {
      "id": 3572804,
      "name": "Binnacle Hill",
      "nativeName": "Binnacle Hill",
      "code": "BS-AK-3572804",
      "countryId": 3572887,
      "countryCode": "BS",
      "stateCode": "BS-AK",
      "latitude": 22.32116,
      "longitude": -74.13847
    },
    {
      "id": 3572656,
      "name": "Chesters",
      "nativeName": "Chesters",
      "code": "BS-AK-3572656",
      "countryId": 3572887,
      "countryCode": "BS",
      "stateCode": "BS-AK",
      "latitude": 22.70657,
      "longitude": -73.9179
    },
    {
      "id": 3572507,
      "name": "Delectable Point",
      "nativeName": "Delectable Point",
      "code": "BS-AK-3572507",
      "countryId": 3572887,
      "countryCode": "BS",
      "stateCode": "BS-AK",
      "latitude": 22.42006,
      "longitude": -73.99215
    },
    {
      "id": 3572334,
      "name": "Golden Grove",
      "nativeName": "Golden Grove",
      "code": "BS-AK-3572334",
      "countryId": 3572887,
      "countryCode": "BS",
      "stateCode": "BS-AK",
      "latitude": 22.46667,
      "longitude": -73.9
    },
    {
      "id": 3572323,
      "name": "Goodwill",
      "nativeName": "Goodwill",
      "code": "BS-AK-3572323",
      "countryId": 3572887,
      "countryCode": "BS",
      "stateCode": "BS-AK",
      "latitude": 22.53678,
      "longitude": -73.87533
    },
    {
      "id": 3572232,
      "name": "Hard Hill",
      "nativeName": "Hard Hill",
      "code": "BS-AK-3572232",
      "countryId": 3572887,
      "countryCode": "BS",
      "stateCode": "BS-AK",
      "latitude": 22.60179,
      "longitude": -73.87764
    },
    {
      "id": 3571990,
      "name": "Lovely Bay",
      "nativeName": "Lovely Bay",
      "code": "BS-AK-3571990",
      "countryId": 3572887,
      "countryCode": "BS",
      "stateCode": "BS-AK",
      "latitude": 22.69135,
      "longitude": -73.98199
    },
    {
      "id": 3571851,
      "name": "Morant Bay",
      "nativeName": "Morant Bay",
      "code": "BS-AK-3571851",
      "countryId": 3572887,
      "countryCode": "BS",
      "stateCode": "BS-AK",
      "latitude": 22.4,
      "longitude": -74.03333
    },
    {
      "id": 3571677,
      "name": "Pinefield",
      "nativeName": "Pinefield",
      "code": "BS-AK-3571677",
      "countryId": 3572887,
      "countryCode": "BS",
      "stateCode": "BS-AK",
      "latitude": 22.65,
      "longitude": -73.86667
    },
    {
      "id": 3571661,
      "name": "Pompey Bay",
      "nativeName": "Pompey Bay",
      "code": "BS-AK-3571661",
      "countryId": 3572887,
      "countryCode": "BS",
      "stateCode": "BS-AK",
      "latitude": 22.41143,
      "longitude": -73.99381
    },
    {
      "id": 3571543,
      "name": "Salina Point",
      "nativeName": "Salina Point",
      "code": "BS-AK-3571543",
      "countryId": 3572887,
      "countryCode": "BS",
      "stateCode": "BS-AK",
      "latitude": 22.20478,
      "longitude": -74.2435
    },
    {
      "id": 3571426,
      "name": "Snug Corner",
      "nativeName": "Snug Corner",
      "code": "BS-AK-3571426",
      "countryId": 3572887,
      "countryCode": "BS",
      "stateCode": "BS-AK",
      "latitude": 22.55501,
      "longitude": -73.87829
    },
    {
      "id": 3571370,
      "name": "Spring Point",
      "nativeName": "Spring Point",
      "code": "BS-AK-3571370",
      "countryId": 3572887,
      "countryCode": "BS",
      "stateCode": "BS-AK",
      "latitude": 22.45883,
      "longitude": -73.96057
    },
    {
      "id": 3571292,
      "name": "True Blue",
      "nativeName": "True Blue",
      "code": "BS-AK-3571292",
      "countryId": 3572887,
      "countryCode": "BS",
      "stateCode": "BS-AK",
      "latitude": 22.06667,
      "longitude": -74.06667
    }
  ]
}