{
  "stateId": 98465,
  "stateCode": "IQ-SU",
  "countryCode": "IQ",
  "cities": [
    {
      "id": 97416,
      "name": "Chamchamal District",
      "nativeName": "Chamchamal District",
      "code": "IQ-SU-97416",
      "countryId": 99237,
      "countryCode": "IQ",
      "stateCode": "IQ-SU",
      "latitude": 35.33835,
      "longitude": 44.89129
    },
    {
      "id": 9166594,
      "name": "Darbandokeh District",
      "nativeName": "Darbandokeh District",
      "code": "IQ-SU-9166594",
      "countryId": 99237,
      "countryCode": "IQ",
      "stateCode": "IQ-SU",
      "latitude": 35.18624,
      "longitude": 45.63371
    },
    {
      "id": 9166596,
      "name": "Dokan District",
      "nativeName": "Dokan District",
      "code": "IQ-SU-9166596",
      "countryId": 99237,
      "countryCode": "IQ",
      "stateCode": "IQ-SU",
      "latitude": 35.90979,
      "longitude": 45.04027
    },
    {
      "id": 9166600,
      "name": "Kalar District",
      "nativeName": "Kalar District",
      "code": "IQ-SU-9166600",
      "countryId": 99237,
      "countryCode": "IQ",
      "stateCode": "IQ-SU",
      "latitude": 34.88576,
      "longitude": 45.27185
    },
    {
      "id": 9877798,
      "name": "Mawat District",
      "nativeName": "Mawat District",
      "code": "IQ-SU-9877798",
      "countryId": 99237,
      "countryCode": "IQ",
      "stateCode": "IQ-SU",
      "latitude": 35.90975,
      "longitude": 45.40084
    },
    {
      "id": 9166684,
      "name": "Penjwin District",
      "nativeName": "Penjwin District",
      "code": "IQ-SU-9166684",
      "countryId": 99237,
      "countryCode": "IQ",
      "stateCode": "IQ-SU",
      "latitude": 35.62366,
      "longitude": 45.94954
    },
    {
      "id": 92743,
      "name": "Pshdar District",
      "nativeName": "Pshdar District",
      "code": "IQ-SU-92743",
      "countryId": 99237,
      "countryCode": "IQ",
      "stateCode": "IQ-SU",
      "latitude": 36.26058,
      "longitude": 45.11873
    },
    {
      "id": 9877795,
      "name": "Qaḑā’ Sayyid Şādiq",
      "nativeName": "Qaḑā’ Sayyid Şādiq",
      "code": "IQ-SU-9877795",
      "countryId": 99237,
      "countryCode": "IQ",
      "stateCode": "IQ-SU",
      "latitude": 35.44905,
      "longitude": 45.77403
    },
    {
      "id": 98464,
      "name": "Qaḑā’ as Sulaymānīyah",
      "nativeName": "Qaḑā’ as Sulaymānīyah",
      "code": "IQ-SU-98464",
      "countryId": 99237,
      "countryCode": "IQ",
      "stateCode": "IQ-SU",
      "latitude": 35.53591,
      "longitude": 45.35571
    },
    {
      "id": 96204,
      "name": "Qaḑā’ Ḩalabchah",
      "nativeName": "Qaḑā’ Ḩalabchah",
      "code": "IQ-SU-96204",
      "countryId": 99237,
      "countryCode": "IQ",
      "stateCode": "IQ-SU",
      "latitude": 35.1989,
      "longitude": 45.91234
    },
    {
      "id": 9877732,
      "name": "Qeza-î Qeredagh",
      "nativeName": "Qeza-î Qeredagh",
      "code": "IQ-SU-9877732",
      "countryId": 99237,
      "countryCode": "IQ",
      "stateCode": "IQ-SU",
      "latitude": 35.30061,
      "longitude": 45.40467
    },
    {
      "id": 9873303,
      "name": "Qeza-î Sharezûr",
      "nativeName": "Qeza-î Sharezûr",
      "code": "IQ-SU-9873303",
      "countryId": 99237,
      "countryCode": "IQ",
      "stateCode": "IQ-SU",
      "latitude": 35.27927,
      "longitude": 45.70438
    },
    {
      "id": 92051,
      "name": "Rania District",
      "nativeName": "Rania District",
      "code": "IQ-SU-92051",
      "countryId": 99237,
      "countryCode": "IQ",
      "stateCode": "IQ-SU",
      "latitude": 36.2571,
      "longitude": 44.88275
    },
    {
      "id": 91176,
      "name": "Sharbazher District",
      "nativeName": "Sharbazher District",
      "code": "IQ-SU-91176",
      "countryId": 99237,
      "countryCode": "IQ",
      "stateCode": "IQ-SU",
      "latitude": 35.7,
      "longitude": 45.6
    }
  ]
}