{
  "stateId": 3577934,
  "stateCode": "VC-01",
  "countryCode": "VC",
  "cities": [
    {
      "id": 3577900,
      "name": "Georgetown",
      "nativeName": "Georgetown",
      "code": "VC-01-3577900",
      "countryId": 3577815,
      "countryCode": "VC",
      "stateCode": "VC-01",
      "latitude": 13.28054,
      "longitude": -61.1185
    },
    {
      "id": 3577972,
      "name": "Adelphi",
      "nativeName": "Adelphi",
      "code": "VC-01-3577972",
      "countryId": 3577815,
      "countryCode": "VC",
      "stateCode": "VC-01",
      "latitude": 13.18993,
      "longitude": -61.13922
    },
    {
      "id": 12535723,
      "name": "Basin Hole",
      "nativeName": "Basin Hole",
      "code": "VC-01-12535723",
      "countryId": 3577815,
      "countryCode": "VC",
      "stateCode": "VC-01",
      "latitude": 13.29388,
      "longitude": -61.1155
    },
    {
      "id": 3577955,
      "name": "Biabou",
      "nativeName": "Biabou",
      "code": "VC-01-3577955",
      "countryId": 3577815,
      "countryCode": "VC",
      "stateCode": "VC-01",
      "latitude": 13.1943,
      "longitude": -61.13904
    },
    {
      "id": 12535787,
      "name": "Big Level",
      "nativeName": "Big Level",
      "code": "VC-01-12535787",
      "countryId": 3577815,
      "countryCode": "VC",
      "stateCode": "VC-01",
      "latitude": 13.34522,
      "longitude": -61.1307
    },
    {
      "id": 12535733,
      "name": "Byera Valley",
      "nativeName": "Byera Valley",
      "code": "VC-01-12535733",
      "countryId": 3577815,
      "countryCode": "VC",
      "stateCode": "VC-01",
      "latitude": 13.25778,
      "longitude": -61.15104
    },
    {
      "id": 3577944,
      "name": "Byera Village",
      "nativeName": "Byera Village",
      "code": "VC-01-3577944",
      "countryId": 3577815,
      "countryCode": "VC",
      "stateCode": "VC-01",
      "latitude": 13.25636,
      "longitude": -61.11954
    },
    {
      "id": 3577938,
      "name": "Chapmans",
      "nativeName": "Chapmans",
      "code": "VC-01-3577938",
      "countryId": 3577815,
      "countryCode": "VC",
      "stateCode": "VC-01",
      "latitude": 13.2862,
      "longitude": -61.1188
    },
    {
      "id": 3577957,
      "name": "Chapmans",
      "nativeName": "Chapmans",
      "code": "VC-01-3577957",
      "countryId": 3577815,
      "countryCode": "VC",
      "stateCode": "VC-01",
      "latitude": 13.29228,
      "longitude": -61.11724
    },
    {
      "id": 12535719,
      "name": "Chateau",
      "nativeName": "Chateau",
      "code": "VC-01-12535719",
      "countryId": 3577815,
      "countryCode": "VC",
      "stateCode": "VC-01",
      "latitude": 13.37763,
      "longitude": -61.15608
    },
    {
      "id": 12535754,
      "name": "Chester Cottage",
      "nativeName": "Chester Cottage",
      "code": "VC-01-12535754",
      "countryId": 3577815,
      "countryCode": "VC",
      "stateCode": "VC-01",
      "latitude": 13.26162,
      "longitude": -61.1206
    },
    {
      "id": 12535780,
      "name": "Chili Village",
      "nativeName": "Chili Village",
      "code": "VC-01-12535780",
      "countryId": 3577815,
      "countryCode": "VC",
      "stateCode": "VC-01",
      "latitude": 13.28279,
      "longitude": -61.12156
    },
    {
      "id": 12535696,
      "name": "Coco Walk",
      "nativeName": "Coco Walk",
      "code": "VC-01-12535696",
      "countryId": 3577815,
      "countryCode": "VC",
      "stateCode": "VC-01",
      "latitude": 13.35308,
      "longitude": -61.14687
    },
    {
      "id": 3577923,
      "name": "Colonarie",
      "nativeName": "Colonarie",
      "code": "VC-01-3577923",
      "countryId": 3577815,
      "countryCode": "VC",
      "stateCode": "VC-01",
      "latitude": 13.24041,
      "longitude": -61.11641
    },
    {
      "id": 12535710,
      "name": "Congo Valley",
      "nativeName": "Congo Valley",
      "code": "VC-01-12535710",
      "countryId": 3577815,
      "countryCode": "VC",
      "stateCode": "VC-01",
      "latitude": 13.27085,
      "longitude": -61.14137
    },
    {
      "id": 12535704,
      "name": "Dandrade",
      "nativeName": "Dandrade",
      "code": "VC-01-12535704",
      "countryId": 3577815,
      "countryCode": "VC",
      "stateCode": "VC-01",
      "latitude": 13.32255,
      "longitude": -61.14863
    },
    {
      "id": 12535735,
      "name": "Dells Hill",
      "nativeName": "Dells Hill",
      "code": "VC-01-12535735",
      "countryId": 3577815,
      "countryCode": "VC",
      "stateCode": "VC-01",
      "latitude": 13.35714,
      "longitude": -61.13244
    },
    {
      "id": 12535761,
      "name": "Diamond",
      "nativeName": "Diamond",
      "code": "VC-01-12535761",
      "countryId": 3577815,
      "countryCode": "VC",
      "stateCode": "VC-01",
      "latitude": 13.35318,
      "longitude": -61.13716
    },
    {
      "id": 12535747,
      "name": "Dickson",
      "nativeName": "Dickson",
      "code": "VC-01-12535747",
      "countryId": 3577815,
      "countryCode": "VC",
      "stateCode": "VC-01",
      "latitude": 13.2826,
      "longitude": -61.14777
    },
    {
      "id": 12535693,
      "name": "Dixons",
      "nativeName": "Dixons",
      "code": "VC-01-12535693",
      "countryId": 3577815,
      "countryCode": "VC",
      "stateCode": "VC-01",
      "latitude": 13.28544,
      "longitude": -61.12814
    },
    {
      "id": 3577906,
      "name": "Fancy",
      "nativeName": "Fancy",
      "code": "VC-01-3577906",
      "countryId": 3577815,
      "countryCode": "VC",
      "stateCode": "VC-01",
      "latitude": 13.38132,
      "longitude": -61.16854
    },
    {
      "id": 3577904,
      "name": "Friendly",
      "nativeName": "Friendly",
      "code": "VC-01-3577904",
      "countryId": 3577815,
      "countryCode": "VC",
      "stateCode": "VC-01",
      "latitude": 13.23811,
      "longitude": -61.11717
    },
    {
      "id": 12535698,
      "name": "Grand Sable",
      "nativeName": "Grand Sable",
      "code": "VC-01-12535698",
      "countryId": 3577815,
      "countryCode": "VC",
      "stateCode": "VC-01",
      "latitude": 13.26596,
      "longitude": -61.12053
    },
    {
      "id": 3577893,
      "name": "Greiggs",
      "nativeName": "Greiggs",
      "code": "VC-01-3577893",
      "countryId": 3577815,
      "countryCode": "VC",
      "stateCode": "VC-01",
      "latitude": 13.21128,
      "longitude": -61.16284
    },
    {
      "id": 12535769,
      "name": "Hollow Acres",
      "nativeName": "Hollow Acres",
      "code": "VC-01-12535769",
      "countryId": 3577815,
      "countryCode": "VC",
      "stateCode": "VC-01",
      "latitude": 13.28017,
      "longitude": -61.16332
    },
    {
      "id": 12535708,
      "name": "Jennings Valley",
      "nativeName": "Jennings Valley",
      "code": "VC-01-12535708",
      "countryId": 3577815,
      "countryCode": "VC",
      "stateCode": "VC-01",
      "latitude": 13.26432,
      "longitude": -61.15202
    },
    {
      "id": 12535744,
      "name": "Langley Park",
      "nativeName": "Langley Park",
      "code": "VC-01-12535744",
      "countryId": 3577815,
      "countryCode": "VC",
      "stateCode": "VC-01",
      "latitude": 13.29623,
      "longitude": -61.11615
    },
    {
      "id": 12535776,
      "name": "Lot 14",
      "nativeName": "Lot Fourteen",
      "code": "VC-01-12535776",
      "countryId": 3577815,
      "countryCode": "VC",
      "stateCode": "VC-01",
      "latitude": 13.30613,
      "longitude": -61.13001
    },
    {
      "id": 12535713,
      "name": "Lowmans",
      "nativeName": "Lowmans",
      "code": "VC-01-12535713",
      "countryId": 3577815,
      "countryCode": "VC",
      "stateCode": "VC-01",
      "latitude": 13.2855,
      "longitude": -61.14127
    },
    {
      "id": 12535716,
      "name": "Mangrove",
      "nativeName": "Mangrove",
      "code": "VC-01-12535716",
      "countryId": 3577815,
      "countryCode": "VC",
      "stateCode": "VC-01",
      "latitude": 13.25263,
      "longitude": -61.11865
    },
    {
      "id": 3577873,
      "name": "Mesopotamia",
      "nativeName": "Mesopotamia",
      "code": "VC-01-3577873",
      "countryId": 3577815,
      "countryCode": "VC",
      "stateCode": "VC-01",
      "latitude": 13.17923,
      "longitude": -61.1681
    },
    {
      "id": 12535775,
      "name": "Morgan",
      "nativeName": "Morgan",
      "code": "VC-01-12535775",
      "countryId": 3577815,
      "countryCode": "VC",
      "stateCode": "VC-01",
      "latitude": 13.36558,
      "longitude": -61.14167
    },
    {
      "id": 12535739,
      "name": "Mount Bentinck",
      "nativeName": "Mount Bentinck",
      "code": "VC-01-12535739",
      "countryId": 3577815,
      "countryCode": "VC",
      "stateCode": "VC-01",
      "latitude": 13.28893,
      "longitude": -61.12744
    },
    {
      "id": 3577866,
      "name": "New Sandy Bay Village",
      "nativeName": "New Sandy Bay Village",
      "code": "VC-01-3577866",
      "countryId": 3577815,
      "countryCode": "VC",
      "stateCode": "VC-01",
      "latitude": 13.35113,
      "longitude": -61.13072
    },
    {
      "id": 3577864,
      "name": "North Union",
      "nativeName": "North Union",
      "code": "VC-01-3577864",
      "countryId": 3577815,
      "countryCode": "VC",
      "stateCode": "VC-01",
      "latitude": 13.2212,
      "longitude": -61.13323
    },
    {
      "id": 3577859,
      "name": "Orange Hill",
      "nativeName": "Orange Hill",
      "code": "VC-01-3577859",
      "countryId": 3577815,
      "countryCode": "VC",
      "stateCode": "VC-01",
      "latitude": 13.3136,
      "longitude": -61.11999
    },
    {
      "id": 12535771,
      "name": "Over River",
      "nativeName": "Over River",
      "code": "VC-01-12535771",
      "countryId": 3577815,
      "countryCode": "VC",
      "stateCode": "VC-01",
      "latitude": 13.30191,
      "longitude": -61.13132
    },
    {
      "id": 3577862,
      "name": "O’Briens",
      "nativeName": "O’Briens",
      "code": "VC-01-3577862",
      "countryId": 3577815,
      "countryCode": "VC",
      "stateCode": "VC-01",
      "latitude": 13.28472,
      "longitude": -61.14879
    },
    {
      "id": 12535753,
      "name": "Perseverance",
      "nativeName": "Perseverance",
      "code": "VC-01-12535753",
      "countryId": 3577815,
      "countryCode": "VC",
      "stateCode": "VC-01",
      "latitude": 13.27739,
      "longitude": -61.14789
    },
    {
      "id": 3577855,
      "name": "Peruvian Vale",
      "nativeName": "Peruvian Vale",
      "code": "VC-01-3577855",
      "countryId": 3577815,
      "countryCode": "VC",
      "stateCode": "VC-01",
      "latitude": 13.17711,
      "longitude": -61.14356
    },
    {
      "id": 3577837,
      "name": "Rabacca",
      "nativeName": "Rabacca",
      "code": "VC-01-3577837",
      "countryId": 3577815,
      "countryCode": "VC",
      "stateCode": "VC-01",
      "latitude": 13.30322,
      "longitude": -61.11721
    },
    {
      "id": 12535737,
      "name": "Reading",
      "nativeName": "Reading",
      "code": "VC-01-12535737",
      "countryId": 3577815,
      "countryCode": "VC",
      "stateCode": "VC-01",
      "latitude": 13.27179,
      "longitude": -61.12926
    },
    {
      "id": 3577832,
      "name": "Richland Park",
      "nativeName": "Richland Park",
      "code": "VC-01-3577832",
      "countryId": 3577815,
      "countryCode": "VC",
      "stateCode": "VC-01",
      "latitude": 13.19627,
      "longitude": -61.17008
    },
    {
      "id": 12535697,
      "name": "Sambo Stone",
      "nativeName": "Sambo Stone",
      "code": "VC-01-12535697",
      "countryId": 3577815,
      "countryCode": "VC",
      "stateCode": "VC-01",
      "latitude": 13.37959,
      "longitude": -61.15767
    },
    {
      "id": 3577810,
      "name": "Sans Souci",
      "nativeName": "Sans Souci",
      "code": "VC-01-3577810",
      "countryId": 3577815,
      "countryCode": "VC",
      "stateCode": "VC-01",
      "latitude": 13.22378,
      "longitude": -61.13136
    },
    {
      "id": 3577805,
      "name": "South Rivers",
      "nativeName": "South Rivers",
      "code": "VC-01-3577805",
      "countryId": 3577815,
      "countryCode": "VC",
      "stateCode": "VC-01",
      "latitude": 13.24642,
      "longitude": -61.14162
    },
    {
      "id": 12535714,
      "name": "Sutherland Level",
      "nativeName": "Sutherland Level",
      "code": "VC-01-12535714",
      "countryId": 3577815,
      "countryCode": "VC",
      "stateCode": "VC-01",
      "latitude": 13.36816,
      "longitude": -61.1354
    },
    {
      "id": 12535768,
      "name": "Three Rivers",
      "nativeName": "Three Rivers",
      "code": "VC-01-12535768",
      "countryId": 3577815,
      "countryCode": "VC",
      "stateCode": "VC-01",
      "latitude": 13.25209,
      "longitude": -61.14373
    },
    {
      "id": 3577796,
      "name": "Turema",
      "nativeName": "Turema",
      "code": "VC-01-3577796",
      "countryId": 3577815,
      "countryCode": "VC",
      "stateCode": "VC-01",
      "latitude": 13.32114,
      "longitude": -61.14441
    },
    {
      "id": 12535788,
      "name": "Upper Orange Hill",
      "nativeName": "Upper Orange Hill",
      "code": "VC-01-12535788",
      "countryId": 3577815,
      "countryCode": "VC",
      "stateCode": "VC-01",
      "latitude": 13.34702,
      "longitude": -61.13099
    },
    {
      "id": 12535721,
      "name": "Victoria Village",
      "nativeName": "Victoria Village",
      "code": "VC-01-12535721",
      "countryId": 3577815,
      "countryCode": "VC",
      "stateCode": "VC-01",
      "latitude": 13.35486,
      "longitude": -61.14479
    },
    {
      "id": 3577788,
      "name": "Waterloo",
      "nativeName": "Waterloo",
      "code": "VC-01-3577788",
      "countryId": 3577815,
      "countryCode": "VC",
      "stateCode": "VC-01",
      "latitude": 13.30901,
      "longitude": -61.12362
    }
  ]
}