{
  "stateId": 1566165,
  "stateCode": "VN-21",
  "countryCode": "VN",
  "cities": [
    {
      "id": 1905242,
      "name": "Bá Thước District",
      "nativeName": "Huyện Bá Thước",
      "code": "VN-21-1905242",
      "countryId": 1562822,
      "countryCode": "VN",
      "stateCode": "VN-21",
      "latitude": 20.34578,
      "longitude": 105.24209
    },
    {
      "id": 1905235,
      "name": "Cẩm Thủy District",
      "nativeName": "Huyện Cẩm Thủy",
      "code": "VN-21-1905235",
      "countryId": 1562822,
      "countryCode": "VN",
      "stateCode": "VN-21",
      "latitude": 20.19586,
      "longitude": 105.46817
    },
    {
      "id": 1905225,
      "name": "Huyện Hoằng Hóa",
      "nativeName": "Huyện Hoằng Hóa",
      "code": "VN-21-1905225",
      "countryId": 1562822,
      "countryCode": "VN",
      "stateCode": "VN-21",
      "latitude": 19.84643,
      "longitude": 105.86066
    },
    {
      "id": 1905241,
      "name": "Huyện Thạch Thành",
      "nativeName": "Huyện Thạch Thành",
      "code": "VN-21-1905241",
      "countryId": 1562822,
      "countryCode": "VN",
      "stateCode": "VN-21",
      "latitude": 20.18135,
      "longitude": 105.64697
    },
    {
      "id": 1905219,
      "name": "Huyện Tĩnh Gia",
      "nativeName": "Huyện Tĩnh Gia",
      "code": "VN-21-1905219",
      "countryId": 1562822,
      "countryCode": "VN",
      "stateCode": "VN-21",
      "latitude": 19.44533,
      "longitude": 105.72841
    },
    {
      "id": 1905226,
      "name": "Huyện Đông Sơn",
      "nativeName": "Huyện Đông Sơn",
      "code": "VN-21-1905226",
      "countryId": 1562822,
      "countryCode": "VN",
      "stateCode": "VN-21",
      "latitude": 19.79742,
      "longitude": 105.72465
    },
    {
      "id": 1905239,
      "name": "Hà Trung District",
      "nativeName": "Huyện Hà Trung",
      "code": "VN-21-1905239",
      "countryId": 1562822,
      "countryCode": "VN",
      "stateCode": "VN-21",
      "latitude": 20.02654,
      "longitude": 105.81931
    },
    {
      "id": 1905237,
      "name": "Hậu Lộc District",
      "nativeName": "Huyện Hậu Lộc",
      "code": "VN-21-1905237",
      "countryId": 1562822,
      "countryCode": "VN",
      "stateCode": "VN-21",
      "latitude": 19.93337,
      "longitude": 105.88894
    },
    {
      "id": 1905234,
      "name": "Lang Chánh District",
      "nativeName": "Huyện Lang Chánh",
      "code": "VN-21-1905234",
      "countryId": 1562822,
      "countryCode": "VN",
      "stateCode": "VN-21",
      "latitude": 20.15926,
      "longitude": 105.15071
    },
    {
      "id": 1905245,
      "name": "Mường Lát District",
      "nativeName": "Huyện Mường Lát",
      "code": "VN-21-1905245",
      "countryId": 1562822,
      "countryCode": "VN",
      "stateCode": "VN-21",
      "latitude": 20.52763,
      "longitude": 104.62941
    },
    {
      "id": 1905238,
      "name": "Nga Sơn District",
      "nativeName": "Huyện Nga Sơn",
      "code": "VN-21-1905238",
      "countryId": 1562822,
      "countryCode": "VN",
      "stateCode": "VN-21",
      "latitude": 20.01561,
      "longitude": 105.98975
    },
    {
      "id": 1905233,
      "name": "Ngọc Lặc District",
      "nativeName": "Huyện Ngọc Lặc",
      "code": "VN-21-1905233",
      "countryId": 1562822,
      "countryCode": "VN",
      "stateCode": "VN-21",
      "latitude": 20.06777,
      "longitude": 105.37386
    },
    {
      "id": 1905221,
      "name": "Như Thanh District",
      "nativeName": "Huyện Như Thanh",
      "code": "VN-21-1905221",
      "countryId": 1562822,
      "countryCode": "VN",
      "stateCode": "VN-21",
      "latitude": 19.57798,
      "longitude": 105.55616
    },
    {
      "id": 1905222,
      "name": "Như Xuân District",
      "nativeName": "Huyện Như Xuân",
      "code": "VN-21-1905222",
      "countryId": 1562822,
      "countryCode": "VN",
      "stateCode": "VN-21",
      "latitude": 19.62527,
      "longitude": 105.38856
    },
    {
      "id": 1905220,
      "name": "Nông Cống District",
      "nativeName": "Huyện Nông Cống",
      "code": "VN-21-1905220",
      "countryId": 1562822,
      "countryCode": "VN",
      "stateCode": "VN-21",
      "latitude": 19.61376,
      "longitude": 105.68279
    },
    {
      "id": 1905244,
      "name": "Quan Hóa District",
      "nativeName": "Huyện Quan Hóa",
      "code": "VN-21-1905244",
      "countryId": 1562822,
      "countryCode": "VN",
      "stateCode": "VN-21",
      "latitude": 20.47565,
      "longitude": 104.95335
    },
    {
      "id": 1905243,
      "name": "Quan Sơn District",
      "nativeName": "Huyện Quan Sơn",
      "code": "VN-21-1905243",
      "countryId": 1562822,
      "countryCode": "VN",
      "stateCode": "VN-21",
      "latitude": 20.25758,
      "longitude": 104.83416
    },
    {
      "id": 1905223,
      "name": "Quảng Xương District",
      "nativeName": "Huyện Quảng Xương",
      "code": "VN-21-1905223",
      "countryId": 1562822,
      "countryCode": "VN",
      "stateCode": "VN-21",
      "latitude": 19.70252,
      "longitude": 105.79298
    },
    {
      "id": 1905227,
      "name": "Thiệu Hóa District",
      "nativeName": "Huyện Thiệu Hóa",
      "code": "VN-21-1905227",
      "countryId": 1562822,
      "countryCode": "VN",
      "stateCode": "VN-21",
      "latitude": 19.89713,
      "longitude": 105.68144
    },
    {
      "id": 1905224,
      "name": "Thành Phố Sầm Sơn",
      "nativeName": "Thành Phố Sầm Sơn",
      "code": "VN-21-1905224",
      "countryId": 1562822,
      "countryCode": "VN",
      "stateCode": "VN-21",
      "latitude": 19.75384,
      "longitude": 105.90114
    },
    {
      "id": 1905218,
      "name": "Thành Phố Thanh Hóa",
      "nativeName": "Thành Phố Thanh Hóa",
      "code": "VN-21-1905218",
      "countryId": 1562822,
      "countryCode": "VN",
      "stateCode": "VN-21",
      "latitude": 19.80231,
      "longitude": 105.78594
    },
    {
      "id": 1905231,
      "name": "Thường Xuân District",
      "nativeName": "Huyện Thường Xuân",
      "code": "VN-21-1905231",
      "countryId": 1562822,
      "countryCode": "VN",
      "stateCode": "VN-21",
      "latitude": 19.91969,
      "longitude": 105.23771
    },
    {
      "id": 1905240,
      "name": "Thị Xã Bỉm Sơn",
      "nativeName": "Thị Xã Bỉm Sơn",
      "code": "VN-21-1905240",
      "countryId": 1562822,
      "countryCode": "VN",
      "stateCode": "VN-21",
      "latitude": 20.08582,
      "longitude": 105.8846
    },
    {
      "id": 1905230,
      "name": "Thọ Xuân District",
      "nativeName": "Huyện Thọ Xuân",
      "code": "VN-21-1905230",
      "countryId": 1562822,
      "countryCode": "VN",
      "stateCode": "VN-21",
      "latitude": 19.93114,
      "longitude": 105.48284
    },
    {
      "id": 1905229,
      "name": "Triệu Sơn District",
      "nativeName": "Huyện Triệu Sơn",
      "code": "VN-21-1905229",
      "countryId": 1562822,
      "countryCode": "VN",
      "stateCode": "VN-21",
      "latitude": 19.82578,
      "longitude": 105.58293
    },
    {
      "id": 1905236,
      "name": "Vĩnh Lộc District",
      "nativeName": "Huyện Vĩnh Lộc",
      "code": "VN-21-1905236",
      "countryId": 1562822,
      "countryCode": "VN",
      "stateCode": "VN-21",
      "latitude": 20.03482,
      "longitude": 105.65755
    },
    {
      "id": 1905228,
      "name": "Yên Định District",
      "nativeName": "Huyện Yên Định",
      "code": "VN-21-1905228",
      "countryId": 1562822,
      "countryCode": "VN",
      "stateCode": "VN-21",
      "latitude": 19.98666,
      "longitude": 105.61482
    }
  ]
}