{
  "stateId": 1905577,
  "stateCode": "VN-68",
  "countryCode": "VN",
  "cities": [
    {
      "id": 1905582,
      "name": "Cẩm Khê District",
      "nativeName": "Huyện Cẩm Khê",
      "code": "VN-68-1905582",
      "countryId": 1562822,
      "countryCode": "VN",
      "stateCode": "VN-68",
      "latitude": 21.40683,
      "longitude": 105.09845
    },
    {
      "id": 1905580,
      "name": "Huyện Phù Ninh",
      "nativeName": "Huyện Phù Ninh",
      "code": "VN-68-1905580",
      "countryId": 1562822,
      "countryCode": "VN",
      "stateCode": "VN-68",
      "latitude": 21.44805,
      "longitude": 105.30725
    },
    {
      "id": 11497336,
      "name": "Huyện Thanh Thuỷ",
      "nativeName": "Huyện Thanh Thuỷ",
      "code": "VN-68-11497336",
      "countryId": 1562822,
      "countryCode": "VN",
      "stateCode": "VN-68",
      "latitude": 21.15376,
      "longitude": 105.26926
    },
    {
      "id": 8608536,
      "name": "Huyện Tân Sơn",
      "nativeName": "Huyện Tân Sơn",
      "code": "VN-68-8608536",
      "countryId": 1562822,
      "countryCode": "VN",
      "stateCode": "VN-68",
      "latitude": 21.18507,
      "longitude": 104.98502
    },
    {
      "id": 1905586,
      "name": "Hạ Hòa District",
      "nativeName": "Huyện Hạ Hòa",
      "code": "VN-68-1905586",
      "countryId": 1562822,
      "countryCode": "VN",
      "stateCode": "VN-68",
      "latitude": 21.57763,
      "longitude": 104.99464
    },
    {
      "id": 8741043,
      "name": "Lâm Thao District",
      "nativeName": "Huyen Lam Thao",
      "code": "VN-68-8741043",
      "countryId": 1562822,
      "countryCode": "VN",
      "stateCode": "VN-68",
      "latitude": 21.29971,
      "longitude": 105.31119
    },
    {
      "id": 1905583,
      "name": "Tam Nông District",
      "nativeName": "Huyện Tam Nông",
      "code": "VN-68-1905583",
      "countryId": 1562822,
      "countryCode": "VN",
      "stateCode": "VN-68",
      "latitude": 21.29444,
      "longitude": 105.23134
    },
    {
      "id": 1905581,
      "name": "Thanh Ba District",
      "nativeName": "Huyện Thanh Ba",
      "code": "VN-68-1905581",
      "countryId": 1562822,
      "countryCode": "VN",
      "stateCode": "VN-68",
      "latitude": 21.46,
      "longitude": 105.16576
    },
    {
      "id": 1905578,
      "name": "Thành Phố Việt Trì",
      "nativeName": "Thành Phố Việt Trì",
      "code": "VN-68-1905578",
      "countryId": 1562822,
      "countryCode": "VN",
      "stateCode": "VN-68",
      "latitude": 21.33451,
      "longitude": 105.38151
    },
    {
      "id": 1905579,
      "name": "Thị xã Phú Thọ",
      "nativeName": "Thị xã Phú Thọ",
      "code": "VN-68-1905579",
      "countryId": 1562822,
      "countryCode": "VN",
      "stateCode": "VN-68",
      "latitude": 21.41664,
      "longitude": 105.23636
    },
    {
      "id": 1905584,
      "name": "Tân Sơn District",
      "nativeName": "Huyện Thanh Sơn",
      "code": "VN-68-1905584",
      "countryId": 1562822,
      "countryCode": "VN",
      "stateCode": "VN-68",
      "latitude": 21.0722,
      "longitude": 105.18542
    },
    {
      "id": 1905585,
      "name": "Yên Lập District",
      "nativeName": "Huyện Yên Lập",
      "code": "VN-68-1905585",
      "countryId": 1562822,
      "countryCode": "VN",
      "stateCode": "VN-68",
      "latitude": 21.35569,
      "longitude": 105.00493
    },
    {
      "id": 1905587,
      "name": "Đoan Hùng District",
      "nativeName": "Huyện Đoan Hùng",
      "code": "VN-68-1905587",
      "countryId": 1562822,
      "countryCode": "VN",
      "stateCode": "VN-68",
      "latitude": 21.61776,
      "longitude": 105.1611
    }
  ]
}