{
  "stateId": 1905686,
  "stateCode": "VN-61",
  "countryCode": "VN",
  "cities": [
    {
      "id": 1905689,
      "name": "Bình Giang District",
      "nativeName": "Huyện Bình Giang",
      "code": "VN-61-1905689",
      "countryId": 1562822,
      "countryCode": "VN",
      "stateCode": "VN-61",
      "latitude": 20.87305,
      "longitude": 106.18304
    },
    {
      "id": 1905698,
      "name": "Chí Linh District",
      "nativeName": "Thành Phố Chí Linh",
      "code": "VN-61-1905698",
      "countryId": 1562822,
      "countryCode": "VN",
      "stateCode": "VN-61",
      "latitude": 21.13577,
      "longitude": 106.39359
    },
    {
      "id": 1905688,
      "name": "Cẩm Giàng District",
      "nativeName": "Huyện Cẩm Giàng",
      "code": "VN-61-1905688",
      "countryId": 1562822,
      "countryCode": "VN",
      "stateCode": "VN-61",
      "latitude": 20.94079,
      "longitude": 106.21822
    },
    {
      "id": 1905690,
      "name": "Gia Lộc District",
      "nativeName": "Huyện Gia Lộc",
      "code": "VN-61-1905690",
      "countryId": 1562822,
      "countryCode": "VN",
      "stateCode": "VN-61",
      "latitude": 20.84494,
      "longitude": 106.28995
    },
    {
      "id": 1905692,
      "name": "Huyện Ninh Giang",
      "nativeName": "Huyện Ninh Giang",
      "code": "VN-61-1905692",
      "countryId": 1562822,
      "countryCode": "VN",
      "stateCode": "VN-61",
      "latitude": 20.74713,
      "longitude": 106.33459
    },
    {
      "id": 1905694,
      "name": "Huyện Thanh Hà",
      "nativeName": "Huyện Thanh Hà",
      "code": "VN-61-1905694",
      "countryId": 1562822,
      "countryCode": "VN",
      "stateCode": "VN-61",
      "latitude": 20.88972,
      "longitude": 106.43174
    },
    {
      "id": 1905693,
      "name": "Huyện Tứ Kỳ",
      "nativeName": "Huyện Tứ Kỳ",
      "code": "VN-61-1905693",
      "countryId": 1562822,
      "countryCode": "VN",
      "stateCode": "VN-61",
      "latitude": 20.82137,
      "longitude": 106.40831
    },
    {
      "id": 1905695,
      "name": "Kim Thành District",
      "nativeName": "Huyện Kim Thành",
      "code": "VN-61-1905695",
      "countryId": 1562822,
      "countryCode": "VN",
      "stateCode": "VN-61",
      "latitude": 20.93967,
      "longitude": 106.51255
    },
    {
      "id": 1905697,
      "name": "Kinh Môn District",
      "nativeName": "Thị Xã Kinh Môn",
      "code": "VN-61-1905697",
      "countryId": 1562822,
      "countryCode": "VN",
      "stateCode": "VN-61",
      "latitude": 21.01175,
      "longitude": 106.50832
    },
    {
      "id": 1905696,
      "name": "Nam Sách District",
      "nativeName": "Huyện Nam Sách",
      "code": "VN-61-1905696",
      "countryId": 1562822,
      "countryCode": "VN",
      "stateCode": "VN-61",
      "latitude": 21.0128,
      "longitude": 106.34218
    },
    {
      "id": 1905691,
      "name": "Thanh Miện District",
      "nativeName": "Huyện Thanh Miện",
      "code": "VN-61-1905691",
      "countryId": 1562822,
      "countryCode": "VN",
      "stateCode": "VN-61",
      "latitude": 20.77712,
      "longitude": 106.2224
    },
    {
      "id": 1905687,
      "name": "Thành Phố Hải Dương",
      "nativeName": "Thành Phố Hải Dương",
      "code": "VN-61-1905687",
      "countryId": 1562822,
      "countryCode": "VN",
      "stateCode": "VN-61",
      "latitude": 20.94166,
      "longitude": 106.32736
    }
  ]
}