{
  "countryId": 1562822,
  "countryCode": "VN",
  "states": [
    {
      "id": 1594446,
      "name": "An Giang Province",
      "nativeName": "An Giang",
      "code": "VN-44",
      "internalCode": "44",
      "countryId": 1562822,
      "countryCode": "VN",
      "latitude": 10.5,
      "longitude": 105.16667
    },
    {
      "id": 1584534,
      "name": "Bà Rịa–Vũng Tàu Province",
      "nativeName": "Tỉnh Bà Rịa-Vũng Tàu",
      "code": "VN-43",
      "internalCode": "43",
      "countryId": 1562822,
      "countryCode": "VN",
      "latitude": 10.58333,
      "longitude": 107.25
    },
    {
      "id": 1905475,
      "name": "Bình Dương Province",
      "nativeName": "Tỉnh Bình Dương",
      "code": "VN-57",
      "internalCode": "57",
      "countryId": 1562822,
      "countryCode": "VN",
      "latitude": 11.16667,
      "longitude": 106.66667
    },
    {
      "id": 1905480,
      "name": "Bình Phước Province",
      "nativeName": "Tỉnh Bình Phước",
      "code": "VN-58",
      "internalCode": "58",
      "countryId": 1562822,
      "countryCode": "VN",
      "latitude": 11.75,
      "longitude": 106.91667
    },
    {
      "id": 1581882,
      "name": "Bình Thuận Province",
      "nativeName": "Tỉnh Bình Thuận",
      "code": "VN-40",
      "internalCode": "40",
      "countryId": 1562822,
      "countryCode": "VN",
      "latitude": 11.08333,
      "longitude": 108.08333
    },
    {
      "id": 1587871,
      "name": "Bình Định Province",
      "nativeName": "Tỉnh Bình Định",
      "code": "VN-31",
      "internalCode": "31",
      "countryId": 1562822,
      "countryCode": "VN",
      "latitude": 14.16667,
      "longitude": 109
    },
    {
      "id": 1905675,
      "name": "Bạc Liêu Province",
      "nativeName": "Tỉnh Bạc Liêu",
      "code": "VN-55",
      "internalCode": "55",
      "countryId": 1562822,
      "countryCode": "VN",
      "latitude": 9.3,
      "longitude": 105.5
    },
    {
      "id": 1905419,
      "name": "Bắc Giang Province",
      "nativeName": "Tỉnh Bắc Giang",
      "code": "VN-54",
      "internalCode": "54",
      "countryId": 1562822,
      "countryCode": "VN",
      "latitude": 21.33333,
      "longitude": 106.43333
    },
    {
      "id": 1905669,
      "name": "Bắc Kạn Province",
      "nativeName": "Tỉnh Bắc Kạn",
      "code": "VN-53",
      "internalCode": "53",
      "countryId": 1562822,
      "countryCode": "VN",
      "latitude": 22.25,
      "longitude": 105.83333
    },
    {
      "id": 1905412,
      "name": "Bắc Ninh Province",
      "nativeName": "Tỉnh Bắc Ninh",
      "code": "VN-56",
      "internalCode": "56",
      "countryId": 1562822,
      "countryCode": "VN",
      "latitude": 21.1,
      "longitude": 106.1
    },
    {
      "id": 1587974,
      "name": "Bến Tre Province",
      "nativeName": "Tỉnh Bến Tre",
      "code": "VN-50",
      "internalCode": "50",
      "countryId": 1562822,
      "countryCode": "VN",
      "latitude": 10.16667,
      "longitude": 106.5
    },
    {
      "id": 1581188,
      "name": "Can Tho",
      "nativeName": "Thành Phố Cần Thơ",
      "code": "VN-CT",
      "internalCode": "CT",
      "countryId": 1562822,
      "countryCode": "VN",
      "latitude": 10.11667,
      "longitude": 105.5
    },
    {
      "id": 1586182,
      "name": "Cao Bằng Province",
      "nativeName": "Tỉnh Cao Bằng",
      "code": "VN-04",
      "internalCode": "04",
      "countryId": 1562822,
      "countryCode": "VN",
      "latitude": 22.75,
      "longitude": 106.08333
    },
    {
      "id": 1905678,
      "name": "Cà Mau Province",
      "nativeName": "Tỉnh Cà Mau",
      "code": "VN-59",
      "internalCode": "59",
      "countryId": 1562822,
      "countryCode": "VN",
      "latitude": 9.08333,
      "longitude": 105.08333
    },
    {
      "id": 1905468,
      "name": "Da Nang",
      "nativeName": "Thành Phố Đà Nẵng",
      "code": "VN-DN",
      "internalCode": "DN",
      "countryId": 1562822,
      "countryCode": "VN",
      "latitude": 16.08333,
      "longitude": 108.08333
    },
    {
      "id": 1581088,
      "name": "Gia Lai Province",
      "nativeName": "Gia Lai",
      "code": "VN-30",
      "internalCode": "30",
      "countryId": 1562822,
      "countryCode": "VN",
      "latitude": 13.75,
      "longitude": 108.25
    },
    {
      "id": 1581297,
      "name": "Haiphong",
      "nativeName": "Thành Phố Hải Phòng",
      "code": "VN-HP",
      "internalCode": "HP",
      "countryId": 1562822,
      "countryCode": "VN",
      "latitude": 20.8,
      "longitude": 106.66667
    },
    {
      "id": 1581129,
      "name": "Hanoi",
      "nativeName": "Hanoi",
      "code": "VN-HN",
      "internalCode": "HN",
      "countryId": 1562822,
      "countryCode": "VN",
      "latitude": 21,
      "longitude": 105.75
    },
    {
      "id": 1580578,
      "name": "Ho Chi Minh",
      "nativeName": "Ho Chi Minh City",
      "code": "VN-SG",
      "internalCode": "SG",
      "countryId": 1562822,
      "countryCode": "VN",
      "latitude": 10.82327,
      "longitude": 106.62978
    },
    {
      "id": 1581030,
      "name": "Hà Giang Province",
      "nativeName": "Tỉnh Hà Giang",
      "code": "VN-03",
      "internalCode": "03",
      "countryId": 1562822,
      "countryCode": "VN",
      "latitude": 22.75,
      "longitude": 105
    },
    {
      "id": 1905637,
      "name": "Hà Nam Province",
      "nativeName": "Tỉnh Hà Nam",
      "code": "VN-63",
      "internalCode": "63",
      "countryId": 1562822,
      "countryCode": "VN",
      "latitude": 20.53333,
      "longitude": 105.96667
    },
    {
      "id": 1580700,
      "name": "Hà Tĩnh Province",
      "nativeName": "Tỉnh Hà Tĩnh",
      "code": "VN-23",
      "internalCode": "23",
      "countryId": 1562822,
      "countryCode": "VN",
      "latitude": 18.33333,
      "longitude": 105.75
    },
    {
      "id": 1572594,
      "name": "Hòa Bình Province",
      "nativeName": "Tỉnh Hòa Bình",
      "code": "VN-14",
      "internalCode": "14",
      "countryId": 1562822,
      "countryCode": "VN",
      "latitude": 20.66667,
      "longitude": 105.33333
    },
    {
      "id": 1905699,
      "name": "Hưng Yên Province",
      "nativeName": "Tỉnh Hưng Yên",
      "code": "VN-66",
      "internalCode": "66",
      "countryId": 1562822,
      "countryCode": "VN",
      "latitude": 20.81667,
      "longitude": 106.05
    },
    {
      "id": 1905686,
      "name": "Hải Dương Province",
      "nativeName": "Tỉnh Hải Dương",
      "code": "VN-61",
      "internalCode": "61",
      "countryId": 1562822,
      "countryCode": "VN",
      "latitude": 20.91667,
      "longitude": 106.33333
    },
    {
      "id": 7506719,
      "name": "Hậu Giang",
      "nativeName": "Hậu Giang Province",
      "code": "VN-73",
      "internalCode": "73",
      "countryId": 1562822,
      "countryCode": "VN",
      "latitude": 9.77605,
      "longitude": 105.46412
    },
    {
      "id": 1579634,
      "name": "Khánh Hòa Province",
      "nativeName": "Tỉnh Khánh Hòa",
      "code": "VN-34",
      "internalCode": "34",
      "countryId": 1562822,
      "countryCode": "VN",
      "latitude": 12.33333,
      "longitude": 109
    },
    {
      "id": 1579008,
      "name": "Kiên Giang Province",
      "nativeName": "Tỉnh Kiến Giang",
      "code": "VN-47",
      "internalCode": "47",
      "countryId": 1562822,
      "countryCode": "VN",
      "latitude": 10,
      "longitude": 105.16667
    },
    {
      "id": 1565088,
      "name": "Kon Tum",
      "nativeName": "Kon Tum",
      "code": "VN-28",
      "internalCode": "28",
      "countryId": 1562822,
      "countryCode": "VN",
      "latitude": 14.75,
      "longitude": 107.91667
    },
    {
      "id": 1577954,
      "name": "Lai Châu Province",
      "nativeName": "Tỉnh Lai Châu",
      "code": "VN-01",
      "internalCode": "01",
      "countryId": 1562822,
      "countryCode": "VN",
      "latitude": 22.28333,
      "longitude": 103.25
    },
    {
      "id": 1575788,
      "name": "Long An Povince",
      "nativeName": "Long An",
      "code": "VN-41",
      "internalCode": "41",
      "countryId": 1562822,
      "countryCode": "VN",
      "latitude": 10.7,
      "longitude": 106.16667
    },
    {
      "id": 1562412,
      "name": "Lào Cai Province",
      "nativeName": "Tỉnh Lào Cai",
      "code": "VN-02",
      "internalCode": "02",
      "countryId": 1562822,
      "countryCode": "VN",
      "latitude": 22.3,
      "longitude": 104.16667
    },
    {
      "id": 1577882,
      "name": "Lâm Đồng Province",
      "nativeName": "Tỉnh Lâm Đồng",
      "code": "VN-35",
      "internalCode": "35",
      "countryId": 1562822,
      "countryCode": "VN",
      "latitude": 11.66667,
      "longitude": 108.08333
    },
    {
      "id": 1576632,
      "name": "Lạng Sơn Province",
      "nativeName": "Tỉnh Lạng Sơn",
      "code": "VN-09",
      "internalCode": "09",
      "countryId": 1562822,
      "countryCode": "VN",
      "latitude": 21.83333,
      "longitude": 106.58333
    },
    {
      "id": 1905626,
      "name": "Nam Định Province",
      "nativeName": "Tỉnh Nam Định",
      "code": "VN-67",
      "internalCode": "67",
      "countryId": 1562822,
      "countryCode": "VN",
      "latitude": 20.25,
      "longitude": 106.25
    },
    {
      "id": 1559969,
      "name": "Nghệ An Province",
      "nativeName": "Tỉnh Nghệ An",
      "code": "VN-22",
      "internalCode": "22",
      "countryId": 1562822,
      "countryCode": "VN",
      "latitude": 19.25,
      "longitude": 104.91667
    },
    {
      "id": 1559970,
      "name": "Ninh Bình Province",
      "nativeName": "Tỉnh Ninh Bình",
      "code": "VN-18",
      "internalCode": "18",
      "countryId": 1562822,
      "countryCode": "VN",
      "latitude": 20.23333,
      "longitude": 105.9
    },
    {
      "id": 1559971,
      "name": "Ninh Thuận Province",
      "nativeName": "Tỉnh Ninh Thuận",
      "code": "VN-36",
      "internalCode": "36",
      "countryId": 1562822,
      "countryCode": "VN",
      "latitude": 11.75,
      "longitude": 108.83333
    },
    {
      "id": 1905577,
      "name": "Phú Thọ Province",
      "nativeName": "Tỉnh Phú Thọ",
      "code": "VN-68",
      "internalCode": "68",
      "countryId": 1562822,
      "countryCode": "VN",
      "latitude": 21.33333,
      "longitude": 105.13333
    },
    {
      "id": 1569805,
      "name": "Phú Yên Province",
      "nativeName": "Tỉnh Phú Yên",
      "code": "VN-32",
      "internalCode": "32",
      "countryId": 1562822,
      "countryCode": "VN",
      "latitude": 13.16667,
      "longitude": 109.08333
    },
    {
      "id": 1568839,
      "name": "Quảng Bình Province",
      "nativeName": "Tỉnh Quảng Bình",
      "code": "VN-24",
      "internalCode": "24",
      "countryId": 1562822,
      "countryCode": "VN",
      "latitude": 17.5,
      "longitude": 106.33333
    },
    {
      "id": 1905516,
      "name": "Quảng Nam Province",
      "nativeName": "Tỉnh Quảng Nam",
      "code": "VN-27",
      "internalCode": "27",
      "countryId": 1562822,
      "countryCode": "VN",
      "latitude": 15.58333,
      "longitude": 107.91667
    },
    {
      "id": 1568769,
      "name": "Quảng Ngãi Province",
      "nativeName": "Tỉnh Quảng Ngãi",
      "code": "VN-29",
      "internalCode": "29",
      "countryId": 1562822,
      "countryCode": "VN",
      "latitude": 15,
      "longitude": 108.66667
    },
    {
      "id": 1568758,
      "name": "Quảng Ninh",
      "nativeName": "Tỉnh Quảng Ninh",
      "code": "VN-13",
      "internalCode": "13",
      "countryId": 1562822,
      "countryCode": "VN",
      "latitude": 21.25,
      "longitude": 107.33333
    },
    {
      "id": 1568733,
      "name": "Quảng Trị Province",
      "nativeName": "Tỉnh Quảng Trị",
      "code": "VN-25",
      "internalCode": "25",
      "countryId": 1562822,
      "countryCode": "VN",
      "latitude": 16.75,
      "longitude": 107
    },
    {
      "id": 1559972,
      "name": "Sóc Trăng Province",
      "nativeName": "Tỉnh Sóc Trăng",
      "code": "VN-52",
      "internalCode": "52",
      "countryId": 1562822,
      "countryCode": "VN",
      "latitude": 9.55,
      "longitude": 105.91667
    },
    {
      "id": 1567643,
      "name": "Sơn La Province",
      "nativeName": "Tỉnh Sơn La",
      "code": "VN-05",
      "internalCode": "05",
      "countryId": 1562822,
      "countryCode": "VN",
      "latitude": 21.16667,
      "longitude": 104
    },
    {
      "id": 1566165,
      "name": "Thanh Hóa Province",
      "nativeName": "Tỉnh Thanh Hóa",
      "code": "VN-21",
      "internalCode": "21",
      "countryId": 1562822,
      "countryCode": "VN",
      "latitude": 20.06667,
      "longitude": 105.33333
    },
    {
      "id": 1566338,
      "name": "Thái Bình Province",
      "nativeName": "Tỉnh Thái Bình",
      "code": "VN-20",
      "internalCode": "20",
      "countryId": 1562822,
      "countryCode": "VN",
      "latitude": 20.5,
      "longitude": 106.36667
    },
    {
      "id": 1905497,
      "name": "Thái Nguyên Province",
      "nativeName": "Tỉnh Thái Nguyên",
      "code": "VN-69",
      "internalCode": "69",
      "countryId": 1562822,
      "countryCode": "VN",
      "latitude": 21.66667,
      "longitude": 105.83333
    },
    {
      "id": 1565033,
      "name": "Thừa Thiên Huế Province",
      "nativeName": "Thừa Thiên Huế",
      "code": "VN-26",
      "internalCode": "26",
      "countryId": 1562822,
      "countryCode": "VN",
      "latitude": 16.33333,
      "longitude": 107.58333
    },
    {
      "id": 1564676,
      "name": "Tiền Giang",
      "nativeName": "Tỉnh Tiền Giang",
      "code": "VN-46",
      "internalCode": "46",
      "countryId": 1562822,
      "countryCode": "VN",
      "latitude": 10.4,
      "longitude": 106.3
    },
    {
      "id": 1559975,
      "name": "Trà Vinh Province",
      "nativeName": "Tỉnh Trà Vinh",
      "code": "VN-51",
      "internalCode": "51",
      "countryId": 1562822,
      "countryCode": "VN",
      "latitude": 9.8,
      "longitude": 106.3
    },
    {
      "id": 1559976,
      "name": "Tuyên Quang Province",
      "nativeName": "Tỉnh Tuyên Quang",
      "code": "VN-07",
      "internalCode": "07",
      "countryId": 1562822,
      "countryCode": "VN",
      "latitude": 22.11667,
      "longitude": 105.25
    },
    {
      "id": 1566557,
      "name": "Tây Ninh Province",
      "nativeName": "Tỉnh Tây Ninh",
      "code": "VN-37",
      "internalCode": "37",
      "countryId": 1562822,
      "countryCode": "VN",
      "latitude": 11.33333,
      "longitude": 106.16667
    },
    {
      "id": 1559977,
      "name": "Vĩnh Long Province",
      "nativeName": "Tỉnh Vĩnh Long",
      "code": "VN-49",
      "internalCode": "49",
      "countryId": 1562822,
      "countryCode": "VN",
      "latitude": 10.1,
      "longitude": 106
    },
    {
      "id": 1905856,
      "name": "Vĩnh Phúc Province",
      "nativeName": "Tỉnh Vĩnh Phúc",
      "code": "VN-70",
      "internalCode": "70",
      "countryId": 1562822,
      "countryCode": "VN",
      "latitude": 21.33333,
      "longitude": 105.56667
    },
    {
      "id": 1559978,
      "name": "Yên Bái Province",
      "nativeName": "Tỉnh Yên Bái",
      "code": "VN-06",
      "internalCode": "06",
      "countryId": 1562822,
      "countryCode": "VN",
      "latitude": 21.75,
      "longitude": 104.58333
    },
    {
      "id": 1905099,
      "name": "Điện Biên Province",
      "nativeName": "Tỉnh Ðiện Biên",
      "code": "VN-71",
      "internalCode": "71",
      "countryId": 1562822,
      "countryCode": "VN",
      "latitude": 21.33333,
      "longitude": 102.93333
    },
    {
      "id": 1904987,
      "name": "Đăk Nông Province",
      "nativeName": "Ðắk Nông",
      "code": "VN-72",
      "internalCode": "72",
      "countryId": 1562822,
      "countryCode": "VN",
      "latitude": 12.16667,
      "longitude": 107.75
    },
    {
      "id": 1584169,
      "name": "Đắk Lắk",
      "nativeName": "Đắk Lắk Province",
      "code": "VN-33",
      "internalCode": "33",
      "countryId": 1562822,
      "countryCode": "VN",
      "latitude": 12.75,
      "longitude": 108.25
    },
    {
      "id": 1582720,
      "name": "Đồng Nai Province",
      "nativeName": "Tỉnh Đồng Nai",
      "code": "VN-39",
      "internalCode": "39",
      "countryId": 1562822,
      "countryCode": "VN",
      "latitude": 11,
      "longitude": 107.16667
    },
    {
      "id": 1582562,
      "name": "Đồng Tháp Province",
      "nativeName": "Tỉnh Đồng Tháp",
      "code": "VN-45",
      "internalCode": "45",
      "countryId": 1562822,
      "countryCode": "VN",
      "latitude": 10.58333,
      "longitude": 105.63333
    }
  ]
}