{
  "stateId": 1809867,
  "stateCode": "CN-GX",
  "countryCode": "CN",
  "cities": [
    {
      "id": 1816268,
      "name": "Baise Shi",
      "nativeName": "Baise Shi",
      "code": "CN-GX-1816268",
      "countryId": 1814991,
      "countryCode": "CN",
      "stateCode": "CN-GX",
      "latitude": 23.97748,
      "longitude": 106.51453
    },
    {
      "id": 1816702,
      "name": "Beihai Shi",
      "nativeName": "Beihai Shi",
      "code": "CN-GX-1816702",
      "countryId": 1814991,
      "countryCode": "CN",
      "stateCode": "CN-GX",
      "latitude": 21.67043,
      "longitude": 109.37297
    },
    {
      "id": 7909220,
      "name": "Chongzuo Shi",
      "nativeName": "Chongzuo Shi",
      "code": "CN-GX-7909220",
      "countryId": 1814991,
      "countryCode": "CN",
      "stateCode": "CN-GX",
      "latitude": 22.57165,
      "longitude": 107.36921
    },
    {
      "id": 7909223,
      "name": "Fangchenggang Shi",
      "nativeName": "Fangchenggang Shi",
      "code": "CN-GX-7909223",
      "countryId": 1814991,
      "countryCode": "CN",
      "stateCode": "CN-GX",
      "latitude": 21.9358,
      "longitude": 107.95932
    },
    {
      "id": 7909203,
      "name": "Guigang Shi",
      "nativeName": "Guigang Shi",
      "code": "CN-GX-7909203",
      "countryId": 1814991,
      "countryCode": "CN",
      "stateCode": "CN-GX",
      "latitude": 23.25629,
      "longitude": 109.98146
    },
    {
      "id": 1809492,
      "name": "Guilin Shi",
      "nativeName": "Guilin Shi",
      "code": "CN-GX-1809492",
      "countryId": 1814991,
      "countryCode": "CN",
      "stateCode": "CN-GX",
      "latitude": 25.35,
      "longitude": 110.51667
    },
    {
      "id": 1808757,
      "name": "Hechi Shi",
      "nativeName": "Hechi Shi",
      "code": "CN-GX-1808757",
      "countryId": 1814991,
      "countryCode": "CN",
      "stateCode": "CN-GX",
      "latitude": 24.58333,
      "longitude": 107.85
    },
    {
      "id": 7909224,
      "name": "Hezhou Shi",
      "nativeName": "Hezhou Shi",
      "code": "CN-GX-7909224",
      "countryId": 1814991,
      "countryCode": "CN",
      "stateCode": "CN-GX",
      "latitude": 24.40244,
      "longitude": 111.43516
    },
    {
      "id": 7909222,
      "name": "Laibin Shi",
      "nativeName": "Laibin Shi",
      "code": "CN-GX-7909222",
      "countryId": 1814991,
      "countryCode": "CN",
      "stateCode": "CN-GX",
      "latitude": 23.76667,
      "longitude": 109.63333
    },
    {
      "id": 1802851,
      "name": "Liuzhou Shi",
      "nativeName": "Liuzhou Shi",
      "code": "CN-GX-1802851",
      "countryId": 1814991,
      "countryCode": "CN",
      "stateCode": "CN-GX",
      "latitude": 24.93333,
      "longitude": 109.36667
    },
    {
      "id": 1799866,
      "name": "Nanning Shi",
      "nativeName": "Nanning Shi",
      "code": "CN-GX-1799866",
      "countryId": 1814991,
      "countryCode": "CN",
      "stateCode": "CN-GX",
      "latitude": 22.81589,
      "longitude": 108.31609
    },
    {
      "id": 1797550,
      "name": "Qinzhou Shi",
      "nativeName": "Qinzhou Shi",
      "code": "CN-GX-1797550",
      "countryId": 1814991,
      "countryCode": "CN",
      "stateCode": "CN-GX",
      "latitude": 22.07033,
      "longitude": 108.65925
    },
    {
      "id": 1790838,
      "name": "Wuzhou Shi",
      "nativeName": "Wuzhou Shi",
      "code": "CN-GX-1790838",
      "countryId": 1814991,
      "countryCode": "CN",
      "stateCode": "CN-GX",
      "latitude": 23.48199,
      "longitude": 111.31147
    },
    {
      "id": 8537502,
      "name": "Yulin Shi",
      "nativeName": "Yulin Shi",
      "code": "CN-GX-8537502",
      "countryId": 1814991,
      "countryCode": "CN",
      "stateCode": "CN-GX",
      "latitude": 22.47454,
      "longitude": 110.40043
    }
  ]
}