{
  "stateId": 1799355,
  "stateCode": "CN-NX",
  "countryCode": "CN",
  "cities": [
    {
      "id": 1809151,
      "name": "Guyuan Shi",
      "nativeName": "Guyuan Shi",
      "code": "CN-NX-1809151",
      "countryId": 1814991,
      "countryCode": "CN",
      "stateCode": "CN-NX",
      "latitude": 35.93495,
      "longitude": 106.23267
    },
    {
      "id": 1794805,
      "name": "Shizuishan Shi",
      "nativeName": "Shizuishan Shi",
      "code": "CN-NX-1794805",
      "countryId": 1814991,
      "countryCode": "CN",
      "stateCode": "CN-NX",
      "latitude": 38.99443,
      "longitude": 106.51604
    },
    {
      "id": 1786512,
      "name": "Wuzhong Shi",
      "nativeName": "Wuzhong Shi",
      "code": "CN-NX-1786512",
      "countryId": 1814991,
      "countryCode": "CN",
      "stateCode": "CN-NX",
      "latitude": 37.32829,
      "longitude": 106.51315
    },
    {
      "id": 1786656,
      "name": "Yinchuan",
      "nativeName": "Yinchuan Shi",
      "code": "CN-NX-1786656",
      "countryId": 1814991,
      "countryCode": "CN",
      "stateCode": "CN-NX",
      "latitude": 38.46667,
      "longitude": 106.31667
    },
    {
      "id": 6643239,
      "name": "Zhongwei",
      "nativeName": "Zhongwei Shi",
      "code": "CN-NX-6643239",
      "countryId": 1814991,
      "countryCode": "CN",
      "stateCode": "CN-NX",
      "latitude": 36.98507,
      "longitude": 105.49659
    }
  ]
}