{
  "stateId": 1795912,
  "stateCode": "CN-SX",
  "countryCode": "CN",
  "cities": [
    {
      "id": 1815461,
      "name": "Changzhi Shi",
      "nativeName": "Changzhi Shi",
      "code": "CN-SX-1815461",
      "countryId": 1814991,
      "countryCode": "CN",
      "stateCode": "CN-SX",
      "latitude": 36.45564,
      "longitude": 112.88436
    },
    {
      "id": 2037794,
      "name": "Datong Shi",
      "nativeName": "Datong Shi",
      "code": "CN-SX-2037794",
      "countryId": 1814991,
      "countryCode": "CN",
      "stateCode": "CN-SX",
      "latitude": 40.10484,
      "longitude": 113.63334
    },
    {
      "id": 1805739,
      "name": "Jincheng Shi",
      "nativeName": "Jincheng Shi",
      "code": "CN-SX-1805739",
      "countryId": 1814991,
      "countryCode": "CN",
      "stateCode": "CN-SX",
      "latitude": 35.60362,
      "longitude": 112.69257
    },
    {
      "id": 1805302,
      "name": "Jinzhong Shi",
      "nativeName": "Jinzhong Shi",
      "code": "CN-SX-1805302",
      "countryId": 1814991,
      "countryCode": "CN",
      "stateCode": "CN-SX",
      "latitude": 37.43597,
      "longitude": 113.08783
    },
    {
      "id": 1803566,
      "name": "Linfen Shi",
      "nativeName": "Linfen Shi",
      "code": "CN-SX-1803566",
      "countryId": 1814991,
      "countryCode": "CN",
      "stateCode": "CN-SX",
      "latitude": 36.22996,
      "longitude": 111.38177
    },
    {
      "id": 1802029,
      "name": "Lüliang",
      "nativeName": "Lüliang",
      "code": "CN-SX-1802029",
      "countryId": 1814991,
      "countryCode": "CN",
      "stateCode": "CN-SX",
      "latitude": 37.73563,
      "longitude": 111.30538
    },
    {
      "id": 6642609,
      "name": "Shuozhou Shi",
      "nativeName": "Shuozhou Shi",
      "code": "CN-SX-6642609",
      "countryId": 1814991,
      "countryCode": "CN",
      "stateCode": "CN-SX",
      "latitude": 39.59274,
      "longitude": 112.54134
    },
    {
      "id": 1793510,
      "name": "Taiyuan Shi",
      "nativeName": "Taiyuan Shi",
      "code": "CN-SX-1793510",
      "countryId": 1814991,
      "countryCode": "CN",
      "stateCode": "CN-SX",
      "latitude": 37.93314,
      "longitude": 112.3193
    },
    {
      "id": 6642630,
      "name": "Xinzhou Shi",
      "nativeName": "Xinzhou Shi",
      "code": "CN-SX-6642630",
      "countryId": 1814991,
      "countryCode": "CN",
      "stateCode": "CN-SX",
      "latitude": 38.76502,
      "longitude": 112.38581
    },
    {
      "id": 1787346,
      "name": "Yangquan Shi",
      "nativeName": "Yangquan Shi",
      "code": "CN-SX-1787346",
      "countryId": 1814991,
      "countryCode": "CN",
      "stateCode": "CN-SX",
      "latitude": 38.11105,
      "longitude": 113.49628
    },
    {
      "id": 1785736,
      "name": "Yuncheng Shi",
      "nativeName": "Yuncheng Shi",
      "code": "CN-SX-1785736",
      "countryId": 1814991,
      "countryCode": "CN",
      "stateCode": "CN-SX",
      "latitude": 35.21804,
      "longitude": 111.05372
    }
  ]
}