{
  "stateId": 1822213,
  "stateCode": "KH-17",
  "countryCode": "KH",
  "cities": [
    {
      "id": 7873944,
      "name": "Angkor Chum",
      "nativeName": "Angkor Chum",
      "code": "KH-17-7873944",
      "countryId": 1831722,
      "countryCode": "KH",
      "stateCode": "KH-17",
      "latitude": 13.72133,
      "longitude": 103.71695
    },
    {
      "id": 8541392,
      "name": "Angkor Thum",
      "nativeName": "Srŏk Ângkôr Thum",
      "code": "KH-17-8541392",
      "countryId": 1831722,
      "countryCode": "KH",
      "stateCode": "KH-17",
      "latitude": 13.57881,
      "longitude": 103.85645
    },
    {
      "id": 9253801,
      "name": "Banteay Srei",
      "nativeName": "Banteay Srei",
      "code": "KH-17-9253801",
      "countryId": 1831722,
      "countryCode": "KH",
      "stateCode": "KH-17",
      "latitude": 13.57248,
      "longitude": 104.01763
    },
    {
      "id": 9253803,
      "name": "Chi Kraeng",
      "nativeName": "Chi Kraeng",
      "code": "KH-17-9253803",
      "countryId": 1831722,
      "countryCode": "KH",
      "stateCode": "KH-17",
      "latitude": 13.20771,
      "longitude": 104.37154
    },
    {
      "id": 9253804,
      "name": "Kralanh",
      "nativeName": "Kralanh",
      "code": "KH-17-9253804",
      "countryId": 1831722,
      "countryCode": "KH",
      "stateCode": "KH-17",
      "latitude": 13.57414,
      "longitude": 103.48818
    },
    {
      "id": 7647224,
      "name": "Krong Siem Reab",
      "nativeName": "Siem Reap",
      "code": "KH-17-7647224",
      "countryId": 1831722,
      "countryCode": "KH",
      "stateCode": "KH-17",
      "latitude": 13.31,
      "longitude": 103.85
    },
    {
      "id": 8403891,
      "name": "Prasat Bakong",
      "nativeName": "Srŏk Prasat Bakong",
      "code": "KH-17-8403891",
      "countryId": 1831722,
      "countryCode": "KH",
      "stateCode": "KH-17",
      "latitude": 13.21031,
      "longitude": 103.97689
    },
    {
      "id": 1822579,
      "name": "Puok",
      "nativeName": "Srŏk Puŏk",
      "code": "KH-17-1822579",
      "countryId": 1831722,
      "countryCode": "KH",
      "stateCode": "KH-17",
      "latitude": 13.44443,
      "longitude": 103.65917
    },
    {
      "id": 9253806,
      "name": "Soutr Nikom",
      "nativeName": "Soutr Nkom",
      "code": "KH-17-9253806",
      "countryId": 1831722,
      "countryCode": "KH",
      "stateCode": "KH-17",
      "latitude": 13.23223,
      "longitude": 104.12952
    },
    {
      "id": 9253807,
      "name": "Srei Snam",
      "nativeName": "Srei Snam",
      "code": "KH-17-9253807",
      "countryId": 1831722,
      "countryCode": "KH",
      "stateCode": "KH-17",
      "latitude": 13.83515,
      "longitude": 103.56622
    },
    {
      "id": 7873947,
      "name": "Svay Leu",
      "nativeName": "Svay Leu",
      "code": "KH-17-7873947",
      "countryId": 1831722,
      "countryCode": "KH",
      "stateCode": "KH-17",
      "latitude": 13.69168,
      "longitude": 104.27446
    },
    {
      "id": 7873945,
      "name": "Varin",
      "nativeName": "Varin",
      "code": "KH-17-7873945",
      "countryId": 1831722,
      "countryCode": "KH",
      "stateCode": "KH-17",
      "latitude": 13.83574,
      "longitude": 103.89968
    }
  ]
}