{
  "stateId": 686192,
  "stateCode": "RO-AG",
  "countryCode": "RO",
  "cities": [
    {
      "id": 686550,
      "name": "Comuna Albeștii de Argeș",
      "nativeName": "Comuna Albeștii de Argeș",
      "code": "RO-AG-686550",
      "countryId": 798549,
      "countryCode": "RO",
      "stateCode": "RO-AG",
      "latitude": 45.21667,
      "longitude": 24.66667
    },
    {
      "id": 686549,
      "name": "Comuna Albeștii de Muscel",
      "nativeName": "Comuna Albeștii de Muscel",
      "code": "RO-AG-686549",
      "countryId": 798549,
      "countryCode": "RO",
      "stateCode": "RO-AG",
      "latitude": 45.31667,
      "longitude": 25
    },
    {
      "id": 686526,
      "name": "Comuna Albota",
      "nativeName": "Comuna Albota",
      "code": "RO-AG-686526",
      "countryId": 798549,
      "countryCode": "RO",
      "stateCode": "RO-AG",
      "latitude": 44.78287,
      "longitude": 24.81838
    },
    {
      "id": 686307,
      "name": "Comuna Aninoasa",
      "nativeName": "Comuna Aninoasa",
      "code": "RO-AG-686307",
      "countryId": 798549,
      "countryCode": "RO",
      "stateCode": "RO-AG",
      "latitude": 45.20222,
      "longitude": 24.91206
    },
    {
      "id": 686199,
      "name": "Comuna Arefu",
      "nativeName": "Comuna Arefu",
      "code": "RO-AG-686199",
      "countryId": 798549,
      "countryCode": "RO",
      "stateCode": "RO-AG",
      "latitude": 45.33142,
      "longitude": 24.62944
    },
    {
      "id": 685304,
      "name": "Comuna Başcov",
      "nativeName": "Comuna Başcov",
      "code": "RO-AG-685304",
      "countryId": 798549,
      "countryCode": "RO",
      "stateCode": "RO-AG",
      "latitude": 44.89295,
      "longitude": 24.78532
    },
    {
      "id": 685141,
      "name": "Comuna Beleţi-Negreşti",
      "nativeName": "Comuna Beleţi-Negreşti",
      "code": "RO-AG-685141",
      "countryId": 798549,
      "countryCode": "RO",
      "stateCode": "RO-AG",
      "latitude": 44.94651,
      "longitude": 25.08603
    },
    {
      "id": 685020,
      "name": "Comuna Berevoeşti",
      "nativeName": "Comuna Berevoeşti",
      "code": "RO-AG-685020",
      "countryId": 798549,
      "countryCode": "RO",
      "stateCode": "RO-AG",
      "latitude": 45.25327,
      "longitude": 24.94292
    },
    {
      "id": 684422,
      "name": "Comuna Bogaţi",
      "nativeName": "Comuna Bogaţi",
      "code": "RO-AG-684422",
      "countryId": 798549,
      "countryCode": "RO",
      "stateCode": "RO-AG",
      "latitude": 44.87344,
      "longitude": 25.15045
    },
    {
      "id": 684079,
      "name": "Comuna Boteni",
      "nativeName": "Comuna Boteni",
      "code": "RO-AG-684079",
      "countryId": 798549,
      "countryCode": "RO",
      "stateCode": "RO-AG",
      "latitude": 45.17937,
      "longitude": 25.13073
    },
    {
      "id": 684065,
      "name": "Comuna Boţeşti",
      "nativeName": "Comuna Boţeşti",
      "code": "RO-AG-684065",
      "countryId": 798549,
      "countryCode": "RO",
      "stateCode": "RO-AG",
      "latitude": 45.00704,
      "longitude": 25.14723
    },
    {
      "id": 683929,
      "name": "Comuna Bradu",
      "nativeName": "Comuna Bradu",
      "code": "RO-AG-683929",
      "countryId": 798549,
      "countryCode": "RO",
      "stateCode": "RO-AG",
      "latitude": 44.78333,
      "longitude": 24.9
    },
    {
      "id": 683925,
      "name": "Comuna Brăduleţ",
      "nativeName": "Comuna Brăduleţ",
      "code": "RO-AG-683925",
      "countryId": 798549,
      "countryCode": "RO",
      "stateCode": "RO-AG",
      "latitude": 45.27502,
      "longitude": 24.77372
    },
    {
      "id": 683458,
      "name": "Comuna Budeasa",
      "nativeName": "Comuna Budeasa",
      "code": "RO-AG-683458",
      "countryId": 798549,
      "countryCode": "RO",
      "stateCode": "RO-AG",
      "latitude": 44.95042,
      "longitude": 24.80254
    },
    {
      "id": 683385,
      "name": "Comuna Bughea de Jos",
      "nativeName": "Comuna Bughea de Jos",
      "code": "RO-AG-683385",
      "countryId": 798549,
      "countryCode": "RO",
      "stateCode": "RO-AG",
      "latitude": 45.27404,
      "longitude": 25.00324
    },
    {
      "id": 683382,
      "name": "Comuna Bughea de Sus",
      "nativeName": "Comuna Bughea de Sus",
      "code": "RO-AG-683382",
      "countryId": 798549,
      "countryCode": "RO",
      "stateCode": "RO-AG",
      "latitude": 45.29812,
      "longitude": 25.03284
    },
    {
      "id": 683099,
      "name": "Comuna Buzoeşti",
      "nativeName": "Comuna Buzoeşti",
      "code": "RO-AG-683099",
      "countryId": 798549,
      "countryCode": "RO",
      "stateCode": "RO-AG",
      "latitude": 44.60205,
      "longitude": 24.91856
    },
    {
      "id": 8299667,
      "name": "Comuna Bârla",
      "nativeName": "Comuna Bârla",
      "code": "RO-AG-8299667",
      "countryId": 798549,
      "countryCode": "RO",
      "stateCode": "RO-AG",
      "latitude": 44.42636,
      "longitude": 24.77949
    },
    {
      "id": 685990,
      "name": "Comuna Băbana",
      "nativeName": "Comuna Băbana",
      "code": "RO-AG-685990",
      "countryId": 798549,
      "countryCode": "RO",
      "stateCode": "RO-AG",
      "latitude": 44.87539,
      "longitude": 24.71918
    },
    {
      "id": 685809,
      "name": "Comuna Băiculeşti",
      "nativeName": "Comuna Băiculeşti",
      "code": "RO-AG-685809",
      "countryId": 798549,
      "countryCode": "RO",
      "stateCode": "RO-AG",
      "latitude": 45.06017,
      "longitude": 24.67331
    },
    {
      "id": 685618,
      "name": "Comuna Bălileşti",
      "nativeName": "Comuna Bălileşti",
      "code": "RO-AG-685618",
      "countryId": 798549,
      "countryCode": "RO",
      "stateCode": "RO-AG",
      "latitude": 45.07981,
      "longitude": 24.93943
    },
    {
      "id": 682414,
      "name": "Comuna Cepari",
      "nativeName": "Comuna Cepari",
      "code": "RO-AG-682414",
      "countryId": 798549,
      "countryCode": "RO",
      "stateCode": "RO-AG",
      "latitude": 45.20564,
      "longitude": 24.53064
    },
    {
      "id": 682251,
      "name": "Comuna Cetăţeni",
      "nativeName": "Comuna Cetăţeni",
      "code": "RO-AG-682251",
      "countryId": 798549,
      "countryCode": "RO",
      "stateCode": "RO-AG",
      "latitude": 45.19234,
      "longitude": 25.20789
    },
    {
      "id": 8299668,
      "name": "Comuna Cicănești",
      "nativeName": "Comuna Cicănești",
      "code": "RO-AG-8299668",
      "countryId": 798549,
      "countryCode": "RO",
      "stateCode": "RO-AG",
      "latitude": 45.24577,
      "longitude": 24.60629
    },
    {
      "id": 681700,
      "name": "Comuna Ciofrângeni",
      "nativeName": "Comuna Ciofrângeni",
      "code": "RO-AG-681700",
      "countryId": 798549,
      "countryCode": "RO",
      "stateCode": "RO-AG",
      "latitude": 45.10277,
      "longitude": 24.53704
    },
    {
      "id": 681685,
      "name": "Comuna Ciomăgeşti",
      "nativeName": "Comuna Ciomăgeşti",
      "code": "RO-AG-681685",
      "countryId": 798549,
      "countryCode": "RO",
      "stateCode": "RO-AG",
      "latitude": 44.85656,
      "longitude": 24.47229
    },
    {
      "id": 681184,
      "name": "Comuna Cocu",
      "nativeName": "Comuna Cocu",
      "code": "RO-AG-681184",
      "countryId": 798549,
      "countryCode": "RO",
      "stateCode": "RO-AG",
      "latitude": 44.87429,
      "longitude": 24.65112
    },
    {
      "id": 680885,
      "name": "Comuna Corbeni",
      "nativeName": "Comuna Corbeni",
      "code": "RO-AG-680885",
      "countryId": 798549,
      "countryCode": "RO",
      "stateCode": "RO-AG",
      "latitude": 45.29597,
      "longitude": 24.66207
    },
    {
      "id": 680878,
      "name": "Comuna Corbi",
      "nativeName": "Comuna Corbi",
      "code": "RO-AG-680878",
      "countryId": 798549,
      "countryCode": "RO",
      "stateCode": "RO-AG",
      "latitude": 45.25572,
      "longitude": 24.81611
    },
    {
      "id": 680494,
      "name": "Comuna Cotmeana",
      "nativeName": "Comuna Cotmeana",
      "code": "RO-AG-680494",
      "countryId": 798549,
      "countryCode": "RO",
      "stateCode": "RO-AG",
      "latitude": 45.00518,
      "longitude": 24.62021
    },
    {
      "id": 680641,
      "name": "Comuna Coşeşti",
      "nativeName": "Comuna Coşeşti",
      "code": "RO-AG-680641",
      "countryId": 798549,
      "countryCode": "RO",
      "stateCode": "RO-AG",
      "latitude": 45.06431,
      "longitude": 24.87202
    },
    {
      "id": 680053,
      "name": "Comuna Cuca",
      "nativeName": "Comuna Cuca",
      "code": "RO-AG-680053",
      "countryId": 798549,
      "countryCode": "RO",
      "stateCode": "RO-AG",
      "latitude": 44.95654,
      "longitude": 24.50636
    },
    {
      "id": 682996,
      "name": "Comuna Căldăraru",
      "nativeName": "Comuna Căldăraru",
      "code": "RO-AG-682996",
      "countryId": 798549,
      "countryCode": "RO",
      "stateCode": "RO-AG",
      "latitude": 44.45395,
      "longitude": 24.94263
    },
    {
      "id": 682944,
      "name": "Comuna Călineşti",
      "nativeName": "Comuna Călineşti",
      "code": "RO-AG-682944",
      "countryId": 798549,
      "countryCode": "RO",
      "stateCode": "RO-AG",
      "latitude": 44.8565,
      "longitude": 25.01968
    },
    {
      "id": 682559,
      "name": "Comuna Căteasca",
      "nativeName": "Comuna Căteasca",
      "code": "RO-AG-682559",
      "countryId": 798549,
      "countryCode": "RO",
      "stateCode": "RO-AG",
      "latitude": 44.77056,
      "longitude": 25.03633
    },
    {
      "id": 679698,
      "name": "Comuna Davideşti",
      "nativeName": "Comuna Davideşti",
      "code": "RO-AG-679698",
      "countryId": 798549,
      "countryCode": "RO",
      "stateCode": "RO-AG",
      "latitude": 45.00694,
      "longitude": 25.03599
    },
    {
      "id": 679245,
      "name": "Comuna Dobreşti",
      "nativeName": "Comuna Dobreşti",
      "code": "RO-AG-679245",
      "countryId": 798549,
      "countryCode": "RO",
      "stateCode": "RO-AG",
      "latitude": 44.94992,
      "longitude": 25.11907
    },
    {
      "id": 679115,
      "name": "Comuna Domneşti",
      "nativeName": "Comuna Domneşti",
      "code": "RO-AG-679115",
      "countryId": 798549,
      "countryCode": "RO",
      "stateCode": "RO-AG",
      "latitude": 45.20562,
      "longitude": 24.83945
    },
    {
      "id": 678910,
      "name": "Comuna Dragoslavele",
      "nativeName": "Comuna Dragoslavele",
      "code": "RO-AG-678910",
      "countryId": 798549,
      "countryCode": "RO",
      "stateCode": "RO-AG",
      "latitude": 45.33451,
      "longitude": 25.1701
    },
    {
      "id": 678982,
      "name": "Comuna Drăganu",
      "nativeName": "Comuna Drăganu",
      "code": "RO-AG-678982",
      "countryId": 798549,
      "countryCode": "RO",
      "stateCode": "RO-AG",
      "latitude": 44.93761,
      "longitude": 24.70301
    },
    {
      "id": 679388,
      "name": "Comuna Dâmbovicioara",
      "nativeName": "Comuna Dâmbovicioara",
      "code": "RO-AG-679388",
      "countryId": 798549,
      "countryCode": "RO",
      "stateCode": "RO-AG",
      "latitude": 45.43452,
      "longitude": 25.22737
    },
    {
      "id": 679720,
      "name": "Comuna Dărmăneşti",
      "nativeName": "Comuna Dărmăneşti",
      "code": "RO-AG-679720",
      "countryId": 798549,
      "countryCode": "RO",
      "stateCode": "RO-AG",
      "latitude": 45.00656,
      "longitude": 24.90224
    },
    {
      "id": 677004,
      "name": "Comuna Godeni",
      "nativeName": "Comuna Godeni",
      "code": "RO-AG-677004",
      "countryId": 798549,
      "countryCode": "RO",
      "stateCode": "RO-AG",
      "latitude": 45.22311,
      "longitude": 24.97842
    },
    {
      "id": 676165,
      "name": "Comuna Hârseşti",
      "nativeName": "Comuna Hârseşti",
      "code": "RO-AG-676165",
      "countryId": 798549,
      "countryCode": "RO",
      "stateCode": "RO-AG",
      "latitude": 44.51091,
      "longitude": 24.78294
    },
    {
      "id": 676153,
      "name": "Comuna Hârtieşti",
      "nativeName": "Comuna Hârtieşti",
      "code": "RO-AG-676153",
      "countryId": 798549,
      "countryCode": "RO",
      "stateCode": "RO-AG",
      "latitude": 45.12629,
      "longitude": 25.11343
    },
    {
      "id": 675341,
      "name": "Comuna Izvoru",
      "nativeName": "Comuna Izvoru",
      "code": "RO-AG-675341",
      "countryId": 798549,
      "countryCode": "RO",
      "stateCode": "RO-AG",
      "latitude": 44.49414,
      "longitude": 25.0647
    },
    {
      "id": 674882,
      "name": "Comuna Leordeni",
      "nativeName": "Comuna Leordeni",
      "code": "RO-AG-674882",
      "countryId": 798549,
      "countryCode": "RO",
      "stateCode": "RO-AG",
      "latitude": 44.79117,
      "longitude": 25.16299
    },
    {
      "id": 674863,
      "name": "Comuna Lereşti",
      "nativeName": "Comuna Lereşti",
      "code": "RO-AG-674863",
      "countryId": 798549,
      "countryCode": "RO",
      "stateCode": "RO-AG",
      "latitude": 45.32789,
      "longitude": 25.06951
    },
    {
      "id": 8299669,
      "name": "Comuna Lunca Corbului",
      "nativeName": "Comuna Lunca Corbului",
      "code": "RO-AG-8299669",
      "countryId": 798549,
      "countryCode": "RO",
      "stateCode": "RO-AG",
      "latitude": 44.68361,
      "longitude": 24.76056
    },
    {
      "id": 8299670,
      "name": "Comuna Merișani",
      "nativeName": "Comuna Merișani",
      "code": "RO-AG-8299670",
      "countryId": 798549,
      "countryCode": "RO",
      "stateCode": "RO-AG",
      "latitude": 44.96674,
      "longitude": 24.74482
    },
    {
      "id": 673479,
      "name": "Comuna Miceşti",
      "nativeName": "Comuna Miceşti",
      "code": "RO-AG-673479",
      "countryId": 798549,
      "countryCode": "RO",
      "stateCode": "RO-AG",
      "latitude": 44.97367,
      "longitude": 24.85577
    },
    {
      "id": 673409,
      "name": "Comuna Mihăeşti",
      "nativeName": "Comuna Mihăeşti",
      "code": "RO-AG-673409",
      "countryId": 798549,
      "countryCode": "RO",
      "stateCode": "RO-AG",
      "latitude": 45.11563,
      "longitude": 25.01938
    },
    {
      "id": 673166,
      "name": "Comuna Mioarele",
      "nativeName": "Comuna Mioarele",
      "code": "RO-AG-673166",
      "countryId": 798549,
      "countryCode": "RO",
      "stateCode": "RO-AG",
      "latitude": 45.23396,
      "longitude": 25.10045
    },
    {
      "id": 673101,
      "name": "Comuna Miroşi",
      "nativeName": "Comuna Miroşi",
      "code": "RO-AG-673101",
      "countryId": 798549,
      "countryCode": "RO",
      "stateCode": "RO-AG",
      "latitude": 44.40316,
      "longitude": 24.9517
    },
    {
      "id": 8299673,
      "name": "Comuna Morărești",
      "nativeName": "Comuna Morărești",
      "code": "RO-AG-8299673",
      "countryId": 798549,
      "countryCode": "RO",
      "stateCode": "RO-AG",
      "latitude": 45.0076,
      "longitude": 24.56079
    },
    {
      "id": 672712,
      "name": "Comuna Mozăceni",
      "nativeName": "Comuna Mozăceni",
      "code": "RO-AG-672712",
      "countryId": 798549,
      "countryCode": "RO",
      "stateCode": "RO-AG",
      "latitude": 44.56366,
      "longitude": 25.17492
    },
    {
      "id": 672807,
      "name": "Comuna Moşoaia",
      "nativeName": "Comuna Moşoaia",
      "code": "RO-AG-672807",
      "countryId": 798549,
      "countryCode": "RO",
      "stateCode": "RO-AG",
      "latitude": 44.83013,
      "longitude": 24.79957
    },
    {
      "id": 672579,
      "name": "Comuna Mușătești",
      "nativeName": "Comuna Mușătești",
      "code": "RO-AG-672579",
      "countryId": 798549,
      "countryCode": "RO",
      "stateCode": "RO-AG",
      "latitude": 45.21667,
      "longitude": 24.78333
    },
    {
      "id": 673975,
      "name": "Comuna Mălureni",
      "nativeName": "Comuna Mălureni",
      "code": "RO-AG-673975",
      "countryId": 798549,
      "countryCode": "RO",
      "stateCode": "RO-AG",
      "latitude": 45.0478,
      "longitude": 24.77875
    },
    {
      "id": 673892,
      "name": "Comuna Mărăcineni",
      "nativeName": "Comuna Mărăcineni",
      "code": "RO-AG-673892",
      "countryId": 798549,
      "countryCode": "RO",
      "stateCode": "RO-AG",
      "latitude": 44.90857,
      "longitude": 24.87484
    },
    {
      "id": 672404,
      "name": "Comuna Negraşi",
      "nativeName": "Comuna Negraşi",
      "code": "RO-AG-672404",
      "countryId": 798549,
      "countryCode": "RO",
      "stateCode": "RO-AG",
      "latitude": 44.61441,
      "longitude": 25.12404
    },
    {
      "id": 672132,
      "name": "Comuna Nucşoara",
      "nativeName": "Comuna Nucşoara",
      "code": "RO-AG-672132",
      "countryId": 798549,
      "countryCode": "RO",
      "stateCode": "RO-AG",
      "latitude": 45.33798,
      "longitude": 24.78943
    },
    {
      "id": 672107,
      "name": "Comuna Oarja",
      "nativeName": "Comuna Oarja",
      "code": "RO-AG-672107",
      "countryId": 798549,
      "countryCode": "RO",
      "stateCode": "RO-AG",
      "latitude": 44.7573,
      "longitude": 24.96935
    },
    {
      "id": 670816,
      "name": "Comuna Pietroşani",
      "nativeName": "Comuna Pietroşani",
      "code": "RO-AG-670816",
      "countryId": 798549,
      "countryCode": "RO",
      "stateCode": "RO-AG",
      "latitude": 45.15375,
      "longitude": 24.84439
    },
    {
      "id": 670074,
      "name": "Comuna Poiana Lacului",
      "nativeName": "Comuna Poiana Lacului",
      "code": "RO-AG-670074",
      "countryId": 798549,
      "countryCode": "RO",
      "stateCode": "RO-AG",
      "latitude": 44.81199,
      "longitude": 24.71296
    },
    {
      "id": 670235,
      "name": "Comuna Poienarii de Argeş",
      "nativeName": "Comuna Poienarii de Argeş",
      "code": "RO-AG-670235",
      "countryId": 798549,
      "countryCode": "RO",
      "stateCode": "RO-AG",
      "latitude": 45.06667,
      "longitude": 24.53333
    },
    {
      "id": 670234,
      "name": "Comuna Poienarii de Muscel",
      "nativeName": "Comuna Poienarii de Muscel",
      "code": "RO-AG-670234",
      "countryId": 798549,
      "countryCode": "RO",
      "stateCode": "RO-AG",
      "latitude": 45.21667,
      "longitude": 25.05
    },
    {
      "id": 669867,
      "name": "Comuna Popeşti",
      "nativeName": "Comuna Popeşti",
      "code": "RO-AG-669867",
      "countryId": 798549,
      "countryCode": "RO",
      "stateCode": "RO-AG",
      "latitude": 44.44521,
      "longitude": 25.09114
    },
    {
      "id": 669653,
      "name": "Comuna Priboieni",
      "nativeName": "Comuna Priboieni",
      "code": "RO-AG-669653",
      "countryId": 798549,
      "countryCode": "RO",
      "stateCode": "RO-AG",
      "latitude": 44.87728,
      "longitude": 25.0868
    },
    {
      "id": 669041,
      "name": "Comuna Recea",
      "nativeName": "Comuna Recea",
      "code": "RO-AG-669041",
      "countryId": 798549,
      "countryCode": "RO",
      "stateCode": "RO-AG",
      "latitude": 44.54264,
      "longitude": 25.02738
    },
    {
      "id": 668780,
      "name": "Comuna Rociu",
      "nativeName": "Comuna Rociu",
      "code": "RO-AG-668780",
      "countryId": 798549,
      "countryCode": "RO",
      "stateCode": "RO-AG",
      "latitude": 44.66838,
      "longitude": 25.02014
    },
    {
      "id": 668540,
      "name": "Comuna Rucăr",
      "nativeName": "Comuna Rucăr",
      "code": "RO-AG-668540",
      "countryId": 798549,
      "countryCode": "RO",
      "stateCode": "RO-AG",
      "latitude": 45.41607,
      "longitude": 25.17338
    },
    {
      "id": 668925,
      "name": "Comuna Râca",
      "nativeName": "Comuna Râca",
      "code": "RO-AG-668925",
      "countryId": 798549,
      "countryCode": "RO",
      "stateCode": "RO-AG",
      "latitude": 44.44216,
      "longitude": 25.03671
    },
    {
      "id": 669113,
      "name": "Comuna Răteşti",
      "nativeName": "Comuna Răteşti",
      "code": "RO-AG-669113",
      "countryId": 798549,
      "countryCode": "RO",
      "stateCode": "RO-AG",
      "latitude": 44.7169,
      "longitude": 25.15858
    },
    {
      "id": 667645,
      "name": "Comuna Schitu-Goleşti",
      "nativeName": "Comuna Schitu-Goleşti",
      "code": "RO-AG-667645",
      "countryId": 798549,
      "countryCode": "RO",
      "stateCode": "RO-AG",
      "latitude": 45.1863,
      "longitude": 25.00576
    },
    {
      "id": 666683,
      "name": "Comuna Slobozia",
      "nativeName": "Comuna Slobozia",
      "code": "RO-AG-666683",
      "countryId": 798549,
      "countryCode": "RO",
      "stateCode": "RO-AG",
      "latitude": 44.52197,
      "longitude": 25.24092
    },
    {
      "id": 666062,
      "name": "Comuna Stoeneşti",
      "nativeName": "Comuna Stoeneşti",
      "code": "RO-AG-666062",
      "countryId": 798549,
      "countryCode": "RO",
      "stateCode": "RO-AG",
      "latitude": 45.26432,
      "longitude": 25.17674
    },
    {
      "id": 666034,
      "name": "Comuna Stolnici",
      "nativeName": "Comuna Stolnici",
      "code": "RO-AG-666034",
      "countryId": 798549,
      "countryCode": "RO",
      "stateCode": "RO-AG",
      "latitude": 44.58075,
      "longitude": 24.77335
    },
    {
      "id": 666148,
      "name": "Comuna Stâlpeni",
      "nativeName": "Comuna Stâlpeni",
      "code": "RO-AG-666148",
      "countryId": 798549,
      "countryCode": "RO",
      "stateCode": "RO-AG",
      "latitude": 45.05665,
      "longitude": 24.99307
    },
    {
      "id": 665686,
      "name": "Comuna Suseni",
      "nativeName": "Comuna Suseni",
      "code": "RO-AG-665686",
      "countryId": 798549,
      "countryCode": "RO",
      "stateCode": "RO-AG",
      "latitude": 44.70861,
      "longitude": 24.96437
    },
    {
      "id": 668225,
      "name": "Comuna Sălătrucu",
      "nativeName": "Comuna Sălătrucu",
      "code": "RO-AG-668225",
      "countryId": 798549,
      "countryCode": "RO",
      "stateCode": "RO-AG",
      "latitude": 45.29098,
      "longitude": 24.52523
    },
    {
      "id": 668079,
      "name": "Comuna Săpata",
      "nativeName": "Comuna Săpata",
      "code": "RO-AG-668079",
      "countryId": 798549,
      "countryCode": "RO",
      "stateCode": "RO-AG",
      "latitude": 44.72789,
      "longitude": 24.7528
    },
    {
      "id": 665324,
      "name": "Comuna Teiu",
      "nativeName": "Comuna Teiu",
      "code": "RO-AG-665324",
      "countryId": 798549,
      "countryCode": "RO",
      "stateCode": "RO-AG",
      "latitude": 44.64225,
      "longitude": 25.1411
    },
    {
      "id": 665112,
      "name": "Comuna Tigveni",
      "nativeName": "Comuna Tigveni",
      "code": "RO-AG-665112",
      "countryId": 798549,
      "countryCode": "RO",
      "stateCode": "RO-AG",
      "latitude": 45.15588,
      "longitude": 24.55094
    },
    {
      "id": 664383,
      "name": "Comuna Uda",
      "nativeName": "Comuna Uda",
      "code": "RO-AG-664383",
      "countryId": 798549,
      "countryCode": "RO",
      "stateCode": "RO-AG",
      "latitude": 44.87591,
      "longitude": 24.58582
    },
    {
      "id": 664269,
      "name": "Comuna Ungheni",
      "nativeName": "Comuna Ungheni",
      "code": "RO-AG-664269",
      "countryId": 798549,
      "countryCode": "RO",
      "stateCode": "RO-AG",
      "latitude": 44.51166,
      "longitude": 24.95186
    },
    {
      "id": 663797,
      "name": "Comuna Valea Danului",
      "nativeName": "Comuna Valea Danului",
      "code": "RO-AG-663797",
      "countryId": 798549,
      "countryCode": "RO",
      "stateCode": "RO-AG",
      "latitude": 45.18962,
      "longitude": 24.61959
    },
    {
      "id": 663732,
      "name": "Comuna Valea Iaşului",
      "nativeName": "Comuna Valea Iaşului",
      "code": "RO-AG-663732",
      "countryId": 798549,
      "countryCode": "RO",
      "stateCode": "RO-AG",
      "latitude": 45.19677,
      "longitude": 24.70094
    },
    {
      "id": 663082,
      "name": "Comuna Vedea",
      "nativeName": "Comuna Vedea",
      "code": "RO-AG-663082",
      "countryId": 798549,
      "countryCode": "RO",
      "stateCode": "RO-AG",
      "latitude": 44.77735,
      "longitude": 24.64677
    },
    {
      "id": 662615,
      "name": "Comuna Vlădeşti",
      "nativeName": "Comuna Vlădeşti",
      "code": "RO-AG-662615",
      "countryId": 798549,
      "countryCode": "RO",
      "stateCode": "RO-AG",
      "latitude": 45.14344,
      "longitude": 24.93634
    },
    {
      "id": 662392,
      "name": "Comuna Vultureşti",
      "nativeName": "Comuna Vultureşti",
      "code": "RO-AG-662392",
      "countryId": 798549,
      "countryCode": "RO",
      "stateCode": "RO-AG",
      "latitude": 45.05999,
      "longitude": 25.0737
    },
    {
      "id": 666245,
      "name": "Comuna Ştefan cel Mare",
      "nativeName": "Comuna Ştefan cel Mare",
      "code": "RO-AG-666245",
      "countryId": 798549,
      "countryCode": "RO",
      "stateCode": "RO-AG",
      "latitude": 44.49197,
      "longitude": 25.2471
    },
    {
      "id": 665798,
      "name": "Comuna Şuici",
      "nativeName": "Comuna Şuici",
      "code": "RO-AG-665798",
      "countryId": 798549,
      "countryCode": "RO",
      "stateCode": "RO-AG",
      "latitude": 45.24454,
      "longitude": 24.53621
    },
    {
      "id": 664900,
      "name": "Comuna Țițești",
      "nativeName": "Comuna Țițești",
      "code": "RO-AG-664900",
      "countryId": 798549,
      "countryCode": "RO",
      "stateCode": "RO-AG",
      "latitude": 45.01146,
      "longitude": 24.97898
    },
    {
      "id": 8299652,
      "name": "Municipiul Curtea de Argeș",
      "nativeName": "Municipiul Curtea de Argeș",
      "code": "RO-AG-8299652",
      "countryId": 798549,
      "countryCode": "RO",
      "stateCode": "RO-AG",
      "latitude": 45.1384,
      "longitude": 24.67512
    },
    {
      "id": 8299651,
      "name": "Municipiul Câmpulung",
      "nativeName": "Municipiul Câmpulung",
      "code": "RO-AG-8299651",
      "countryId": 798549,
      "countryCode": "RO",
      "stateCode": "RO-AG",
      "latitude": 45.26691,
      "longitude": 25.04419
    },
    {
      "id": 8299650,
      "name": "Municipiul Piteşti",
      "nativeName": "Municipiul Piteşti",
      "code": "RO-AG-8299650",
      "countryId": 798549,
      "countryCode": "RO",
      "stateCode": "RO-AG",
      "latitude": 44.85782,
      "longitude": 24.87133
    },
    {
      "id": 680567,
      "name": "Oraș Costeşti",
      "nativeName": "Oraș Costeşti",
      "code": "RO-AG-680567",
      "countryId": 798549,
      "countryCode": "RO",
      "stateCode": "RO-AG",
      "latitude": 44.66667,
      "longitude": 24.88333
    },
    {
      "id": 673161,
      "name": "Oraș Mioveni",
      "nativeName": "Oraș Mioveni",
      "code": "RO-AG-673161",
      "countryId": 798549,
      "countryCode": "RO",
      "stateCode": "RO-AG",
      "latitude": 44.95897,
      "longitude": 24.94274
    },
    {
      "id": 664728,
      "name": "Oraș Topoloveni",
      "nativeName": "Oraș Topoloveni",
      "code": "RO-AG-664728",
      "countryId": 798549,
      "countryCode": "RO",
      "stateCode": "RO-AG",
      "latitude": 44.81667,
      "longitude": 25.08333
    },
    {
      "id": 666226,
      "name": "Oraș Ştefăneşti",
      "nativeName": "Oraș Ştefăneşti",
      "code": "RO-AG-666226",
      "countryId": 798549,
      "countryCode": "RO",
      "stateCode": "RO-AG",
      "latitude": 44.86667,
      "longitude": 24.93333
    },
    {
      "id": 663595,
      "name": "Valea Mare Pravat",
      "nativeName": "Comuna Valea Mare-Pravăţ",
      "code": "RO-AG-663595",
      "countryId": 798549,
      "countryCode": "RO",
      "stateCode": "RO-AG",
      "latitude": 45.289,
      "longitude": 25.10567
    }
  ]
}