{
  "stateId": 685947,
  "stateCode": "RO-BC",
  "countryCode": "RO",
  "cities": [
    {
      "id": 686635,
      "name": "Comuna Agăş",
      "nativeName": "Comuna Agăş",
      "code": "RO-BC-686635",
      "countryId": 798549,
      "countryCode": "RO",
      "stateCode": "RO-BC",
      "latitude": 46.46458,
      "longitude": 26.22962
    },
    {
      "id": 686211,
      "name": "Comuna Ardeoani",
      "nativeName": "Comuna Ardeoani",
      "code": "RO-BC-686211",
      "countryId": 798549,
      "countryCode": "RO",
      "stateCode": "RO-BC",
      "latitude": 46.52183,
      "longitude": 26.60165
    },
    {
      "id": 686087,
      "name": "Comuna Asău",
      "nativeName": "Comuna Asău",
      "code": "RO-BC-686087",
      "countryId": 798549,
      "countryCode": "RO",
      "stateCode": "RO-BC",
      "latitude": 46.46495,
      "longitude": 26.37497
    },
    {
      "id": 685661,
      "name": "Comuna Balcani",
      "nativeName": "Comuna Balcani",
      "code": "RO-BC-685661",
      "countryId": 798549,
      "countryCode": "RO",
      "stateCode": "RO-BC",
      "latitude": 46.64108,
      "longitude": 26.54412
    },
    {
      "id": 685030,
      "name": "Comuna Bereşti-Bistriţa",
      "nativeName": "Comuna Bereşti-Bistriţa",
      "code": "RO-BC-685030",
      "countryId": 798549,
      "countryCode": "RO",
      "stateCode": "RO-BC",
      "latitude": 46.7087,
      "longitude": 26.85648
    },
    {
      "id": 685024,
      "name": "Comuna Bereşti-Tazlău",
      "nativeName": "Comuna Bereşti-Tazlău",
      "code": "RO-BC-685024",
      "countryId": 798549,
      "countryCode": "RO",
      "stateCode": "RO-BC",
      "latitude": 46.48302,
      "longitude": 26.67877
    },
    {
      "id": 684969,
      "name": "Comuna Berzunţi",
      "nativeName": "Comuna Berzunţi",
      "code": "RO-BC-684969",
      "countryId": 798549,
      "countryCode": "RO",
      "stateCode": "RO-BC",
      "latitude": 46.4136,
      "longitude": 26.62237
    },
    {
      "id": 684616,
      "name": "Comuna Blăgeşti",
      "nativeName": "Comuna Blăgeşti",
      "code": "RO-BC-684616",
      "countryId": 798549,
      "countryCode": "RO",
      "stateCode": "RO-BC",
      "latitude": 46.68668,
      "longitude": 26.64835
    },
    {
      "id": 684387,
      "name": "Comuna Bogdăneşti",
      "nativeName": "Comuna Bogdăneşti",
      "code": "RO-BC-684387",
      "countryId": 798549,
      "countryCode": "RO",
      "stateCode": "RO-BC",
      "latitude": 46.2179,
      "longitude": 26.6995
    },
    {
      "id": 683606,
      "name": "Comuna Brusturoasa",
      "nativeName": "Comuna Brusturoasa",
      "code": "RO-BC-683606",
      "countryId": 798549,
      "countryCode": "RO",
      "stateCode": "RO-BC",
      "latitude": 46.51898,
      "longitude": 26.19352
    },
    {
      "id": 683557,
      "name": "Comuna Buciumi",
      "nativeName": "Comuna Buciumi",
      "code": "RO-BC-683557",
      "countryId": 798549,
      "countryCode": "RO",
      "stateCode": "RO-BC",
      "latitude": 46.21353,
      "longitude": 26.78584
    },
    {
      "id": 683366,
      "name": "Comuna Buhoci",
      "nativeName": "Comuna Buhoci",
      "code": "RO-BC-683366",
      "countryId": 798549,
      "countryCode": "RO",
      "stateCode": "RO-BC",
      "latitude": 46.56581,
      "longitude": 27.00824
    },
    {
      "id": 684765,
      "name": "Comuna Bârsăneşti",
      "nativeName": "Comuna Bârsăneşti",
      "code": "RO-BC-684765",
      "countryId": 798549,
      "countryCode": "RO",
      "stateCode": "RO-BC",
      "latitude": 46.3329,
      "longitude": 26.68192
    },
    {
      "id": 673257,
      "name": "Comuna Caşin",
      "nativeName": "Comuna Caşin",
      "code": "RO-BC-673257",
      "countryId": 798549,
      "countryCode": "RO",
      "stateCode": "RO-BC",
      "latitude": 46.19394,
      "longitude": 26.72923
    },
    {
      "id": 681339,
      "name": "Comuna Cleja",
      "nativeName": "Comuna Cleja",
      "code": "RO-BC-681339",
      "countryId": 798549,
      "countryCode": "RO",
      "stateCode": "RO-BC",
      "latitude": 46.40183,
      "longitude": 26.92104
    },
    {
      "id": 681094,
      "name": "Comuna Coloneşti",
      "nativeName": "Comuna Coloneşti",
      "code": "RO-BC-681094",
      "countryId": 798549,
      "countryCode": "RO",
      "stateCode": "RO-BC",
      "latitude": 46.60471,
      "longitude": 27.26584
    },
    {
      "id": 680893,
      "name": "Comuna Corbasca",
      "nativeName": "Comuna Corbasca",
      "code": "RO-BC-680893",
      "countryId": 798549,
      "countryCode": "RO",
      "stateCode": "RO-BC",
      "latitude": 46.29728,
      "longitude": 27.13675
    },
    {
      "id": 680484,
      "name": "Comuna Coţofăneşti",
      "nativeName": "Comuna Coţofăneşti",
      "code": "RO-BC-680484",
      "countryId": 798549,
      "countryCode": "RO",
      "stateCode": "RO-BC",
      "latitude": 46.14808,
      "longitude": 26.98644
    },
    {
      "id": 683043,
      "name": "Comuna Căiuţi",
      "nativeName": "Comuna Căiuţi",
      "code": "RO-BC-683043",
      "countryId": 798549,
      "countryCode": "RO",
      "stateCode": "RO-BC",
      "latitude": 46.17987,
      "longitude": 26.91633
    },
    {
      "id": 8334699,
      "name": "Comuna Dealu Morii",
      "nativeName": "Comuna Dealu Morii",
      "code": "RO-BC-8334699",
      "countryId": 798549,
      "countryCode": "RO",
      "stateCode": "RO-BC",
      "latitude": 46.30877,
      "longitude": 27.29511
    },
    {
      "id": 679165,
      "name": "Comuna Dofteana",
      "nativeName": "Comuna Dofteana",
      "code": "RO-BC-679165",
      "countryId": 798549,
      "countryCode": "RO",
      "stateCode": "RO-BC",
      "latitude": 46.32282,
      "longitude": 26.53081
    },
    {
      "id": 679787,
      "name": "Comuna Dămieneşti",
      "nativeName": "Comuna Dămieneşti",
      "code": "RO-BC-679787",
      "countryId": 798549,
      "countryCode": "RO",
      "stateCode": "RO-BC",
      "latitude": 46.7431,
      "longitude": 27.00649
    },
    {
      "id": 678450,
      "name": "Comuna Faraoani",
      "nativeName": "Comuna Faraoani",
      "code": "RO-BC-678450",
      "countryId": 798549,
      "countryCode": "RO",
      "stateCode": "RO-BC",
      "latitude": 46.43375,
      "longitude": 26.89835
    },
    {
      "id": 678252,
      "name": "Comuna Filipeni",
      "nativeName": "Comuna Filipeni",
      "code": "RO-BC-678252",
      "countryId": 798549,
      "countryCode": "RO",
      "stateCode": "RO-BC",
      "latitude": 46.53357,
      "longitude": 27.19114
    },
    {
      "id": 678246,
      "name": "Comuna Filipeşti",
      "nativeName": "Comuna Filipeşti",
      "code": "RO-BC-678246",
      "countryId": 798549,
      "countryCode": "RO",
      "stateCode": "RO-BC",
      "latitude": 46.76821,
      "longitude": 26.89338
    },
    {
      "id": 677376,
      "name": "Comuna Ghimeş-Făget",
      "nativeName": "Comuna Ghimeş-Făget",
      "code": "RO-BC-677376",
      "countryId": 798549,
      "countryCode": "RO",
      "stateCode": "RO-BC",
      "latitude": 46.60483,
      "longitude": 26.05354
    },
    {
      "id": 8334679,
      "name": "Comuna Gioseni",
      "nativeName": "Comuna Gioseni",
      "code": "RO-BC-8334679",
      "countryId": 798549,
      "countryCode": "RO",
      "stateCode": "RO-BC",
      "latitude": 46.42925,
      "longitude": 26.99239
    },
    {
      "id": 677083,
      "name": "Comuna Glăvăneşti",
      "nativeName": "Comuna Glăvăneşti",
      "code": "RO-BC-677083",
      "countryId": 798549,
      "countryCode": "RO",
      "stateCode": "RO-BC",
      "latitude": 46.26329,
      "longitude": 27.38778
    },
    {
      "id": 668844,
      "name": "Comuna Gura Văii",
      "nativeName": "Comuna Gura Văii",
      "code": "RO-BC-668844",
      "countryId": 798549,
      "countryCode": "RO",
      "stateCode": "RO-BC",
      "latitude": 46.27305,
      "longitude": 26.82312
    },
    {
      "id": 8334687,
      "name": "Comuna Gârleni",
      "nativeName": "Comuna Gârleni",
      "code": "RO-BC-8334687",
      "countryId": 798549,
      "countryCode": "RO",
      "stateCode": "RO-BC",
      "latitude": 46.66251,
      "longitude": 26.78819
    },
    {
      "id": 677722,
      "name": "Comuna Găiceana",
      "nativeName": "Comuna Găiceana",
      "code": "RO-BC-677722",
      "countryId": 798549,
      "countryCode": "RO",
      "stateCode": "RO-BC",
      "latitude": 46.3506,
      "longitude": 27.22154
    },
    {
      "id": 676261,
      "name": "Comuna Helegiu",
      "nativeName": "Comuna Helegiu",
      "code": "RO-BC-676261",
      "countryId": 798549,
      "countryCode": "RO",
      "stateCode": "RO-BC",
      "latitude": 46.34967,
      "longitude": 26.7669
    },
    {
      "id": 676250,
      "name": "Comuna Hemeiuşi",
      "nativeName": "Comuna Hemeiuşi",
      "code": "RO-BC-676250",
      "countryId": 798549,
      "countryCode": "RO",
      "stateCode": "RO-BC",
      "latitude": 46.61927,
      "longitude": 26.85729
    },
    {
      "id": 676015,
      "name": "Comuna Horgeşti",
      "nativeName": "Comuna Horgeşti",
      "code": "RO-BC-676015",
      "countryId": 798549,
      "countryCode": "RO",
      "stateCode": "RO-BC",
      "latitude": 46.39837,
      "longitude": 27.05603
    },
    {
      "id": 675899,
      "name": "Comuna Huruieşti",
      "nativeName": "Comuna Huruieşti",
      "code": "RO-BC-675899",
      "countryId": 798549,
      "countryCode": "RO",
      "stateCode": "RO-BC",
      "latitude": 46.25297,
      "longitude": 27.23828
    },
    {
      "id": 675455,
      "name": "Comuna Iteşti",
      "nativeName": "Comuna Iteşti",
      "code": "RO-BC-675455",
      "countryId": 798549,
      "countryCode": "RO",
      "stateCode": "RO-BC",
      "latitude": 46.67368,
      "longitude": 26.85555
    },
    {
      "id": 675332,
      "name": "Comuna Izvoru Berheciului",
      "nativeName": "Comuna Izvoru Berheciului",
      "code": "RO-BC-675332",
      "countryId": 798549,
      "countryCode": "RO",
      "stateCode": "RO-BC",
      "latitude": 46.57693,
      "longitude": 27.22842
    },
    {
      "id": 674825,
      "name": "Comuna Letea Veche",
      "nativeName": "Comuna Letea Veche",
      "code": "RO-BC-674825",
      "countryId": 798549,
      "countryCode": "RO",
      "stateCode": "RO-BC",
      "latitude": 46.54236,
      "longitude": 26.96869
    },
    {
      "id": 674731,
      "name": "Comuna Lipova",
      "nativeName": "Comuna Lipova",
      "code": "RO-BC-674731",
      "countryId": 798549,
      "countryCode": "RO",
      "stateCode": "RO-BC",
      "latitude": 46.72016,
      "longitude": 27.23238
    },
    {
      "id": 8334722,
      "name": "Comuna Livezi",
      "nativeName": "Comuna Livezi",
      "code": "RO-BC-8334722",
      "countryId": 798549,
      "countryCode": "RO",
      "stateCode": "RO-BC",
      "latitude": 46.39932,
      "longitude": 26.72438
    },
    {
      "id": 8334656,
      "name": "Comuna Luizi-Cãlugãra",
      "nativeName": "Comuna Luizi-Cãlugãra",
      "code": "RO-BC-8334656",
      "countryId": 798549,
      "countryCode": "RO",
      "stateCode": "RO-BC",
      "latitude": 46.53604,
      "longitude": 26.84012
    },
    {
      "id": 672759,
      "name": "Comuna Motoşeni",
      "nativeName": "Comuna Motoşeni",
      "code": "RO-BC-672759",
      "countryId": 798549,
      "countryCode": "RO",
      "stateCode": "RO-BC",
      "latitude": 46.32779,
      "longitude": 27.41721
    },
    {
      "id": 8334655,
      "name": "Comuna Mãnãstirea Caşin",
      "nativeName": "Comuna Mãnãstirea Caşin",
      "code": "RO-BC-8334655",
      "countryId": 798549,
      "countryCode": "RO",
      "stateCode": "RO-BC",
      "latitude": 46.14381,
      "longitude": 26.695
    },
    {
      "id": 674171,
      "name": "Comuna Măgireşti",
      "nativeName": "Comuna Măgireşti",
      "code": "RO-BC-674171",
      "countryId": 798549,
      "countryCode": "RO",
      "stateCode": "RO-BC",
      "latitude": 46.50965,
      "longitude": 26.53727
    },
    {
      "id": 674129,
      "name": "Comuna Măgura",
      "nativeName": "Comuna Măgura",
      "code": "RO-BC-674129",
      "countryId": 798549,
      "countryCode": "RO",
      "stateCode": "RO-BC",
      "latitude": 46.56065,
      "longitude": 26.839
    },
    {
      "id": 673788,
      "name": "Comuna Mărgineni",
      "nativeName": "Comuna Mărgineni",
      "code": "RO-BC-673788",
      "countryId": 798549,
      "countryCode": "RO",
      "stateCode": "RO-BC",
      "latitude": 46.59779,
      "longitude": 26.80505
    },
    {
      "id": 672363,
      "name": "Comuna Negri",
      "nativeName": "Comuna Negri",
      "code": "RO-BC-672363",
      "countryId": 798549,
      "countryCode": "RO",
      "stateCode": "RO-BC",
      "latitude": 46.705,
      "longitude": 26.97216
    },
    {
      "id": 672267,
      "name": "Comuna Nicolae Bălcescu",
      "nativeName": "Comuna Nicolae Bălcescu",
      "code": "RO-BC-672267",
      "countryId": 798549,
      "countryCode": "RO",
      "stateCode": "RO-BC",
      "latitude": 46.46687,
      "longitude": 26.88837
    },
    {
      "id": 671970,
      "name": "Comuna Odobeşti",
      "nativeName": "Comuna Odobeşti",
      "code": "RO-BC-671970",
      "countryId": 798549,
      "countryCode": "RO",
      "stateCode": "RO-BC",
      "latitude": 46.66902,
      "longitude": 27.13224
    },
    {
      "id": 671894,
      "name": "Comuna Oituz",
      "nativeName": "Comuna Oituz",
      "code": "RO-BC-671894",
      "countryId": 798549,
      "countryCode": "RO",
      "stateCode": "RO-BC",
      "latitude": 46.19045,
      "longitude": 26.56043
    },
    {
      "id": 8334831,
      "name": "Comuna Onceşti",
      "nativeName": "Comuna Onceşti",
      "code": "RO-BC-8334831",
      "countryId": 798549,
      "countryCode": "RO",
      "stateCode": "RO-BC",
      "latitude": 46.47537,
      "longitude": 27.25835
    },
    {
      "id": 671735,
      "name": "Comuna Orbeni",
      "nativeName": "Comuna Orbeni",
      "code": "RO-BC-671735",
      "countryId": 798549,
      "countryCode": "RO",
      "stateCode": "RO-BC",
      "latitude": 46.26934,
      "longitude": 27.01872
    },
    {
      "id": 671468,
      "name": "Comuna Palanca",
      "nativeName": "Comuna Palanca",
      "code": "RO-BC-671468",
      "countryId": 798549,
      "countryCode": "RO",
      "stateCode": "RO-BC",
      "latitude": 46.50647,
      "longitude": 26.11239
    },
    {
      "id": 671351,
      "name": "Comuna Parava",
      "nativeName": "Comuna Parava",
      "code": "RO-BC-671351",
      "countryId": 798549,
      "countryCode": "RO",
      "stateCode": "RO-BC",
      "latitude": 46.30993,
      "longitude": 26.96787
    },
    {
      "id": 671335,
      "name": "Comuna Parincea",
      "nativeName": "Comuna Parincea",
      "code": "RO-BC-671335",
      "countryId": 798549,
      "countryCode": "RO",
      "stateCode": "RO-BC",
      "latitude": 46.47841,
      "longitude": 27.12877
    },
    {
      "id": 670471,
      "name": "Comuna Plopana",
      "nativeName": "Comuna Plopana",
      "code": "RO-BC-670471",
      "countryId": 798549,
      "countryCode": "RO",
      "stateCode": "RO-BC",
      "latitude": 46.66549,
      "longitude": 27.24403
    },
    {
      "id": 670256,
      "name": "Comuna Podu Turcului",
      "nativeName": "Comuna Podu Turcului",
      "code": "RO-BC-670256",
      "countryId": 798549,
      "countryCode": "RO",
      "stateCode": "RO-BC",
      "latitude": 46.19703,
      "longitude": 27.38796
    },
    {
      "id": 670271,
      "name": "Comuna Poduri",
      "nativeName": "Comuna Poduri",
      "code": "RO-BC-670271",
      "countryId": 798549,
      "countryCode": "RO",
      "stateCode": "RO-BC",
      "latitude": 46.47888,
      "longitude": 26.56593
    },
    {
      "id": 669724,
      "name": "Comuna Prăjeşti",
      "nativeName": "Comuna Prăjeşti",
      "code": "RO-BC-669724",
      "countryId": 798549,
      "countryCode": "RO",
      "stateCode": "RO-BC",
      "latitude": 46.65469,
      "longitude": 26.97631
    },
    {
      "id": 670767,
      "name": "Comuna Pârgăreşti",
      "nativeName": "Comuna Pârgăreşti",
      "code": "RO-BC-670767",
      "countryId": 798549,
      "countryCode": "RO",
      "stateCode": "RO-BC",
      "latitude": 46.24414,
      "longitude": 26.65017
    },
    {
      "id": 670705,
      "name": "Comuna Pârjol",
      "nativeName": "Comuna Pârjol",
      "code": "RO-BC-670705",
      "countryId": 798549,
      "countryCode": "RO",
      "stateCode": "RO-BC",
      "latitude": 46.59014,
      "longitude": 26.60903
    },
    {
      "id": 671400,
      "name": "Comuna Pănceşti",
      "nativeName": "Comuna Pănceşti",
      "code": "RO-BC-671400",
      "countryId": 798549,
      "countryCode": "RO",
      "stateCode": "RO-BC",
      "latitude": 46.36459,
      "longitude": 27.11377
    },
    {
      "id": 669332,
      "name": "Comuna Racova",
      "nativeName": "Comuna Racova",
      "code": "RO-BC-669332",
      "countryId": 798549,
      "countryCode": "RO",
      "stateCode": "RO-BC",
      "latitude": 46.6979,
      "longitude": 26.78097
    },
    {
      "id": 668609,
      "name": "Comuna Roşiori",
      "nativeName": "Comuna Roşiori",
      "code": "RO-BC-668609",
      "countryId": 798549,
      "countryCode": "RO",
      "stateCode": "RO-BC",
      "latitude": 46.7262,
      "longitude": 27.10446
    },
    {
      "id": 669363,
      "name": "Comuna Răchitoasa",
      "nativeName": "Comuna Răchitoasa",
      "code": "RO-BC-669363",
      "countryId": 798549,
      "countryCode": "RO",
      "stateCode": "RO-BC",
      "latitude": 46.44772,
      "longitude": 27.36875
    },
    {
      "id": 669407,
      "name": "Comuna Răcăciuni",
      "nativeName": "Comuna Răcăciuni",
      "code": "RO-BC-669407",
      "countryId": 798549,
      "countryCode": "RO",
      "stateCode": "RO-BC",
      "latitude": 46.35011,
      "longitude": 26.96705
    },
    {
      "id": 667916,
      "name": "Comuna Sascut",
      "nativeName": "Comuna Sascut",
      "code": "RO-BC-667916",
      "countryId": 798549,
      "countryCode": "RO",
      "stateCode": "RO-BC",
      "latitude": 46.19288,
      "longitude": 27.09163
    },
    {
      "id": 667584,
      "name": "Comuna Scorţeni",
      "nativeName": "Comuna Scorţeni",
      "code": "RO-BC-667584",
      "countryId": 798549,
      "countryCode": "RO",
      "stateCode": "RO-BC",
      "latitude": 46.58037,
      "longitude": 26.68543
    },
    {
      "id": 667464,
      "name": "Comuna Secuieni",
      "nativeName": "Comuna Secuieni",
      "code": "RO-BC-667464",
      "countryId": 798549,
      "countryCode": "RO",
      "stateCode": "RO-BC",
      "latitude": 46.65329,
      "longitude": 27.09674
    },
    {
      "id": 666482,
      "name": "Comuna Solonţ",
      "nativeName": "Comuna Solonţ",
      "code": "RO-BC-666482",
      "countryId": 798549,
      "countryCode": "RO",
      "stateCode": "RO-BC",
      "latitude": 46.56929,
      "longitude": 26.53863
    },
    {
      "id": 665920,
      "name": "Comuna Strugari",
      "nativeName": "Comuna Strugari",
      "code": "RO-BC-665920",
      "countryId": 798549,
      "countryCode": "RO",
      "stateCode": "RO-BC",
      "latitude": 46.52715,
      "longitude": 26.73578
    },
    {
      "id": 666283,
      "name": "Comuna Stănişeşti",
      "nativeName": "Comuna Stănişeşti",
      "code": "RO-BC-666283",
      "countryId": 798549,
      "countryCode": "RO",
      "stateCode": "RO-BC",
      "latitude": 46.4276,
      "longitude": 27.31055
    },
    {
      "id": 668103,
      "name": "Comuna Sănduleni",
      "nativeName": "Comuna Sănduleni",
      "code": "RO-BC-668103",
      "countryId": 798549,
      "countryCode": "RO",
      "stateCode": "RO-BC",
      "latitude": 46.45082,
      "longitude": 26.74185
    },
    {
      "id": 668039,
      "name": "Comuna Sărata",
      "nativeName": "Comuna Sărata",
      "code": "RO-BC-668039",
      "countryId": 798549,
      "countryCode": "RO",
      "stateCode": "RO-BC",
      "latitude": 46.49582,
      "longitude": 26.86916
    },
    {
      "id": 667777,
      "name": "Comuna Săuceşti",
      "nativeName": "Comuna Săuceşti",
      "code": "RO-BC-667777",
      "countryId": 798549,
      "countryCode": "RO",
      "stateCode": "RO-BC",
      "latitude": 46.65781,
      "longitude": 26.93368
    },
    {
      "id": 8334959,
      "name": "Comuna Tamaşi",
      "nativeName": "Comuna Tamaşi",
      "code": "RO-BC-8334959",
      "countryId": 798549,
      "countryCode": "RO",
      "stateCode": "RO-BC",
      "latitude": 46.48841,
      "longitude": 26.99549
    },
    {
      "id": 664667,
      "name": "Comuna Traian",
      "nativeName": "Comuna Traian",
      "code": "RO-BC-664667",
      "countryId": 798549,
      "countryCode": "RO",
      "stateCode": "RO-BC",
      "latitude": 46.64706,
      "longitude": 27.03533
    },
    {
      "id": 664990,
      "name": "Comuna Târgu Trotuş",
      "nativeName": "Comuna Târgu Trotuş",
      "code": "RO-BC-664990",
      "countryId": 798549,
      "countryCode": "RO",
      "stateCode": "RO-BC",
      "latitude": 46.26789,
      "longitude": 26.67587
    },
    {
      "id": 665449,
      "name": "Comuna Tătărăşti",
      "nativeName": "Comuna Tătărăşti",
      "code": "RO-BC-665449",
      "countryId": 798549,
      "countryCode": "RO",
      "stateCode": "RO-BC",
      "latitude": 46.22823,
      "longitude": 27.19631
    },
    {
      "id": 8334719,
      "name": "Comuna Ungureni",
      "nativeName": "Comuna Ungureni",
      "code": "RO-BC-8334719",
      "countryId": 798549,
      "countryCode": "RO",
      "stateCode": "RO-BC",
      "latitude": 46.54522,
      "longitude": 27.1068
    },
    {
      "id": 664167,
      "name": "Comuna Urecheşti",
      "nativeName": "Comuna Urecheşti",
      "code": "RO-BC-664167",
      "countryId": 798549,
      "countryCode": "RO",
      "stateCode": "RO-BC",
      "latitude": 46.12425,
      "longitude": 27.0707
    },
    {
      "id": 663412,
      "name": "Comuna Valea Seacă",
      "nativeName": "Comuna Valea Seacă",
      "code": "RO-BC-663412",
      "countryId": 798549,
      "countryCode": "RO",
      "stateCode": "RO-BC",
      "latitude": 46.24851,
      "longitude": 27.04535
    },
    {
      "id": 8334850,
      "name": "Comuna Vultureni",
      "nativeName": "Comuna Vultureni",
      "code": "RO-BC-8334850",
      "countryId": 798549,
      "countryCode": "RO",
      "stateCode": "RO-BC",
      "latitude": 46.41385,
      "longitude": 27.23668
    },
    {
      "id": 662224,
      "name": "Comuna Zemeş",
      "nativeName": "Comuna Zemeş",
      "code": "RO-BC-662224",
      "countryId": 798549,
      "countryCode": "RO",
      "stateCode": "RO-BC",
      "latitude": 46.59171,
      "longitude": 26.43381
    },
    {
      "id": 663413,
      "name": "Comuna Ştefan Cel Mare",
      "nativeName": "Comuna Ştefan Cel Mare",
      "code": "RO-BC-663413",
      "countryId": 798549,
      "countryCode": "RO",
      "stateCode": "RO-BC",
      "latitude": 46.20645,
      "longitude": 26.85488
    },
    {
      "id": 8306520,
      "name": "Municipiul Bacãu",
      "nativeName": "Municipiul Bacãu",
      "code": "RO-BC-8306520",
      "countryId": 798549,
      "countryCode": "RO",
      "stateCode": "RO-BC",
      "latitude": 46.56854,
      "longitude": 26.91135
    },
    {
      "id": 8306838,
      "name": "Municipiul Moineşti",
      "nativeName": "Municipiul Moineşti",
      "code": "RO-BC-8306838",
      "countryId": 798549,
      "countryCode": "RO",
      "stateCode": "RO-BC",
      "latitude": 46.47428,
      "longitude": 26.48804
    },
    {
      "id": 677464,
      "name": "Municipiul Oneşti",
      "nativeName": "Municipiul Oneşti",
      "code": "RO-BC-677464",
      "countryId": 798549,
      "countryCode": "RO",
      "stateCode": "RO-BC",
      "latitude": 46.25,
      "longitude": 26.75
    },
    {
      "id": 8306597,
      "name": "Oraş Buhuşi",
      "nativeName": "Oraş Buhuşi",
      "code": "RO-BC-8306597",
      "countryId": 798549,
      "countryCode": "RO",
      "stateCode": "RO-BC",
      "latitude": 46.71845,
      "longitude": 26.69952
    },
    {
      "id": 8306731,
      "name": "Oraş Comãneşti",
      "nativeName": "Oraş Comãneşti",
      "code": "RO-BC-8306731",
      "countryId": 798549,
      "countryCode": "RO",
      "stateCode": "RO-BC",
      "latitude": 46.42348,
      "longitude": 26.42796
    },
    {
      "id": 679719,
      "name": "Oraş Dãrmãneşti",
      "nativeName": "Oraş Dãrmãneşti",
      "code": "RO-BC-679719",
      "countryId": 798549,
      "countryCode": "RO",
      "stateCode": "RO-BC",
      "latitude": 46.37559,
      "longitude": 26.47673
    },
    {
      "id": 8306945,
      "name": "Oraş Slãnic-Moldova",
      "nativeName": "Oraş Slãnic-Moldova",
      "code": "RO-BC-8306945",
      "countryId": 798549,
      "countryCode": "RO",
      "stateCode": "RO-BC",
      "latitude": 46.2232,
      "longitude": 26.47774
    },
    {
      "id": 8307014,
      "name": "Oraş Târgu Ocna",
      "nativeName": "Oraş Târgu Ocna",
      "code": "RO-BC-8307014",
      "countryId": 798549,
      "countryCode": "RO",
      "stateCode": "RO-BC",
      "latitude": 46.27988,
      "longitude": 26.61129
    }
  ]
}