{
  "stateId": 680962,
  "stateCode": "RO-CT",
  "countryCode": "RO",
  "cities": [
    {
      "id": 679030,
      "name": "Comuna 23 August",
      "nativeName": "Comuna 23 August",
      "code": "RO-CT-679030",
      "countryId": 798549,
      "countryCode": "RO",
      "stateCode": "RO-CT",
      "latitude": 43.91938,
      "longitude": 28.55437
    },
    {
      "id": 686687,
      "name": "Comuna Adamclisi",
      "nativeName": "Comuna Adamclisi",
      "code": "RO-CT-686687",
      "countryId": 798549,
      "countryCode": "RO",
      "stateCode": "RO-CT",
      "latitude": 44.11447,
      "longitude": 27.9499
    },
    {
      "id": 686625,
      "name": "Comuna Agigea",
      "nativeName": "Comuna Agigea",
      "code": "RO-CT-686625",
      "countryId": 798549,
      "countryCode": "RO",
      "stateCode": "RO-CT",
      "latitude": 44.09654,
      "longitude": 28.62684
    },
    {
      "id": 686554,
      "name": "Comuna Albeşti",
      "nativeName": "Comuna Albeşti",
      "code": "RO-CT-686554",
      "countryId": 798549,
      "countryCode": "RO",
      "stateCode": "RO-CT",
      "latitude": 43.80863,
      "longitude": 28.40325
    },
    {
      "id": 686475,
      "name": "Comuna Aliman",
      "nativeName": "Comuna Aliman",
      "code": "RO-CT-686475",
      "countryId": 798549,
      "countryCode": "RO",
      "stateCode": "RO-CT",
      "latitude": 44.1843,
      "longitude": 27.83697
    },
    {
      "id": 8334892,
      "name": "Comuna Amzacea",
      "nativeName": "Comuna Amzacea",
      "code": "RO-CT-8334892",
      "countryId": 798549,
      "countryCode": "RO",
      "stateCode": "RO-CT",
      "latitude": 43.95983,
      "longitude": 28.32122
    },
    {
      "id": 685432,
      "name": "Comuna Bărăganu",
      "nativeName": "Comuna Bărăganu",
      "code": "RO-CT-685432",
      "countryId": 798549,
      "countryCode": "RO",
      "stateCode": "RO-CT",
      "latitude": 44.07931,
      "longitude": 28.39887
    },
    {
      "id": 682588,
      "name": "Comuna Castelu",
      "nativeName": "Comuna Castelu",
      "code": "RO-CT-682588",
      "countryId": 798549,
      "countryCode": "RO",
      "stateCode": "RO-CT",
      "latitude": 44.25846,
      "longitude": 28.36908
    },
    {
      "id": 682368,
      "name": "Comuna Cerchezu",
      "nativeName": "Comuna Cerchezu",
      "code": "RO-CT-682368",
      "countryId": 798549,
      "countryCode": "RO",
      "stateCode": "RO-CT",
      "latitude": 43.84984,
      "longitude": 28.08444
    },
    {
      "id": 682037,
      "name": "Comuna Chirnogeni",
      "nativeName": "Comuna Chirnogeni",
      "code": "RO-CT-682037",
      "countryId": 798549,
      "countryCode": "RO",
      "stateCode": "RO-CT",
      "latitude": 43.94216,
      "longitude": 28.22195
    },
    {
      "id": 681774,
      "name": "Comuna Ciobanu",
      "nativeName": "Comuna Ciobanu",
      "code": "RO-CT-681774",
      "countryId": 798549,
      "countryCode": "RO",
      "stateCode": "RO-CT",
      "latitude": 44.71771,
      "longitude": 27.98904
    },
    {
      "id": 681717,
      "name": "Comuna Ciocârlia",
      "nativeName": "Comuna Ciocârlia",
      "code": "RO-CT-681717",
      "countryId": 798549,
      "countryCode": "RO",
      "stateCode": "RO-CT",
      "latitude": 44.11098,
      "longitude": 28.31161
    },
    {
      "id": 681256,
      "name": "Comuna Cobadin",
      "nativeName": "Comuna Cobadin",
      "code": "RO-CT-681256",
      "countryId": 798549,
      "countryCode": "RO",
      "stateCode": "RO-CT",
      "latitude": 44.02574,
      "longitude": 28.16695
    },
    {
      "id": 681159,
      "name": "Comuna Cogealac",
      "nativeName": "Comuna Cogealac",
      "code": "RO-CT-681159",
      "countryId": 798549,
      "countryCode": "RO",
      "stateCode": "RO-CT",
      "latitude": 44.57661,
      "longitude": 28.52244
    },
    {
      "id": 681034,
      "name": "Comuna Comana",
      "nativeName": "Comuna Comana",
      "code": "RO-CT-681034",
      "countryId": 798549,
      "countryCode": "RO",
      "stateCode": "RO-CT",
      "latitude": 43.89963,
      "longitude": 28.35491
    },
    {
      "id": 680858,
      "name": "Comuna Corbu",
      "nativeName": "Comuna Corbu",
      "code": "RO-CT-680858",
      "countryId": 798549,
      "countryCode": "RO",
      "stateCode": "RO-CT",
      "latitude": 44.40319,
      "longitude": 28.67797
    },
    {
      "id": 8334814,
      "name": "Comuna Costineşti",
      "nativeName": "Comuna Costineşti",
      "code": "RO-CT-8334814",
      "countryId": 798549,
      "countryCode": "RO",
      "stateCode": "RO-CT",
      "latitude": 43.9478,
      "longitude": 28.63284
    },
    {
      "id": 680088,
      "name": "Comuna Crucea",
      "nativeName": "Comuna Crucea",
      "code": "RO-CT-680088",
      "countryId": 798549,
      "countryCode": "RO",
      "stateCode": "RO-CT",
      "latitude": 44.55046,
      "longitude": 28.20592
    },
    {
      "id": 679965,
      "name": "Comuna Cumpăna",
      "nativeName": "Comuna Cumpăna",
      "code": "RO-CT-679965",
      "countryId": 798549,
      "countryCode": "RO",
      "stateCode": "RO-CT",
      "latitude": 44.10747,
      "longitude": 28.51226
    },
    {
      "id": 8334991,
      "name": "Comuna Cuza Voda",
      "nativeName": "Comuna Cuza Voda",
      "code": "RO-CT-8334991",
      "countryId": 798549,
      "countryCode": "RO",
      "stateCode": "RO-CT",
      "latitude": 44.28773,
      "longitude": 28.31005
    },
    {
      "id": 679515,
      "name": "Comuna Deleni",
      "nativeName": "Comuna Deleni",
      "code": "RO-CT-679515",
      "countryId": 798549,
      "countryCode": "RO",
      "stateCode": "RO-CT",
      "latitude": 44.06175,
      "longitude": 28.02263
    },
    {
      "id": 678698,
      "name": "Comuna Dumbrăveni",
      "nativeName": "Comuna Dumbrăveni",
      "code": "RO-CT-678698",
      "countryId": 798549,
      "countryCode": "RO",
      "stateCode": "RO-CT",
      "latitude": 43.93127,
      "longitude": 27.99112
    },
    {
      "id": 678146,
      "name": "Comuna Fântânele",
      "nativeName": "Comuna Fântânele",
      "code": "RO-CT-678146",
      "countryId": 798549,
      "countryCode": "RO",
      "stateCode": "RO-CT",
      "latitude": 44.61278,
      "longitude": 28.57655
    },
    {
      "id": 677359,
      "name": "Comuna Ghindăreşti",
      "nativeName": "Comuna Ghindăreşti",
      "code": "RO-CT-677359",
      "countryId": 798549,
      "countryCode": "RO",
      "stateCode": "RO-CT",
      "latitude": 44.6352,
      "longitude": 28.03193
    },
    {
      "id": 676834,
      "name": "Comuna Grădina",
      "nativeName": "Comuna Grădina",
      "code": "RO-CT-676834",
      "countryId": 798549,
      "countryCode": "RO",
      "stateCode": "RO-CT",
      "latitude": 44.52298,
      "longitude": 28.44846
    },
    {
      "id": 677174,
      "name": "Comuna Gârliciu",
      "nativeName": "Comuna Gârliciu",
      "code": "RO-CT-677174",
      "countryId": 798549,
      "countryCode": "RO",
      "stateCode": "RO-CT",
      "latitude": 44.77933,
      "longitude": 28.09461
    },
    {
      "id": 676006,
      "name": "Comuna Horia",
      "nativeName": "Comuna Horia",
      "code": "RO-CT-676006",
      "countryId": 798549,
      "countryCode": "RO",
      "stateCode": "RO-CT",
      "latitude": 44.63551,
      "longitude": 28.12034
    },
    {
      "id": 675611,
      "name": "Comuna Independenţa",
      "nativeName": "Comuna Independenţa",
      "code": "RO-CT-675611",
      "countryId": 798549,
      "countryCode": "RO",
      "stateCode": "RO-CT",
      "latitude": 43.9602,
      "longitude": 28.0629
    },
    {
      "id": 675555,
      "name": "Comuna Ion Corvin",
      "nativeName": "Comuna Ion Corvin",
      "code": "RO-CT-675555",
      "countryId": 798549,
      "countryCode": "RO",
      "stateCode": "RO-CT",
      "latitude": 44.10717,
      "longitude": 27.80268
    },
    {
      "id": 675470,
      "name": "Comuna Istria",
      "nativeName": "Comuna Istria",
      "code": "RO-CT-675470",
      "countryId": 798549,
      "countryCode": "RO",
      "stateCode": "RO-CT",
      "latitude": 44.55487,
      "longitude": 28.68155
    },
    {
      "id": 674781,
      "name": "Comuna Limanu",
      "nativeName": "Comuna Limanu",
      "code": "RO-CT-674781",
      "countryId": 798549,
      "countryCode": "RO",
      "stateCode": "RO-CT",
      "latitude": 43.78024,
      "longitude": 28.53931
    },
    {
      "id": 674734,
      "name": "Comuna Lipniţa",
      "nativeName": "Comuna Lipniţa",
      "code": "RO-CT-674734",
      "countryId": 798549,
      "countryCode": "RO",
      "stateCode": "RO-CT",
      "latitude": 44.09073,
      "longitude": 27.56683
    },
    {
      "id": 8334751,
      "name": "Comuna Lumina",
      "nativeName": "Comuna Lumina",
      "code": "RO-CT-8334751",
      "countryId": 798549,
      "countryCode": "RO",
      "stateCode": "RO-CT",
      "latitude": 44.32756,
      "longitude": 28.54709
    },
    {
      "id": 673576,
      "name": "Comuna Mereni",
      "nativeName": "Comuna Mereni",
      "code": "RO-CT-673576",
      "countryId": 798549,
      "countryCode": "RO",
      "stateCode": "RO-CT",
      "latitude": 44.01545,
      "longitude": 28.33559
    },
    {
      "id": 673363,
      "name": "Comuna Mihai Viteazu",
      "nativeName": "Comuna Mihai Viteazu",
      "code": "RO-CT-673363",
      "countryId": 798549,
      "countryCode": "RO",
      "stateCode": "RO-CT",
      "latitude": 44.63727,
      "longitude": 28.7046
    },
    {
      "id": 673373,
      "name": "Comuna Mihail Kogălniceanu",
      "nativeName": "Comuna Mihail Kogălniceanu",
      "code": "RO-CT-673373",
      "countryId": 798549,
      "countryCode": "RO",
      "stateCode": "RO-CT",
      "latitude": 44.40479,
      "longitude": 28.51919
    },
    {
      "id": 673149,
      "name": "Comuna Mircea Vodă",
      "nativeName": "Comuna Mircea Vodă",
      "code": "RO-CT-673149",
      "countryId": 798549,
      "countryCode": "RO",
      "stateCode": "RO-CT",
      "latitude": 44.30137,
      "longitude": 28.18647
    },
    {
      "id": 672270,
      "name": "Comuna Nicolae Bălcescu",
      "nativeName": "Comuna Nicolae Bălcescu",
      "code": "RO-CT-672270",
      "countryId": 798549,
      "countryCode": "RO",
      "stateCode": "RO-CT",
      "latitude": 44.39829,
      "longitude": 28.35323
    },
    {
      "id": 671822,
      "name": "Comuna Oltina",
      "nativeName": "Comuna Oltina",
      "code": "RO-CT-671822",
      "countryId": 798549,
      "countryCode": "RO",
      "stateCode": "RO-CT",
      "latitude": 44.13879,
      "longitude": 27.64881
    },
    {
      "id": 671631,
      "name": "Comuna Ostrov",
      "nativeName": "Comuna Ostrov",
      "code": "RO-CT-671631",
      "countryId": 798549,
      "countryCode": "RO",
      "stateCode": "RO-CT",
      "latitude": 44.08152,
      "longitude": 27.42046
    },
    {
      "id": 671379,
      "name": "Comuna Pantelimon",
      "nativeName": "Comuna Pantelimon",
      "code": "RO-CT-671379",
      "countryId": 798549,
      "countryCode": "RO",
      "stateCode": "RO-CT",
      "latitude": 44.60047,
      "longitude": 28.36014
    },
    {
      "id": 671183,
      "name": "Comuna Pecineaga",
      "nativeName": "Comuna Pecineaga",
      "code": "RO-CT-671183",
      "countryId": 798549,
      "countryCode": "RO",
      "stateCode": "RO-CT",
      "latitude": 43.88676,
      "longitude": 28.51012
    },
    {
      "id": 671063,
      "name": "Comuna Peştera",
      "nativeName": "Comuna Peştera",
      "code": "RO-CT-671063",
      "countryId": 798549,
      "countryCode": "RO",
      "stateCode": "RO-CT",
      "latitude": 44.18951,
      "longitude": 28.10722
    },
    {
      "id": 670375,
      "name": "Comuna Poarta Albă",
      "nativeName": "Comuna Poarta Albă",
      "code": "RO-CT-670375",
      "countryId": 798549,
      "countryCode": "RO",
      "stateCode": "RO-CT",
      "latitude": 44.21622,
      "longitude": 28.41904
    },
    {
      "id": 669145,
      "name": "Comuna Rasova",
      "nativeName": "Comuna Rasova",
      "code": "RO-CT-669145",
      "countryId": 798549,
      "countryCode": "RO",
      "stateCode": "RO-CT",
      "latitude": 44.25918,
      "longitude": 27.96962
    },
    {
      "id": 668156,
      "name": "Comuna Saligny",
      "nativeName": "Comuna Saligny",
      "code": "RO-CT-668156",
      "countryId": 798549,
      "countryCode": "RO",
      "stateCode": "RO-CT",
      "latitude": 44.28318,
      "longitude": 28.08929
    },
    {
      "id": 668061,
      "name": "Comuna Saraiu",
      "nativeName": "Comuna Saraiu",
      "code": "RO-CT-668061",
      "countryId": 798549,
      "countryCode": "RO",
      "stateCode": "RO-CT",
      "latitude": 44.71747,
      "longitude": 28.14732
    },
    {
      "id": 667440,
      "name": "Comuna Seimeni",
      "nativeName": "Comuna Seimeni",
      "code": "RO-CT-667440",
      "countryId": 798549,
      "countryCode": "RO",
      "stateCode": "RO-CT",
      "latitude": 44.40184,
      "longitude": 28.08756
    },
    {
      "id": 667176,
      "name": "Comuna Siliştea",
      "nativeName": "Comuna Siliştea",
      "code": "RO-CT-667176",
      "countryId": 798549,
      "countryCode": "RO",
      "stateCode": "RO-CT",
      "latitude": 44.42359,
      "longitude": 28.20967
    },
    {
      "id": 668313,
      "name": "Comuna Săcele",
      "nativeName": "Comuna Săcele",
      "code": "RO-CT-668313",
      "countryId": 798549,
      "countryCode": "RO",
      "stateCode": "RO-CT",
      "latitude": 44.48866,
      "longitude": 28.66382
    },
    {
      "id": 664773,
      "name": "Comuna Topalu",
      "nativeName": "Comuna Topalu",
      "code": "RO-CT-664773",
      "countryId": 798549,
      "countryCode": "RO",
      "stateCode": "RO-CT",
      "latitude": 44.52116,
      "longitude": 28.07081
    },
    {
      "id": 664721,
      "name": "Comuna Topraisar",
      "nativeName": "Comuna Topraisar",
      "code": "RO-CT-664721",
      "countryId": 798549,
      "countryCode": "RO",
      "stateCode": "RO-CT",
      "latitude": 44.03126,
      "longitude": 28.48845
    },
    {
      "id": 664707,
      "name": "Comuna Tortoman",
      "nativeName": "Comuna Tortoman",
      "code": "RO-CT-664707",
      "countryId": 798549,
      "countryCode": "RO",
      "stateCode": "RO-CT",
      "latitude": 44.34569,
      "longitude": 28.26562
    },
    {
      "id": 664395,
      "name": "Comuna Tuzla",
      "nativeName": "Comuna Tuzla",
      "code": "RO-CT-664395",
      "countryId": 798549,
      "countryCode": "RO",
      "stateCode": "RO-CT",
      "latitude": 44.00158,
      "longitude": 28.63874
    },
    {
      "id": 664994,
      "name": "Comuna Târguşor",
      "nativeName": "Comuna Târguşor",
      "code": "RO-CT-664994",
      "countryId": 798549,
      "countryCode": "RO",
      "stateCode": "RO-CT",
      "latitude": 44.47713,
      "longitude": 28.38821
    },
    {
      "id": 663233,
      "name": "Comuna Valu lui Traian",
      "nativeName": "Comuna Valu lui Traian",
      "code": "RO-CT-663233",
      "countryId": 798549,
      "countryCode": "RO",
      "stateCode": "RO-CT",
      "latitude": 44.16386,
      "longitude": 28.46526
    },
    {
      "id": 662385,
      "name": "Comuna Vulturu",
      "nativeName": "Comuna Vulturu",
      "code": "RO-CT-662385",
      "countryId": 798549,
      "countryCode": "RO",
      "stateCode": "RO-CT",
      "latitude": 44.64806,
      "longitude": 28.27294
    },
    {
      "id": 679216,
      "name": "Comună Dobromir",
      "nativeName": "Comună Dobromir",
      "code": "RO-CT-679216",
      "countryId": 798549,
      "countryCode": "RO",
      "stateCode": "RO-CT",
      "latitude": 44.01813,
      "longitude": 27.83888
    },
    {
      "id": 8334667,
      "name": "Municipiul Constanţa",
      "nativeName": "Municipiul Constanţa",
      "code": "RO-CT-8334667",
      "countryId": 798549,
      "countryCode": "RO",
      "stateCode": "RO-CT",
      "latitude": 44.21414,
      "longitude": 28.61862
    },
    {
      "id": 8334941,
      "name": "Municipiul Mangalia",
      "nativeName": "Municipiul Mangalia",
      "code": "RO-CT-8334941",
      "countryId": 798549,
      "countryCode": "RO",
      "stateCode": "RO-CT",
      "latitude": 43.85085,
      "longitude": 28.5978
    },
    {
      "id": 8334740,
      "name": "Municipiul Medgidia",
      "nativeName": "Municipiul Medgidia",
      "code": "RO-CT-8334740",
      "countryId": 798549,
      "countryCode": "RO",
      "stateCode": "RO-CT",
      "latitude": 44.22795,
      "longitude": 28.26801
    },
    {
      "id": 685471,
      "name": "Oraş Bãneasa",
      "nativeName": "Oraş Bãneasa",
      "code": "RO-CT-685471",
      "countryId": 798549,
      "countryCode": "RO",
      "stateCode": "RO-CT",
      "latitude": 44.05008,
      "longitude": 27.7143
    },
    {
      "id": 8334733,
      "name": "Oraş Cernavodã",
      "nativeName": "Oraş Cernavodã",
      "code": "RO-CT-8334733",
      "countryId": 798549,
      "countryCode": "RO",
      "stateCode": "RO-CT",
      "latitude": 44.34331,
      "longitude": 28.03694
    },
    {
      "id": 8334674,
      "name": "Oraş Eforie",
      "nativeName": "Oraş Eforie",
      "code": "RO-CT-8334674",
      "countryId": 798549,
      "countryCode": "RO",
      "stateCode": "RO-CT",
      "latitude": 44.04431,
      "longitude": 28.64529
    },
    {
      "id": 8334909,
      "name": "Oraş Hârşova",
      "nativeName": "Oraş Hârşova",
      "code": "RO-CT-8334909",
      "countryId": 798549,
      "countryCode": "RO",
      "stateCode": "RO-CT",
      "latitude": 44.68721,
      "longitude": 27.94785
    },
    {
      "id": 8334675,
      "name": "Oraş Murfatlar",
      "nativeName": "Oraş Murfatlar",
      "code": "RO-CT-8334675",
      "countryId": 798549,
      "countryCode": "RO",
      "stateCode": "RO-CT",
      "latitude": 44.1709,
      "longitude": 28.38185
    },
    {
      "id": 672342,
      "name": "Oraş Negru Vodã",
      "nativeName": "Oraş Negru Vodã",
      "code": "RO-CT-672342",
      "countryId": 798549,
      "countryCode": "RO",
      "stateCode": "RO-CT",
      "latitude": 43.79534,
      "longitude": 28.28041
    },
    {
      "id": 672485,
      "name": "Oraş Nãvodari",
      "nativeName": "Oraş Nãvodari",
      "code": "RO-CT-672485",
      "countryId": 798549,
      "countryCode": "RO",
      "stateCode": "RO-CT",
      "latitude": 44.30511,
      "longitude": 28.61407
    },
    {
      "id": 671583,
      "name": "Oraş Ovidiu",
      "nativeName": "Oraş Ovidiu",
      "code": "RO-CT-671583",
      "countryId": 798549,
      "countryCode": "RO",
      "stateCode": "RO-CT",
      "latitude": 44.23828,
      "longitude": 28.5321
    },
    {
      "id": 8334676,
      "name": "Oraş Techirghiol",
      "nativeName": "Oraş Techirghiol",
      "code": "RO-CT-8334676",
      "countryId": 798549,
      "countryCode": "RO",
      "stateCode": "RO-CT",
      "latitude": 44.05497,
      "longitude": 28.59539
    }
  ]
}