{
  "stateId": 676309,
  "stateCode": "RO-HR",
  "countryCode": "RO",
  "cities": [
    {
      "id": 686058,
      "name": "Comuna Atid",
      "nativeName": "Comuna Atid",
      "code": "RO-HR-686058",
      "countryId": 798549,
      "countryCode": "RO",
      "stateCode": "RO-HR",
      "latitude": 46.45844,
      "longitude": 25.04357
    },
    {
      "id": 686019,
      "name": "Comuna Avrămeşti",
      "nativeName": "Comuna Avrămeşti",
      "code": "RO-HR-686019",
      "countryId": 798549,
      "countryCode": "RO",
      "stateCode": "RO-HR",
      "latitude": 46.364,
      "longitude": 25.03223
    },
    {
      "id": 684869,
      "name": "Comuna Bilbor",
      "nativeName": "Comuna Bilbor",
      "code": "RO-HR-684869",
      "countryId": 798549,
      "countryCode": "RO",
      "stateCode": "RO-HR",
      "latitude": 47.05615,
      "longitude": 25.49989
    },
    {
      "id": 683957,
      "name": "Comuna Brădeşti",
      "nativeName": "Comuna Brădeşti",
      "code": "RO-HR-683957",
      "countryId": 798549,
      "countryCode": "RO",
      "stateCode": "RO-HR",
      "latitude": 46.35788,
      "longitude": 25.35195
    },
    {
      "id": 8334691,
      "name": "Comuna Ciceu",
      "nativeName": "Comuna Ciceu",
      "code": "RO-HR-8334691",
      "countryId": 798549,
      "countryCode": "RO",
      "stateCode": "RO-HR",
      "latitude": 46.41271,
      "longitude": 25.76585
    },
    {
      "id": 681479,
      "name": "Comuna Ciucsângeorgiu",
      "nativeName": "Comuna Ciucsângeorgiu",
      "code": "RO-HR-681479",
      "countryId": 798549,
      "countryCode": "RO",
      "stateCode": "RO-HR",
      "latitude": 46.33942,
      "longitude": 25.9986
    },
    {
      "id": 681435,
      "name": "Comuna Ciumani",
      "nativeName": "Comuna Ciumani",
      "code": "RO-HR-681435",
      "countryId": 798549,
      "countryCode": "RO",
      "stateCode": "RO-HR",
      "latitude": 46.67821,
      "longitude": 25.51825
    },
    {
      "id": 680854,
      "name": "Comuna Corbu",
      "nativeName": "Comuna Corbu",
      "code": "RO-HR-680854",
      "countryId": 798549,
      "countryCode": "RO",
      "stateCode": "RO-HR",
      "latitude": 46.99559,
      "longitude": 25.65696
    },
    {
      "id": 680670,
      "name": "Comuna Corund",
      "nativeName": "Comuna Corund",
      "code": "RO-HR-680670",
      "countryId": 798549,
      "countryCode": "RO",
      "stateCode": "RO-HR",
      "latitude": 46.4806,
      "longitude": 25.2007
    },
    {
      "id": 680394,
      "name": "Comuna Cozmeni",
      "nativeName": "Comuna Cozmeni",
      "code": "RO-HR-680394",
      "countryId": 798549,
      "countryCode": "RO",
      "stateCode": "RO-HR",
      "latitude": 46.20934,
      "longitude": 25.94274
    },
    {
      "id": 681521,
      "name": "Comuna Cârţa",
      "nativeName": "Comuna Cârţa",
      "code": "RO-HR-681521",
      "countryId": 798549,
      "countryCode": "RO",
      "stateCode": "RO-HR",
      "latitude": 46.54068,
      "longitude": 25.76275
    },
    {
      "id": 682804,
      "name": "Comuna Căpâlniţa",
      "nativeName": "Comuna Căpâlniţa",
      "code": "RO-HR-682804",
      "countryId": 798549,
      "countryCode": "RO",
      "stateCode": "RO-HR",
      "latitude": 46.36047,
      "longitude": 25.51515
    },
    {
      "id": 679683,
      "name": "Comuna Dealu",
      "nativeName": "Comuna Dealu",
      "code": "RO-HR-679683",
      "countryId": 798549,
      "countryCode": "RO",
      "stateCode": "RO-HR",
      "latitude": 46.3707,
      "longitude": 25.30599
    },
    {
      "id": 679308,
      "name": "Comuna Ditrău",
      "nativeName": "Comuna Ditrău",
      "code": "RO-HR-679308",
      "countryId": 798549,
      "countryCode": "RO",
      "stateCode": "RO-HR",
      "latitude": 46.84564,
      "longitude": 25.5274
    },
    {
      "id": 679327,
      "name": "Comuna Dârjiu",
      "nativeName": "Comuna Dârjiu",
      "code": "RO-HR-679327",
      "countryId": 798549,
      "countryCode": "RO",
      "stateCode": "RO-HR",
      "latitude": 46.20378,
      "longitude": 25.17462
    },
    {
      "id": 679752,
      "name": "Comuna Dăneşti",
      "nativeName": "Comuna Dăneşti",
      "code": "RO-HR-679752",
      "countryId": 798549,
      "countryCode": "RO",
      "stateCode": "RO-HR",
      "latitude": 46.51712,
      "longitude": 25.74989
    },
    {
      "id": 678351,
      "name": "Comuna Feliceni",
      "nativeName": "Comuna Feliceni",
      "code": "RO-HR-678351",
      "countryId": 798549,
      "countryCode": "RO",
      "stateCode": "RO-HR",
      "latitude": 46.27909,
      "longitude": 25.2743
    },
    {
      "id": 677885,
      "name": "Comuna Frumoasa",
      "nativeName": "Comuna Frumoasa",
      "code": "RO-HR-677885",
      "countryId": 798549,
      "countryCode": "RO",
      "stateCode": "RO-HR",
      "latitude": 46.44683,
      "longitude": 25.86759
    },
    {
      "id": 677685,
      "name": "Comuna Gălăuţaş",
      "nativeName": "Comuna Gălăuţaş",
      "code": "RO-HR-677685",
      "countryId": 798549,
      "countryCode": "RO",
      "stateCode": "RO-HR",
      "latitude": 46.90028,
      "longitude": 25.39118
    },
    {
      "id": 675169,
      "name": "Comuna Joseni",
      "nativeName": "Comuna Joseni",
      "code": "RO-HR-675169",
      "countryId": 798549,
      "countryCode": "RO",
      "stateCode": "RO-HR",
      "latitude": 46.69525,
      "longitude": 25.46114
    },
    {
      "id": 674899,
      "name": "Comuna Leliceni",
      "nativeName": "Comuna Leliceni",
      "code": "RO-HR-674899",
      "countryId": 798549,
      "countryCode": "RO",
      "stateCode": "RO-HR",
      "latitude": 46.349,
      "longitude": 25.84911
    },
    {
      "id": 674535,
      "name": "Comuna Lueta",
      "nativeName": "Comuna Lueta",
      "code": "RO-HR-674535",
      "countryId": 798549,
      "countryCode": "RO",
      "stateCode": "RO-HR",
      "latitude": 46.28724,
      "longitude": 25.53719
    },
    {
      "id": 674416,
      "name": "Comuna Lunca de Jos",
      "nativeName": "Comuna Lunca de Jos",
      "code": "RO-HR-674416",
      "countryId": 798549,
      "countryCode": "RO",
      "stateCode": "RO-HR",
      "latitude": 46.59868,
      "longitude": 25.96582
    },
    {
      "id": 674412,
      "name": "Comuna Lunca de Sus",
      "nativeName": "Comuna Lunca de Sus",
      "code": "RO-HR-674412",
      "countryId": 798549,
      "countryCode": "RO",
      "stateCode": "RO-HR",
      "latitude": 46.51853,
      "longitude": 25.95575
    },
    {
      "id": 674293,
      "name": "Comuna Lupeni",
      "nativeName": "Comuna Lupeni",
      "code": "RO-HR-674293",
      "countryId": 798549,
      "countryCode": "RO",
      "stateCode": "RO-HR",
      "latitude": 46.39565,
      "longitude": 25.21905
    },
    {
      "id": 674973,
      "name": "Comuna Lăzarea",
      "nativeName": "Comuna Lăzarea",
      "code": "RO-HR-674973",
      "countryId": 798549,
      "countryCode": "RO",
      "stateCode": "RO-HR",
      "latitude": 46.76626,
      "longitude": 25.53875
    },
    {
      "id": 673569,
      "name": "Comuna Mereşti",
      "nativeName": "Comuna Mereşti",
      "code": "RO-HR-673569",
      "countryId": 798549,
      "countryCode": "RO",
      "stateCode": "RO-HR",
      "latitude": 46.23458,
      "longitude": 25.46099
    },
    {
      "id": 673389,
      "name": "Comuna Mihăileni",
      "nativeName": "Comuna Mihăileni",
      "code": "RO-HR-673389",
      "countryId": 798549,
      "countryCode": "RO",
      "stateCode": "RO-HR",
      "latitude": 46.48874,
      "longitude": 25.83027
    },
    {
      "id": 672699,
      "name": "Comuna Mugeni",
      "nativeName": "Comuna Mugeni",
      "code": "RO-HR-672699",
      "countryId": 798549,
      "countryCode": "RO",
      "stateCode": "RO-HR",
      "latitude": 46.26544,
      "longitude": 25.19498
    },
    {
      "id": 674212,
      "name": "Comuna Mădăraş",
      "nativeName": "Comuna Mădăraş",
      "code": "RO-HR-674212",
      "countryId": 798549,
      "countryCode": "RO",
      "stateCode": "RO-HR",
      "latitude": 46.49472,
      "longitude": 25.7475
    },
    {
      "id": 673730,
      "name": "Comuna Mărtiniş",
      "nativeName": "Comuna Mărtiniş",
      "code": "RO-HR-673730",
      "countryId": 798549,
      "countryCode": "RO",
      "stateCode": "RO-HR",
      "latitude": 46.22996,
      "longitude": 25.38756
    },
    {
      "id": 672030,
      "name": "Comuna Ocland",
      "nativeName": "Comuna Ocland",
      "code": "RO-HR-672030",
      "countryId": 798549,
      "countryCode": "RO",
      "stateCode": "RO-HR",
      "latitude": 46.16242,
      "longitude": 25.42557
    },
    {
      "id": 8334988,
      "name": "Comuna Plãieşii De Jos",
      "nativeName": "Comuna Plãieşii De Jos",
      "code": "RO-HR-8334988",
      "countryId": 798549,
      "countryCode": "RO",
      "stateCode": "RO-HR",
      "latitude": 46.21626,
      "longitude": 26.09436
    },
    {
      "id": 669813,
      "name": "Comuna Porumbeni",
      "nativeName": "Comuna Porumbeni",
      "code": "RO-HR-669813",
      "countryId": 798549,
      "countryCode": "RO",
      "stateCode": "RO-HR",
      "latitude": 46.27415,
      "longitude": 25.12006
    },
    {
      "id": 669734,
      "name": "Comuna Praid",
      "nativeName": "Comuna Praid",
      "code": "RO-HR-669734",
      "countryId": 798549,
      "countryCode": "RO",
      "stateCode": "RO-HR",
      "latitude": 46.54844,
      "longitude": 25.14717
    },
    {
      "id": 8334952,
      "name": "Comuna Pãuleni-Ciuc",
      "nativeName": "Comuna Pãuleni-Ciuc",
      "code": "RO-HR-8334952",
      "countryId": 798549,
      "countryCode": "RO",
      "stateCode": "RO-HR",
      "latitude": 46.40073,
      "longitude": 25.84076
    },
    {
      "id": 669300,
      "name": "Comuna Racu",
      "nativeName": "Comuna Racu",
      "code": "RO-HR-669300",
      "countryId": 798549,
      "countryCode": "RO",
      "stateCode": "RO-HR",
      "latitude": 46.45397,
      "longitude": 25.77098
    },
    {
      "id": 668984,
      "name": "Comuna Remetea",
      "nativeName": "Comuna Remetea",
      "code": "RO-HR-668984",
      "countryId": 798549,
      "countryCode": "RO",
      "stateCode": "RO-HR",
      "latitude": 46.81908,
      "longitude": 25.42286
    },
    {
      "id": 667871,
      "name": "Comuna Satu Mare",
      "nativeName": "Comuna Satu Mare",
      "code": "RO-HR-667871",
      "countryId": 798549,
      "countryCode": "RO",
      "stateCode": "RO-HR",
      "latitude": 46.34082,
      "longitude": 25.38378
    },
    {
      "id": 8334682,
      "name": "Comuna Secuieni",
      "nativeName": "Comuna Secuieni",
      "code": "RO-HR-8334682",
      "countryId": 798549,
      "countryCode": "RO",
      "stateCode": "RO-HR",
      "latitude": 46.27623,
      "longitude": 24.96946
    },
    {
      "id": 8334845,
      "name": "Comuna Siculeni",
      "nativeName": "Comuna Siculeni",
      "code": "RO-HR-8334845",
      "countryId": 798549,
      "countryCode": "RO",
      "stateCode": "RO-HR",
      "latitude": 46.43537,
      "longitude": 25.75409
    },
    {
      "id": 667093,
      "name": "Comuna Simoneşti",
      "nativeName": "Comuna Simoneşti",
      "code": "RO-HR-667093",
      "countryId": 798549,
      "countryCode": "RO",
      "stateCode": "RO-HR",
      "latitude": 46.35466,
      "longitude": 25.11325
    },
    {
      "id": 665872,
      "name": "Comuna Subcetate",
      "nativeName": "Comuna Subcetate",
      "code": "RO-HR-665872",
      "countryId": 798549,
      "countryCode": "RO",
      "stateCode": "RO-HR",
      "latitude": 46.85645,
      "longitude": 25.40652
    },
    {
      "id": 665684,
      "name": "Comuna Suseni",
      "nativeName": "Comuna Suseni",
      "code": "RO-HR-665684",
      "countryId": 798549,
      "countryCode": "RO",
      "stateCode": "RO-HR",
      "latitude": 46.6435,
      "longitude": 25.56479
    },
    {
      "id": 667068,
      "name": "Comuna Sâncrăieni",
      "nativeName": "Comuna Sâncrăieni",
      "code": "RO-HR-667068",
      "countryId": 798549,
      "countryCode": "RO",
      "stateCode": "RO-HR",
      "latitude": 46.30575,
      "longitude": 25.8459
    },
    {
      "id": 667054,
      "name": "Comuna Sândominic",
      "nativeName": "Comuna Sândominic",
      "code": "RO-HR-667054",
      "countryId": 798549,
      "countryCode": "RO",
      "stateCode": "RO-HR",
      "latitude": 46.57933,
      "longitude": 25.79305
    },
    {
      "id": 667003,
      "name": "Comuna Sânmartin",
      "nativeName": "Comuna Sânmartin",
      "code": "RO-HR-667003",
      "countryId": 798549,
      "countryCode": "RO",
      "stateCode": "RO-HR",
      "latitude": 46.26368,
      "longitude": 25.95348
    },
    {
      "id": 666944,
      "name": "Comuna Sânsimion",
      "nativeName": "Comuna Sânsimion",
      "code": "RO-HR-666944",
      "countryId": 798549,
      "countryCode": "RO",
      "stateCode": "RO-HR",
      "latitude": 46.25015,
      "longitude": 25.89196
    },
    {
      "id": 666905,
      "name": "Comuna Sântimbru",
      "nativeName": "Comuna Sântimbru",
      "code": "RO-HR-666905",
      "countryId": 798549,
      "countryCode": "RO",
      "stateCode": "RO-HR",
      "latitude": 46.27664,
      "longitude": 25.81054
    },
    {
      "id": 668318,
      "name": "Comuna Săcel",
      "nativeName": "Comuna Săcel",
      "code": "RO-HR-668318",
      "countryId": 798549,
      "countryCode": "RO",
      "stateCode": "RO-HR",
      "latitude": 46.32872,
      "longitude": 24.91795
    },
    {
      "id": 667971,
      "name": "Comuna Sărmaş",
      "nativeName": "Comuna Sărmaş",
      "code": "RO-HR-667971",
      "countryId": 798549,
      "countryCode": "RO",
      "stateCode": "RO-HR",
      "latitude": 46.8868,
      "longitude": 25.44289
    },
    {
      "id": 664816,
      "name": "Comuna Tomeşti",
      "nativeName": "Comuna Tomeşti",
      "code": "RO-HR-664816",
      "countryId": 798549,
      "countryCode": "RO",
      "stateCode": "RO-HR",
      "latitude": 46.55617,
      "longitude": 25.77922
    },
    {
      "id": 664510,
      "name": "Comuna Tulgheş",
      "nativeName": "Comuna Tulgheş",
      "code": "RO-HR-664510",
      "countryId": 798549,
      "countryCode": "RO",
      "stateCode": "RO-HR",
      "latitude": 46.92544,
      "longitude": 25.75328
    },
    {
      "id": 664418,
      "name": "Comuna Tuşnad",
      "nativeName": "Comuna Tuşnad",
      "code": "RO-HR-664418",
      "countryId": 798549,
      "countryCode": "RO",
      "stateCode": "RO-HR",
      "latitude": 46.20745,
      "longitude": 25.90305
    },
    {
      "id": 664330,
      "name": "Comuna Ulieş",
      "nativeName": "Comuna Ulieş",
      "code": "RO-HR-664330",
      "countryId": 798549,
      "countryCode": "RO",
      "stateCode": "RO-HR",
      "latitude": 46.21153,
      "longitude": 25.27048
    },
    {
      "id": 662454,
      "name": "Comuna Voşlãbeni",
      "nativeName": "Comuna Voşlãbeni",
      "code": "RO-HR-662454",
      "countryId": 798549,
      "countryCode": "RO",
      "stateCode": "RO-HR",
      "latitude": 46.63582,
      "longitude": 25.65282
    },
    {
      "id": 663157,
      "name": "Comuna Vărşag",
      "nativeName": "Comuna Vărşag",
      "code": "RO-HR-663157",
      "countryId": 798549,
      "countryCode": "RO",
      "stateCode": "RO-HR",
      "latitude": 46.53155,
      "longitude": 25.339
    },
    {
      "id": 662216,
      "name": "Comuna Zetea",
      "nativeName": "Comuna Zetea",
      "code": "RO-HR-662216",
      "countryId": 798549,
      "countryCode": "RO",
      "stateCode": "RO-HR",
      "latitude": 46.46047,
      "longitude": 25.42823
    },
    {
      "id": 8334992,
      "name": "Municipiul  Topliţa",
      "nativeName": "Municipiul  Topliţa",
      "code": "RO-HR-8334992",
      "countryId": 798549,
      "countryCode": "RO",
      "stateCode": "RO-HR",
      "latitude": 46.93701,
      "longitude": 25.36052
    },
    {
      "id": 8334611,
      "name": "Municipiul Gheorgheni",
      "nativeName": "Municipiul Gheorgheni",
      "code": "RO-HR-8334611",
      "countryId": 798549,
      "countryCode": "RO",
      "stateCode": "RO-HR",
      "latitude": 46.72268,
      "longitude": 25.59917
    },
    {
      "id": 8334612,
      "name": "Municipiul Miercurea Ciuc",
      "nativeName": "Municipiul Miercurea Ciuc",
      "code": "RO-HR-8334612",
      "countryId": 798549,
      "countryCode": "RO",
      "stateCode": "RO-HR",
      "latitude": 46.36091,
      "longitude": 25.79985
    },
    {
      "id": 8334721,
      "name": "Municipiul Odorheiu Secuiesc",
      "nativeName": "Municipiul Odorheiu Secuiesc",
      "code": "RO-HR-8334721",
      "countryId": 798549,
      "countryCode": "RO",
      "stateCode": "RO-HR",
      "latitude": 46.30646,
      "longitude": 25.29551
    },
    {
      "id": 8334764,
      "name": "Oraş Borsec",
      "nativeName": "Oraş Borsec",
      "code": "RO-HR-8334764",
      "countryId": 798549,
      "countryCode": "RO",
      "stateCode": "RO-HR",
      "latitude": 46.96551,
      "longitude": 25.56173
    },
    {
      "id": 8334705,
      "name": "Oraş Bãile Tuşnad",
      "nativeName": "Oraş Bãile Tuşnad",
      "code": "RO-HR-8334705",
      "countryId": 798549,
      "countryCode": "RO",
      "stateCode": "RO-HR",
      "latitude": 46.14707,
      "longitude": 25.86013
    },
    {
      "id": 8334910,
      "name": "Oraş Bãlan",
      "nativeName": "Oraş Bãlan",
      "code": "RO-HR-8334910",
      "countryId": 798549,
      "countryCode": "RO",
      "stateCode": "RO-HR",
      "latitude": 46.6574,
      "longitude": 25.80554
    },
    {
      "id": 8334922,
      "name": "Oraş Cristuru Secuiesc",
      "nativeName": "Oraş Cristuru Secuiesc",
      "code": "RO-HR-8334922",
      "countryId": 798549,
      "countryCode": "RO",
      "stateCode": "RO-HR",
      "latitude": 46.2839,
      "longitude": 25.04583
    },
    {
      "id": 662569,
      "name": "Oraş Vlãhiţa",
      "nativeName": "Oraş Vlãhiţa",
      "code": "RO-HR-662569",
      "countryId": 798549,
      "countryCode": "RO",
      "stateCode": "RO-HR",
      "latitude": 46.37412,
      "longitude": 25.57625
    }
  ]
}