{
  "stateId": 667267,
  "stateCode": "RO-SB",
  "countryCode": "RO",
  "cities": [
    {
      "id": 686467,
      "name": "Comuna Alma",
      "nativeName": "Comuna Alma",
      "code": "RO-SB-686467",
      "countryId": 798549,
      "countryCode": "RO",
      "stateCode": "RO-SB",
      "latitude": 46.22726,
      "longitude": 24.46825
    },
    {
      "id": 686430,
      "name": "Comuna Alțâna",
      "nativeName": "Comuna Alțâna",
      "code": "RO-SB-686430",
      "countryId": 798549,
      "countryCode": "RO",
      "stateCode": "RO-SB",
      "latitude": 45.95534,
      "longitude": 24.46144
    },
    {
      "id": 686269,
      "name": "Comuna Apoldu de Jos",
      "nativeName": "Comuna Apoldu de Jos",
      "code": "RO-SB-686269",
      "countryId": 798549,
      "countryCode": "RO",
      "stateCode": "RO-SB",
      "latitude": 45.89598,
      "longitude": 23.85036
    },
    {
      "id": 686125,
      "name": "Comuna Arpaşu de Jos",
      "nativeName": "Comuna Arpaşu de Jos",
      "code": "RO-SB-686125",
      "countryId": 798549,
      "countryCode": "RO",
      "stateCode": "RO-SB",
      "latitude": 45.77314,
      "longitude": 24.6087
    },
    {
      "id": 686007,
      "name": "Comuna Axente Sever",
      "nativeName": "Comuna Axente Sever",
      "code": "RO-SB-686007",
      "countryId": 798549,
      "countryCode": "RO",
      "stateCode": "RO-SB",
      "latitude": 46.07315,
      "longitude": 24.22535
    },
    {
      "id": 686064,
      "name": "Comuna Aţel",
      "nativeName": "Comuna Aţel",
      "code": "RO-SB-686064",
      "countryId": 798549,
      "countryCode": "RO",
      "stateCode": "RO-SB",
      "latitude": 46.15465,
      "longitude": 24.48297
    },
    {
      "id": 685232,
      "name": "Comuna Bazna",
      "nativeName": "Comuna Bazna",
      "code": "RO-SB-685232",
      "countryId": 798549,
      "countryCode": "RO",
      "stateCode": "RO-SB",
      "latitude": 46.21384,
      "longitude": 24.26438
    },
    {
      "id": 684886,
      "name": "Comuna Biertan",
      "nativeName": "Comuna Biertan",
      "code": "RO-SB-684886",
      "countryId": 798549,
      "countryCode": "RO",
      "stateCode": "RO-SB",
      "latitude": 46.12456,
      "longitude": 24.51945
    },
    {
      "id": 684607,
      "name": "Comuna Blăjel",
      "nativeName": "Comuna Blăjel",
      "code": "RO-SB-684607",
      "countryId": 798549,
      "countryCode": "RO",
      "stateCode": "RO-SB",
      "latitude": 46.22436,
      "longitude": 24.34108
    },
    {
      "id": 8334778,
      "name": "Comuna Boiţa",
      "nativeName": "Comuna Boiţa",
      "code": "RO-SB-8334778",
      "countryId": 798549,
      "countryCode": "RO",
      "stateCode": "RO-SB",
      "latitude": 45.57905,
      "longitude": 24.24651
    },
    {
      "id": 683831,
      "name": "Comuna Brateiu",
      "nativeName": "Comuna Brateiu",
      "code": "RO-SB-683831",
      "countryId": 798549,
      "countryCode": "RO",
      "stateCode": "RO-SB",
      "latitude": 46.15361,
      "longitude": 24.42007
    },
    {
      "id": 683620,
      "name": "Comuna Bruiu",
      "nativeName": "Comuna Bruiu",
      "code": "RO-SB-683620",
      "countryId": 798549,
      "countryCode": "RO",
      "stateCode": "RO-SB",
      "latitude": 45.8635,
      "longitude": 24.70341
    },
    {
      "id": 683962,
      "name": "Comuna Brădeni",
      "nativeName": "Comuna Brădeni",
      "code": "RO-SB-683962",
      "countryId": 798549,
      "countryCode": "RO",
      "stateCode": "RO-SB",
      "latitude": 46.06701,
      "longitude": 24.86289
    },
    {
      "id": 684810,
      "name": "Comuna Bârghiş",
      "nativeName": "Comuna Bârghiş",
      "code": "RO-SB-684810",
      "countryId": 798549,
      "countryCode": "RO",
      "stateCode": "RO-SB",
      "latitude": 46.01126,
      "longitude": 24.50431
    },
    {
      "id": 682027,
      "name": "Comuna Chirpăr",
      "nativeName": "Comuna Chirpăr",
      "code": "RO-SB-682027",
      "countryId": 798549,
      "countryCode": "RO",
      "stateCode": "RO-SB",
      "latitude": 45.90545,
      "longitude": 24.61093
    },
    {
      "id": 680164,
      "name": "Comuna Cristian",
      "nativeName": "Comuna Cristian",
      "code": "RO-SB-680164",
      "countryId": 798549,
      "countryCode": "RO",
      "stateCode": "RO-SB",
      "latitude": 45.78444,
      "longitude": 24.02995
    },
    {
      "id": 681522,
      "name": "Comuna Cârţa",
      "nativeName": "Comuna Cârţa",
      "code": "RO-SB-681522",
      "countryId": 798549,
      "countryCode": "RO",
      "stateCode": "RO-SB",
      "latitude": 45.80033,
      "longitude": 24.56371
    },
    {
      "id": 681516,
      "name": "Comuna Cârţişoara",
      "nativeName": "Comuna Cârţişoara",
      "code": "RO-SB-681516",
      "countryId": 798549,
      "countryCode": "RO",
      "stateCode": "RO-SB",
      "latitude": 45.72704,
      "longitude": 24.57985
    },
    {
      "id": 679323,
      "name": "Comuna Dârlos",
      "nativeName": "Comuna Dârlos",
      "code": "RO-SB-679323",
      "countryId": 798549,
      "countryCode": "RO",
      "stateCode": "RO-SB",
      "latitude": 46.20795,
      "longitude": 24.39737
    },
    {
      "id": 676494,
      "name": "Comuna Gura Râului",
      "nativeName": "Comuna Gura Râului",
      "code": "RO-SB-676494",
      "countryId": 798549,
      "countryCode": "RO",
      "stateCode": "RO-SB",
      "latitude": 45.73012,
      "longitude": 23.98417
    },
    {
      "id": 676088,
      "name": "Comuna Hoghilag",
      "nativeName": "Comuna Hoghilag",
      "code": "RO-SB-676088",
      "countryId": 798549,
      "countryCode": "RO",
      "stateCode": "RO-SB",
      "latitude": 46.21941,
      "longitude": 24.61559
    },
    {
      "id": 675862,
      "name": "Comuna Iacobeni",
      "nativeName": "Comuna Iacobeni",
      "code": "RO-SB-675862",
      "countryId": 798549,
      "countryCode": "RO",
      "stateCode": "RO-SB",
      "latitude": 46.0444,
      "longitude": 24.75456
    },
    {
      "id": 675217,
      "name": "Comuna Jina",
      "nativeName": "Comuna Jina",
      "code": "RO-SB-675217",
      "countryId": 798549,
      "countryCode": "RO",
      "stateCode": "RO-SB",
      "latitude": 45.78593,
      "longitude": 23.67793
    },
    {
      "id": 675002,
      "name": "Comuna Laslea",
      "nativeName": "Comuna Laslea",
      "code": "RO-SB-675002",
      "countryId": 798549,
      "countryCode": "RO",
      "stateCode": "RO-SB",
      "latitude": 46.14966,
      "longitude": 24.63839
    },
    {
      "id": 674635,
      "name": "Comuna Loamneş",
      "nativeName": "Comuna Loamneş",
      "code": "RO-SB-674635",
      "countryId": 798549,
      "countryCode": "RO",
      "stateCode": "RO-SB",
      "latitude": 45.95467,
      "longitude": 24.04197
    },
    {
      "id": 674543,
      "name": "Comuna Ludoş",
      "nativeName": "Comuna Ludoş",
      "code": "RO-SB-674543",
      "countryId": 798549,
      "countryCode": "RO",
      "stateCode": "RO-SB",
      "latitude": 45.93336,
      "longitude": 23.9007
    },
    {
      "id": 673749,
      "name": "Comuna Marpod",
      "nativeName": "Comuna Marpod",
      "code": "RO-SB-673749",
      "countryId": 798549,
      "countryCode": "RO",
      "stateCode": "RO-SB",
      "latitude": 45.87101,
      "longitude": 24.51544
    },
    {
      "id": 673565,
      "name": "Comuna Merghindeal",
      "nativeName": "Comuna Merghindeal",
      "code": "RO-SB-673565",
      "countryId": 798549,
      "countryCode": "RO",
      "stateCode": "RO-SB",
      "latitude": 45.97533,
      "longitude": 24.71324
    },
    {
      "id": 673484,
      "name": "Comuna Micăsasa",
      "nativeName": "Comuna Micăsasa",
      "code": "RO-SB-673484",
      "countryId": 798549,
      "countryCode": "RO",
      "stateCode": "RO-SB",
      "latitude": 46.10607,
      "longitude": 24.13264
    },
    {
      "id": 673390,
      "name": "Comuna Mihăileni",
      "nativeName": "Comuna Mihăileni",
      "code": "RO-SB-673390",
      "countryId": 798549,
      "countryCode": "RO",
      "stateCode": "RO-SB",
      "latitude": 45.99998,
      "longitude": 24.36621
    },
    {
      "id": 672822,
      "name": "Comuna Moşna",
      "nativeName": "Comuna Moşna",
      "code": "RO-SB-672822",
      "countryId": 798549,
      "countryCode": "RO",
      "stateCode": "RO-SB",
      "latitude": 46.07534,
      "longitude": 24.42509
    },
    {
      "id": 672175,
      "name": "Comuna Nocrich",
      "nativeName": "Comuna Nocrich",
      "code": "RO-SB-672175",
      "countryId": 798549,
      "countryCode": "RO",
      "stateCode": "RO-SB",
      "latitude": 45.87075,
      "longitude": 24.43314
    },
    {
      "id": 671710,
      "name": "Comuna Orlat",
      "nativeName": "Comuna Orlat",
      "code": "RO-SB-671710",
      "countryId": 798549,
      "countryCode": "RO",
      "stateCode": "RO-SB",
      "latitude": 45.7555,
      "longitude": 23.96855
    },
    {
      "id": 670032,
      "name": "Comuna Poiana Sibiului",
      "nativeName": "Comuna Poiana Sibiului",
      "code": "RO-SB-670032",
      "countryId": 798549,
      "countryCode": "RO",
      "stateCode": "RO-SB",
      "latitude": 45.8092,
      "longitude": 23.73095
    },
    {
      "id": 669854,
      "name": "Comuna Poplaca",
      "nativeName": "Comuna Poplaca",
      "code": "RO-SB-669854",
      "countryId": 798549,
      "countryCode": "RO",
      "stateCode": "RO-SB",
      "latitude": 45.72815,
      "longitude": 24.0538
    },
    {
      "id": 669817,
      "name": "Comuna Porumbacu de Jos",
      "nativeName": "Comuna Porumbacu de Jos",
      "code": "RO-SB-669817",
      "countryId": 798549,
      "countryCode": "RO",
      "stateCode": "RO-SB",
      "latitude": 45.75078,
      "longitude": 24.49551
    },
    {
      "id": 671242,
      "name": "Comuna Păuca",
      "nativeName": "Comuna Păuca",
      "code": "RO-SB-671242",
      "countryId": 798549,
      "countryCode": "RO",
      "stateCode": "RO-SB",
      "latitude": 46.00209,
      "longitude": 23.91696
    },
    {
      "id": 669315,
      "name": "Comuna Racoviţa",
      "nativeName": "Comuna Racoviţa",
      "code": "RO-SB-669315",
      "countryId": 798549,
      "countryCode": "RO",
      "stateCode": "RO-SB",
      "latitude": 45.66604,
      "longitude": 24.35142
    },
    {
      "id": 668651,
      "name": "Comuna Roşia",
      "nativeName": "Comuna Roşia",
      "code": "RO-SB-668651",
      "countryId": 798549,
      "countryCode": "RO",
      "stateCode": "RO-SB",
      "latitude": 45.80385,
      "longitude": 24.31786
    },
    {
      "id": 668808,
      "name": "Comuna Râu Sadului",
      "nativeName": "Comuna Râu Sadului",
      "code": "RO-SB-668808",
      "countryId": 798549,
      "countryCode": "RO",
      "stateCode": "RO-SB",
      "latitude": 45.62401,
      "longitude": 24.06132
    },
    {
      "id": 669155,
      "name": "Comuna Răşinari",
      "nativeName": "Comuna Răşinari",
      "code": "RO-SB-669155",
      "countryId": 798549,
      "countryCode": "RO",
      "stateCode": "RO-SB",
      "latitude": 45.69761,
      "longitude": 24.07378
    },
    {
      "id": 668275,
      "name": "Comuna Sadu",
      "nativeName": "Comuna Sadu",
      "code": "RO-SB-668275",
      "countryId": 798549,
      "countryCode": "RO",
      "stateCode": "RO-SB",
      "latitude": 45.67199,
      "longitude": 24.18393
    },
    {
      "id": 666726,
      "name": "Comuna Slimnic",
      "nativeName": "Comuna Slimnic",
      "code": "RO-SB-666726",
      "countryId": 798549,
      "countryCode": "RO",
      "stateCode": "RO-SB",
      "latitude": 45.94465,
      "longitude": 24.19777
    },
    {
      "id": 665100,
      "name": "Comuna Tilişca",
      "nativeName": "Comuna Tilişca",
      "code": "RO-SB-665100",
      "countryId": 798549,
      "countryCode": "RO",
      "stateCode": "RO-SB",
      "latitude": 45.80131,
      "longitude": 23.81411
    },
    {
      "id": 8334825,
      "name": "Comuna Turnu Roşu",
      "nativeName": "Comuna Turnu Roşu",
      "code": "RO-SB-8334825",
      "countryId": 798549,
      "countryCode": "RO",
      "stateCode": "RO-SB",
      "latitude": 45.64667,
      "longitude": 24.31762
    },
    {
      "id": 8334775,
      "name": "Comuna Târnava",
      "nativeName": "Comuna Târnava",
      "code": "RO-SB-8334775",
      "countryId": 798549,
      "countryCode": "RO",
      "stateCode": "RO-SB",
      "latitude": 46.13752,
      "longitude": 24.29756
    },
    {
      "id": 663310,
      "name": "Comuna Valea Viilor",
      "nativeName": "Comuna Valea Viilor",
      "code": "RO-SB-663310",
      "countryId": 798549,
      "countryCode": "RO",
      "stateCode": "RO-SB",
      "latitude": 46.07141,
      "longitude": 24.31223
    },
    {
      "id": 662378,
      "name": "Comuna Vurpăr",
      "nativeName": "Comuna Vurpăr",
      "code": "RO-SB-662378",
      "countryId": 798549,
      "countryCode": "RO",
      "stateCode": "RO-SB",
      "latitude": 45.89672,
      "longitude": 24.34315
    },
    {
      "id": 667444,
      "name": "Comuna Şeica Mare",
      "nativeName": "Comuna Şeica Mare",
      "code": "RO-SB-667444",
      "countryId": 798549,
      "countryCode": "RO",
      "stateCode": "RO-SB",
      "latitude": 45.99998,
      "longitude": 24.23909
    },
    {
      "id": 667442,
      "name": "Comuna Şeica Mică",
      "nativeName": "Comuna Şeica Mică",
      "code": "RO-SB-667442",
      "countryId": 798549,
      "countryCode": "RO",
      "stateCode": "RO-SB",
      "latitude": 46.04202,
      "longitude": 24.09567
    },
    {
      "id": 667419,
      "name": "Comuna Şelimbăr",
      "nativeName": "Comuna Şelimbăr",
      "code": "RO-SB-667419",
      "countryId": 798549,
      "countryCode": "RO",
      "stateCode": "RO-SB",
      "latitude": 45.75141,
      "longitude": 24.21985
    },
    {
      "id": 665751,
      "name": "Comuna Şura Mare",
      "nativeName": "Comuna Şura Mare",
      "code": "RO-SB-665751",
      "countryId": 798549,
      "countryCode": "RO",
      "stateCode": "RO-SB",
      "latitude": 45.85917,
      "longitude": 24.18477
    },
    {
      "id": 665749,
      "name": "Comuna Şura Mică",
      "nativeName": "Comuna Şura Mică",
      "code": "RO-SB-665749",
      "countryId": 798549,
      "countryCode": "RO",
      "stateCode": "RO-SB",
      "latitude": 45.82485,
      "longitude": 24.0421
    },
    {
      "id": 8334663,
      "name": "Municipiul Mediaş",
      "nativeName": "Municipiul Mediaş",
      "code": "RO-SB-8334663",
      "countryId": 798549,
      "countryCode": "RO",
      "stateCode": "RO-SB",
      "latitude": 46.13663,
      "longitude": 24.35377
    },
    {
      "id": 8334650,
      "name": "Municipiul Sibiu",
      "nativeName": "Municipiul Sibiu",
      "code": "RO-SB-8334650",
      "countryId": 798549,
      "countryCode": "RO",
      "stateCode": "RO-SB",
      "latitude": 45.79383,
      "longitude": 24.13533
    },
    {
      "id": 8334970,
      "name": "Oraş Agnita",
      "nativeName": "Oraş Agnita",
      "code": "RO-SB-8334970",
      "countryId": 798549,
      "countryCode": "RO",
      "stateCode": "RO-SB",
      "latitude": 45.98952,
      "longitude": 24.61458
    },
    {
      "id": 686010,
      "name": "Oraş Avrig",
      "nativeName": "Oraş Avrig",
      "code": "RO-SB-686010",
      "countryId": 798549,
      "countryCode": "RO",
      "stateCode": "RO-SB",
      "latitude": 45.73797,
      "longitude": 24.38713
    },
    {
      "id": 8334908,
      "name": "Oraş Cisnãdie",
      "nativeName": "Oraş Cisnãdie",
      "code": "RO-SB-8334908",
      "countryId": 798549,
      "countryCode": "RO",
      "stateCode": "RO-SB",
      "latitude": 45.70924,
      "longitude": 24.13284
    },
    {
      "id": 680900,
      "name": "Oraş Copşa Micã",
      "nativeName": "Oraş Copşa Micã",
      "code": "RO-SB-680900",
      "countryId": 798549,
      "countryCode": "RO",
      "stateCode": "RO-SB",
      "latitude": 46.11651,
      "longitude": 24.25517
    },
    {
      "id": 8334858,
      "name": "Oraş Dumbrãveni",
      "nativeName": "Oraş Dumbrãveni",
      "code": "RO-SB-8334858",
      "countryId": 798549,
      "countryCode": "RO",
      "stateCode": "RO-SB",
      "latitude": 46.22258,
      "longitude": 24.55274
    },
    {
      "id": 8334657,
      "name": "Oraş Miercurea Sibiului",
      "nativeName": "Oraş Miercurea Sibiului",
      "code": "RO-SB-8334657",
      "countryId": 798549,
      "countryCode": "RO",
      "stateCode": "RO-SB",
      "latitude": 45.86247,
      "longitude": 23.79766
    },
    {
      "id": 672022,
      "name": "Oraş Ocna Sibiului",
      "nativeName": "Oraş Ocna Sibiului",
      "code": "RO-SB-672022",
      "countryId": 798549,
      "countryCode": "RO",
      "stateCode": "RO-SB",
      "latitude": 45.88311,
      "longitude": 24.00095
    },
    {
      "id": 8334777,
      "name": "Oraş Sãlişte",
      "nativeName": "Oraş Sãlişte",
      "code": "RO-SB-8334777",
      "countryId": 798549,
      "countryCode": "RO",
      "stateCode": "RO-SB",
      "latitude": 45.78967,
      "longitude": 23.89532
    },
    {
      "id": 665605,
      "name": "Oraş Tãlmaciu",
      "nativeName": "Oraş Tãlmaciu",
      "code": "RO-SB-665605",
      "countryId": 798549,
      "countryCode": "RO",
      "stateCode": "RO-SB",
      "latitude": 45.66751,
      "longitude": 24.25357
    }
  ]
}