{
  "stateId": 668248,
  "stateCode": "RO-SJ",
  "countryCode": "RO",
  "cities": [
    {
      "id": 686610,
      "name": "Comuna Agrij",
      "nativeName": "Comuna Agrij",
      "code": "RO-SJ-686610",
      "countryId": 798549,
      "countryCode": "RO",
      "stateCode": "RO-SJ",
      "latitude": 47.06784,
      "longitude": 23.09764
    },
    {
      "id": 686447,
      "name": "Comuna Almaşu",
      "nativeName": "Comuna Almaşu",
      "code": "RO-SJ-686447",
      "countryId": 798549,
      "countryCode": "RO",
      "stateCode": "RO-SJ",
      "latitude": 46.95,
      "longitude": 23.13333
    },
    {
      "id": 685111,
      "name": "Comuna Benesat",
      "nativeName": "Comuna Benesat",
      "code": "RO-SJ-685111",
      "countryId": 798549,
      "countryCode": "RO",
      "stateCode": "RO-SJ",
      "latitude": 47.41667,
      "longitude": 23.3
    },
    {
      "id": 684515,
      "name": "Comuna Bobota",
      "nativeName": "Comuna Bobota",
      "code": "RO-SJ-684515",
      "countryId": 798549,
      "countryCode": "RO",
      "stateCode": "RO-SJ",
      "latitude": 47.38333,
      "longitude": 22.76667
    },
    {
      "id": 8299635,
      "name": "Comuna Bocşa",
      "nativeName": "Comuna Bocşa",
      "code": "RO-SJ-8299635",
      "countryId": 798549,
      "countryCode": "RO",
      "stateCode": "RO-SJ",
      "latitude": 47.30332,
      "longitude": 22.91241
    },
    {
      "id": 684365,
      "name": "Comuna Boghiş",
      "nativeName": "Comuna Boghiş",
      "code": "RO-SJ-684365",
      "countryId": 798549,
      "countryCode": "RO",
      "stateCode": "RO-SJ",
      "latitude": 47.15611,
      "longitude": 22.72706
    },
    {
      "id": 683556,
      "name": "Comuna Buciumi",
      "nativeName": "Comuna Buciumi",
      "code": "RO-SJ-683556",
      "countryId": 798549,
      "countryCode": "RO",
      "stateCode": "RO-SJ",
      "latitude": 47.03476,
      "longitude": 23.02546
    },
    {
      "id": 685976,
      "name": "Comuna Băbeni",
      "nativeName": "Comuna Băbeni",
      "code": "RO-SJ-685976",
      "countryId": 798549,
      "countryCode": "RO",
      "stateCode": "RO-SJ",
      "latitude": 47.3,
      "longitude": 23.4
    },
    {
      "id": 685704,
      "name": "Comuna Bălan",
      "nativeName": "Comuna Bălan",
      "code": "RO-SJ-685704",
      "countryId": 798549,
      "countryCode": "RO",
      "stateCode": "RO-SJ",
      "latitude": 47.15768,
      "longitude": 23.31187
    },
    {
      "id": 685452,
      "name": "Comuna Bănişor",
      "nativeName": "Comuna Bănişor",
      "code": "RO-SJ-685452",
      "countryId": 798549,
      "countryCode": "RO",
      "stateCode": "RO-SJ",
      "latitude": 47.10215,
      "longitude": 22.83646
    },
    {
      "id": 682869,
      "name": "Comuna Camăr",
      "nativeName": "Comuna Camăr",
      "code": "RO-SJ-682869",
      "countryId": 798549,
      "countryCode": "RO",
      "stateCode": "RO-SJ",
      "latitude": 47.31728,
      "longitude": 22.62815
    },
    {
      "id": 682711,
      "name": "Comuna Carastelec",
      "nativeName": "Comuna Carastelec",
      "code": "RO-SJ-682711",
      "countryId": 798549,
      "countryCode": "RO",
      "stateCode": "RO-SJ",
      "latitude": 47.30714,
      "longitude": 22.68062
    },
    {
      "id": 682441,
      "name": "Comuna Cehu Silvaniei",
      "nativeName": "Comuna Cehu Silvaniei",
      "code": "RO-SJ-682441",
      "countryId": 798549,
      "countryCode": "RO",
      "stateCode": "RO-SJ",
      "latitude": 47.41293,
      "longitude": 23.1766
    },
    {
      "id": 682135,
      "name": "Comuna Chieşd",
      "nativeName": "Comuna Chieşd",
      "code": "RO-SJ-682135",
      "countryId": 798549,
      "countryCode": "RO",
      "stateCode": "RO-SJ",
      "latitude": 47.36505,
      "longitude": 22.89296
    },
    {
      "id": 681352,
      "name": "Comuna Cizer",
      "nativeName": "Comuna Cizer",
      "code": "RO-SJ-681352",
      "countryId": 798549,
      "countryCode": "RO",
      "stateCode": "RO-SJ",
      "latitude": 47.06684,
      "longitude": 22.88129
    },
    {
      "id": 680654,
      "name": "Comuna Coşeiu",
      "nativeName": "Comuna Coşeiu",
      "code": "RO-SJ-680654",
      "countryId": 798549,
      "countryCode": "RO",
      "stateCode": "RO-SJ",
      "latitude": 47.33189,
      "longitude": 23.01282
    },
    {
      "id": 680309,
      "name": "Comuna Crasna",
      "nativeName": "Comuna Crasna",
      "code": "RO-SJ-680309",
      "countryId": 798549,
      "countryCode": "RO",
      "stateCode": "RO-SJ",
      "latitude": 47.16191,
      "longitude": 22.82979
    },
    {
      "id": 680297,
      "name": "Comuna Creaca",
      "nativeName": "Comuna Creaca",
      "code": "RO-SJ-680297",
      "countryId": 798549,
      "countryCode": "RO",
      "stateCode": "RO-SJ",
      "latitude": 47.1949,
      "longitude": 23.2276
    },
    {
      "id": 680155,
      "name": "Comuna Cristolţ",
      "nativeName": "Comuna Cristolţ",
      "code": "RO-SJ-680155",
      "countryId": 798549,
      "countryCode": "RO",
      "stateCode": "RO-SJ",
      "latitude": 47.21231,
      "longitude": 23.43745
    },
    {
      "id": 680189,
      "name": "Comuna Crişeni",
      "nativeName": "Comuna Crişeni",
      "code": "RO-SJ-680189",
      "countryId": 798549,
      "countryCode": "RO",
      "stateCode": "RO-SJ",
      "latitude": 47.25028,
      "longitude": 23.06965
    },
    {
      "id": 679860,
      "name": "Comuna Cuzăplac",
      "nativeName": "Comuna Cuzăplac",
      "code": "RO-SJ-679860",
      "countryId": 798549,
      "countryCode": "RO",
      "stateCode": "RO-SJ",
      "latitude": 46.94651,
      "longitude": 23.21895
    },
    {
      "id": 679227,
      "name": "Comuna Dobrin",
      "nativeName": "Comuna Dobrin",
      "code": "RO-SJ-679227",
      "countryId": 798549,
      "countryCode": "RO",
      "stateCode": "RO-SJ",
      "latitude": 47.30812,
      "longitude": 23.11367
    },
    {
      "id": 678893,
      "name": "Comuna Dragu",
      "nativeName": "Comuna Dragu",
      "code": "RO-SJ-678893",
      "countryId": 798549,
      "countryCode": "RO",
      "stateCode": "RO-SJ",
      "latitude": 47.03493,
      "longitude": 23.41089
    },
    {
      "id": 8334901,
      "name": "Comuna Fildu De Jos",
      "nativeName": "Comuna Fildu De Jos",
      "code": "RO-SJ-8334901",
      "countryId": 798549,
      "countryCode": "RO",
      "stateCode": "RO-SJ",
      "latitude": 46.91837,
      "longitude": 23.01591
    },
    {
      "id": 677271,
      "name": "Comuna Gâlgău",
      "nativeName": "Comuna Gâlgău",
      "code": "RO-SJ-677271",
      "countryId": 798549,
      "countryCode": "RO",
      "stateCode": "RO-SJ",
      "latitude": 47.27667,
      "longitude": 23.68763
    },
    {
      "id": 677235,
      "name": "Comuna Gârbou",
      "nativeName": "Comuna Gârbou",
      "code": "RO-SJ-677235",
      "countryId": 798549,
      "countryCode": "RO",
      "stateCode": "RO-SJ",
      "latitude": 47.15447,
      "longitude": 23.43522
    },
    {
      "id": 676353,
      "name": "Comuna Halmăşd",
      "nativeName": "Comuna Halmăşd",
      "code": "RO-SJ-676353",
      "countryId": 798549,
      "countryCode": "RO",
      "stateCode": "RO-SJ",
      "latitude": 47.15903,
      "longitude": 22.59664
    },
    {
      "id": 8334649,
      "name": "Comuna Hereclean",
      "nativeName": "Comuna Hereclean",
      "code": "RO-SJ-8334649",
      "countryId": 798549,
      "countryCode": "RO",
      "stateCode": "RO-SJ",
      "latitude": 47.26297,
      "longitude": 23.00704
    },
    {
      "id": 676211,
      "name": "Comuna Hida",
      "nativeName": "Comuna Hida",
      "code": "RO-SJ-676211",
      "countryId": 798549,
      "countryCode": "RO",
      "stateCode": "RO-SJ",
      "latitude": 47.07831,
      "longitude": 23.33841
    },
    {
      "id": 675992,
      "name": "Comuna Horoatu Crasnei",
      "nativeName": "Comuna Horoatu Crasnei",
      "code": "RO-SJ-675992",
      "countryId": 798549,
      "countryCode": "RO",
      "stateCode": "RO-SJ",
      "latitude": 47.09729,
      "longitude": 22.92131
    },
    {
      "id": 675677,
      "name": "Comuna Ileanda",
      "nativeName": "Comuna Ileanda",
      "code": "RO-SJ-675677",
      "countryId": 798549,
      "countryCode": "RO",
      "stateCode": "RO-SJ",
      "latitude": 47.34501,
      "longitude": 23.60827
    },
    {
      "id": 675513,
      "name": "Comuna Ip",
      "nativeName": "Comuna Ip",
      "code": "RO-SJ-675513",
      "countryId": 798549,
      "countryCode": "RO",
      "stateCode": "RO-SJ",
      "latitude": 47.22138,
      "longitude": 22.62406
    },
    {
      "id": 674836,
      "name": "Comuna Letca",
      "nativeName": "Comuna Letca",
      "code": "RO-SJ-674836",
      "countryId": 798549,
      "countryCode": "RO",
      "stateCode": "RO-SJ",
      "latitude": 47.34948,
      "longitude": 23.42865
    },
    {
      "id": 674579,
      "name": "Comuna Lozna",
      "nativeName": "Comuna Lozna",
      "code": "RO-SJ-674579",
      "countryId": 798549,
      "countryCode": "RO",
      "stateCode": "RO-SJ",
      "latitude": 47.3151,
      "longitude": 23.48507
    },
    {
      "id": 673867,
      "name": "Comuna Marca",
      "nativeName": "Comuna Marca",
      "code": "RO-SJ-673867",
      "countryId": 798549,
      "countryCode": "RO",
      "stateCode": "RO-SJ",
      "latitude": 47.23495,
      "longitude": 22.55089
    },
    {
      "id": 673087,
      "name": "Comuna Mirşid",
      "nativeName": "Comuna Mirşid",
      "code": "RO-SJ-673087",
      "countryId": 798549,
      "countryCode": "RO",
      "stateCode": "RO-SJ",
      "latitude": 47.23132,
      "longitude": 23.14308
    },
    {
      "id": 674196,
      "name": "Comuna Măerişte",
      "nativeName": "Comuna Măerişte",
      "code": "RO-SJ-674196",
      "countryId": 798549,
      "countryCode": "RO",
      "stateCode": "RO-SJ",
      "latitude": 47.29893,
      "longitude": 22.75444
    },
    {
      "id": 672122,
      "name": "Comuna Nuşfalău",
      "nativeName": "Comuna Nuşfalău",
      "code": "RO-SJ-672122",
      "countryId": 798549,
      "countryCode": "RO",
      "stateCode": "RO-SJ",
      "latitude": 47.21355,
      "longitude": 22.70784
    },
    {
      "id": 672506,
      "name": "Comuna Năpradea",
      "nativeName": "Comuna Năpradea",
      "code": "RO-SJ-672506",
      "countryId": 798549,
      "countryCode": "RO",
      "stateCode": "RO-SJ",
      "latitude": 47.34497,
      "longitude": 23.31603
    },
    {
      "id": 671135,
      "name": "Comuna Pericei",
      "nativeName": "Comuna Pericei",
      "code": "RO-SJ-671135",
      "countryId": 798549,
      "countryCode": "RO",
      "stateCode": "RO-SJ",
      "latitude": 47.24643,
      "longitude": 22.87644
    },
    {
      "id": 670440,
      "name": "Comuna Plopiş",
      "nativeName": "Comuna Plopiş",
      "code": "RO-SJ-670440",
      "countryId": 798549,
      "countryCode": "RO",
      "stateCode": "RO-SJ",
      "latitude": 47.11425,
      "longitude": 22.6424
    },
    {
      "id": 670102,
      "name": "Comuna Poiana Blenchii",
      "nativeName": "Comuna Poiana Blenchii",
      "code": "RO-SJ-670102",
      "countryId": 798549,
      "countryCode": "RO",
      "stateCode": "RO-SJ",
      "latitude": 47.30626,
      "longitude": 23.76012
    },
    {
      "id": 668717,
      "name": "Comuna Românaşi",
      "nativeName": "Comuna Românaşi",
      "code": "RO-SJ-668717",
      "countryId": 798549,
      "countryCode": "RO",
      "stateCode": "RO-SJ",
      "latitude": 47.1147,
      "longitude": 23.17627
    },
    {
      "id": 668433,
      "name": "Comuna Rus",
      "nativeName": "Comuna Rus",
      "code": "RO-SJ-668433",
      "countryId": 798549,
      "countryCode": "RO",
      "stateCode": "RO-SJ",
      "latitude": 47.278,
      "longitude": 23.57813
    },
    {
      "id": 666466,
      "name": "Comuna Someş-Odorhei",
      "nativeName": "Comuna Someş-Odorhei",
      "code": "RO-SJ-666466",
      "countryId": 798549,
      "countryCode": "RO",
      "stateCode": "RO-SJ",
      "latitude": 47.32846,
      "longitude": 23.22294
    },
    {
      "id": 665728,
      "name": "Comuna Surduc",
      "nativeName": "Comuna Surduc",
      "code": "RO-SJ-665728",
      "countryId": 798549,
      "countryCode": "RO",
      "stateCode": "RO-SJ",
      "latitude": 47.24433,
      "longitude": 23.37313
    },
    {
      "id": 667229,
      "name": "Comuna Sâg",
      "nativeName": "Comuna Sâg",
      "code": "RO-SJ-667229",
      "countryId": 798549,
      "countryCode": "RO",
      "stateCode": "RO-SJ",
      "latitude": 47.07041,
      "longitude": 22.78671
    },
    {
      "id": 666988,
      "name": "Comuna Sânmihaiu Almaşului",
      "nativeName": "Comuna Sânmihaiu Almaşului",
      "code": "RO-SJ-666988",
      "countryId": 798549,
      "countryCode": "RO",
      "stateCode": "RO-SJ",
      "latitude": 47.03822,
      "longitude": 23.21448
    },
    {
      "id": 668235,
      "name": "Comuna Sălăţig",
      "nativeName": "Comuna Sălăţig",
      "code": "RO-SJ-668235",
      "countryId": 798549,
      "countryCode": "RO",
      "stateCode": "RO-SJ",
      "latitude": 47.35417,
      "longitude": 23.15585
    },
    {
      "id": 8334916,
      "name": "Comuna Treznea",
      "nativeName": "Comuna Treznea",
      "code": "RO-SJ-8334916",
      "countryId": 798549,
      "countryCode": "RO",
      "stateCode": "RO-SJ",
      "latitude": 47.09432,
      "longitude": 23.10166
    },
    {
      "id": 8334940,
      "name": "Comuna Valcãu De Jos",
      "nativeName": "Comuna Valcãu De Jos",
      "code": "RO-SJ-8334940",
      "countryId": 798549,
      "countryCode": "RO",
      "stateCode": "RO-SJ",
      "latitude": 47.1096,
      "longitude": 22.73662
    },
    {
      "id": 662745,
      "name": "Comuna Vârşolţ",
      "nativeName": "Comuna Vârşolţ",
      "code": "RO-SJ-662745",
      "countryId": 798549,
      "countryCode": "RO",
      "stateCode": "RO-SJ",
      "latitude": 47.19711,
      "longitude": 22.94529
    },
    {
      "id": 662331,
      "name": "Comuna Zalha",
      "nativeName": "Comuna Zalha",
      "code": "RO-SJ-662331",
      "countryId": 798549,
      "countryCode": "RO",
      "stateCode": "RO-SJ",
      "latitude": 47.19786,
      "longitude": 23.53139
    },
    {
      "id": 662194,
      "name": "Comuna Zimbor",
      "nativeName": "Comuna Zimbor",
      "code": "RO-SJ-662194",
      "countryId": 798549,
      "countryCode": "RO",
      "stateCode": "RO-SJ",
      "latitude": 46.98887,
      "longitude": 23.29029
    },
    {
      "id": 668115,
      "name": "Comuna Şamşud",
      "nativeName": "Comuna Şamşud",
      "code": "RO-SJ-668115",
      "countryId": 798549,
      "countryCode": "RO",
      "stateCode": "RO-SJ",
      "latitude": 47.33234,
      "longitude": 22.95373
    },
    {
      "id": 667102,
      "name": "Comuna Şimişna",
      "nativeName": "Comuna Şimişna",
      "code": "RO-SJ-667102",
      "countryId": 798549,
      "countryCode": "RO",
      "stateCode": "RO-SJ",
      "latitude": 47.21179,
      "longitude": 23.61546
    },
    {
      "id": 667969,
      "name": "Comuna Şărmăşag",
      "nativeName": "Comuna Şărmăşag",
      "code": "RO-SJ-667969",
      "countryId": 798549,
      "countryCode": "RO",
      "stateCode": "RO-SJ",
      "latitude": 47.33342,
      "longitude": 22.81988
    },
    {
      "id": 673532,
      "name": "Comună Meseşenii de Jos",
      "nativeName": "Comună Meseşenii de Jos",
      "code": "RO-SJ-673532",
      "countryId": 798549,
      "countryCode": "RO",
      "stateCode": "RO-SJ",
      "latitude": 47.14568,
      "longitude": 22.99133
    },
    {
      "id": 8334769,
      "name": "Municipiul Zalãu",
      "nativeName": "Municipiul Zalãu",
      "code": "RO-SJ-8334769",
      "countryId": 798549,
      "countryCode": "RO",
      "stateCode": "RO-SJ",
      "latitude": 47.16633,
      "longitude": 23.0966
    },
    {
      "id": 8299634,
      "name": "Oraş Şimleu Silvaniei",
      "nativeName": "Oraş Şimleu Silvaniei",
      "code": "RO-SJ-8299634",
      "countryId": 798549,
      "countryCode": "RO",
      "stateCode": "RO-SJ",
      "latitude": 47.23018,
      "longitude": 22.7944
    },
    {
      "id": 675260,
      "name": "Oraș Jibou",
      "nativeName": "Oraș Jibou",
      "code": "RO-SJ-675260",
      "countryId": 798549,
      "countryCode": "RO",
      "stateCode": "RO-SJ",
      "latitude": 47.26001,
      "longitude": 23.25488
    }
  ]
}