{
  "stateId": 664517,
  "stateCode": "RO-TL",
  "countryCode": "RO",
  "cities": [
    {
      "id": 685839,
      "name": "Comuna Baia",
      "nativeName": "Comuna Baia",
      "code": "RO-TL-685839",
      "countryId": 798549,
      "countryCode": "RO",
      "stateCode": "RO-TL",
      "latitude": 44.75708,
      "longitude": 28.64028
    },
    {
      "id": 685181,
      "name": "Comuna Beidaud",
      "nativeName": "Comuna Beidaud",
      "code": "RO-TL-685181",
      "countryId": 798549,
      "countryCode": "RO",
      "stateCode": "RO-TL",
      "latitude": 44.72132,
      "longitude": 28.53265
    },
    {
      "id": 684963,
      "name": "Comuna Beştepe",
      "nativeName": "Comuna Beştepe",
      "code": "RO-TL-684963",
      "countryId": 798549,
      "countryCode": "RO",
      "stateCode": "RO-TL",
      "latitude": 45.11243,
      "longitude": 29.02425
    },
    {
      "id": 682677,
      "name": "Comuna C.A. Rosetti",
      "nativeName": "Comuna C.A. Rosetti",
      "code": "RO-TL-682677",
      "countryId": 798549,
      "countryCode": "RO",
      "stateCode": "RO-TL",
      "latitude": 45.30207,
      "longitude": 29.57289
    },
    {
      "id": 682689,
      "name": "Comuna Carcaliu",
      "nativeName": "Comuna Carcaliu",
      "code": "RO-TL-682689",
      "countryId": 798549,
      "countryCode": "RO",
      "stateCode": "RO-TL",
      "latitude": 45.18688,
      "longitude": 28.1487
    },
    {
      "id": 680634,
      "name": "Comuna Casimcea",
      "nativeName": "Comuna Casimcea",
      "code": "RO-TL-680634",
      "countryId": 798549,
      "countryCode": "RO",
      "stateCode": "RO-TL",
      "latitude": 44.76276,
      "longitude": 28.33156
    },
    {
      "id": 682477,
      "name": "Comuna Ceamurlia de Jos",
      "nativeName": "Comuna Ceamurlia de Jos",
      "code": "RO-TL-682477",
      "countryId": 798549,
      "countryCode": "RO",
      "stateCode": "RO-TL",
      "latitude": 44.73731,
      "longitude": 28.75115
    },
    {
      "id": 682468,
      "name": "Comuna Ceatalchioi",
      "nativeName": "Comuna Ceatalchioi",
      "code": "RO-TL-682468",
      "countryId": 798549,
      "countryCode": "RO",
      "stateCode": "RO-TL",
      "latitude": 45.27904,
      "longitude": 28.78323
    },
    {
      "id": 682339,
      "name": "Comuna Cerna",
      "nativeName": "Comuna Cerna",
      "code": "RO-TL-682339",
      "countryId": 798549,
      "countryCode": "RO",
      "stateCode": "RO-TL",
      "latitude": 45.04007,
      "longitude": 28.31668
    },
    {
      "id": 682116,
      "name": "Comuna Chilia Veche",
      "nativeName": "Comuna Chilia Veche",
      "code": "RO-TL-682116",
      "countryId": 798549,
      "countryCode": "RO",
      "stateCode": "RO-TL",
      "latitude": 45.37799,
      "longitude": 29.21511
    },
    {
      "id": 681472,
      "name": "Comuna Ciucurova",
      "nativeName": "Comuna Ciucurova",
      "code": "RO-TL-681472",
      "countryId": 798549,
      "countryCode": "RO",
      "stateCode": "RO-TL",
      "latitude": 44.91355,
      "longitude": 28.47111
    },
    {
      "id": 680201,
      "name": "Comuna Crişan",
      "nativeName": "Comuna Crişan",
      "code": "RO-TL-680201",
      "countryId": 798549,
      "countryCode": "RO",
      "stateCode": "RO-TL",
      "latitude": 45.16093,
      "longitude": 29.34258
    },
    {
      "id": 679069,
      "name": "Comuna Dorobanţu",
      "nativeName": "Comuna Dorobanţu",
      "code": "RO-TL-679069",
      "countryId": 798549,
      "countryCode": "RO",
      "stateCode": "RO-TL",
      "latitude": 44.94874,
      "longitude": 28.30073
    },
    {
      "id": 679829,
      "name": "Comuna Dăeni",
      "nativeName": "Comuna Dăeni",
      "code": "RO-TL-679829",
      "countryId": 798549,
      "countryCode": "RO",
      "stateCode": "RO-TL",
      "latitude": 44.84533,
      "longitude": 28.13218
    },
    {
      "id": 677901,
      "name": "Comuna Frecăţei",
      "nativeName": "Comuna Frecăţei",
      "code": "RO-TL-677901",
      "countryId": 798549,
      "countryCode": "RO",
      "stateCode": "RO-TL",
      "latitude": 45.11808,
      "longitude": 28.64492
    },
    {
      "id": 676752,
      "name": "Comuna Greci",
      "nativeName": "Comuna Greci",
      "code": "RO-TL-676752",
      "countryId": 798549,
      "countryCode": "RO",
      "stateCode": "RO-TL",
      "latitude": 45.19132,
      "longitude": 28.23854
    },
    {
      "id": 676717,
      "name": "Comuna Grindu",
      "nativeName": "Comuna Grindu",
      "code": "RO-TL-676717",
      "countryId": 798549,
      "countryCode": "RO",
      "stateCode": "RO-TL",
      "latitude": 45.40829,
      "longitude": 28.20031
    },
    {
      "id": 676342,
      "name": "Comuna Hamcearca",
      "nativeName": "Comuna Hamcearca",
      "code": "RO-TL-676342",
      "countryId": 798549,
      "countryCode": "RO",
      "stateCode": "RO-TL",
      "latitude": 45.11559,
      "longitude": 28.39383
    },
    {
      "id": 676005,
      "name": "Comuna Horia",
      "nativeName": "Comuna Horia",
      "code": "RO-TL-676005",
      "countryId": 798549,
      "countryCode": "RO",
      "stateCode": "RO-TL",
      "latitude": 45.03655,
      "longitude": 28.45947
    },
    {
      "id": 8334803,
      "name": "Comuna I.C.Brãtianu",
      "nativeName": "Comuna I.C.Brãtianu",
      "code": "RO-TL-8334803",
      "countryId": 798549,
      "countryCode": "RO",
      "stateCode": "RO-TL",
      "latitude": 45.40648,
      "longitude": 28.05332
    },
    {
      "id": 8334670,
      "name": "Comuna Izvoarele",
      "nativeName": "Comuna Izvoarele",
      "code": "RO-TL-8334670",
      "countryId": 798549,
      "countryCode": "RO",
      "stateCode": "RO-TL",
      "latitude": 45.03932,
      "longitude": 28.53351
    },
    {
      "id": 675234,
      "name": "Comuna Jijila",
      "nativeName": "Comuna Jijila",
      "code": "RO-TL-675234",
      "countryId": 798549,
      "countryCode": "RO",
      "stateCode": "RO-TL",
      "latitude": 45.32554,
      "longitude": 28.1571
    },
    {
      "id": 675129,
      "name": "Comuna Jurilovca",
      "nativeName": "Comuna Jurilovca",
      "code": "RO-TL-675129",
      "countryId": 798549,
      "countryCode": "RO",
      "stateCode": "RO-TL",
      "latitude": 44.77261,
      "longitude": 28.86906
    },
    {
      "id": 674347,
      "name": "Comuna Luncaviţa",
      "nativeName": "Comuna Luncaviţa",
      "code": "RO-TL-674347",
      "countryId": 798549,
      "countryCode": "RO",
      "stateCode": "RO-TL",
      "latitude": 45.28653,
      "longitude": 28.30029
    },
    {
      "id": 674077,
      "name": "Comuna Mahmudia",
      "nativeName": "Comuna Mahmudia",
      "code": "RO-TL-674077",
      "countryId": 798549,
      "countryCode": "RO",
      "stateCode": "RO-TL",
      "latitude": 45.08582,
      "longitude": 29.08775
    },
    {
      "id": 8334846,
      "name": "Comuna Maliuc",
      "nativeName": "Comuna Maliuc",
      "code": "RO-TL-8334846",
      "countryId": 798549,
      "countryCode": "RO",
      "stateCode": "RO-TL",
      "latitude": 45.1833,
      "longitude": 29.04828
    },
    {
      "id": 673398,
      "name": "Comuna Mihai Bravu",
      "nativeName": "Comuna Mihai Bravu",
      "code": "RO-TL-673398",
      "countryId": 798549,
      "countryCode": "RO",
      "stateCode": "RO-TL",
      "latitude": 44.95974,
      "longitude": 28.65504
    },
    {
      "id": 673371,
      "name": "Comuna Mihail Kogălniceanu",
      "nativeName": "Comuna Mihail Kogălniceanu",
      "code": "RO-TL-673371",
      "countryId": 798549,
      "countryCode": "RO",
      "stateCode": "RO-TL",
      "latitude": 45.02225,
      "longitude": 28.72861
    },
    {
      "id": 672601,
      "name": "Comuna Murighiol",
      "nativeName": "Comuna Murighiol",
      "code": "RO-TL-672601",
      "countryId": 798549,
      "countryCode": "RO",
      "stateCode": "RO-TL",
      "latitude": 45.02504,
      "longitude": 29.15177
    },
    {
      "id": 672531,
      "name": "Comuna Nalbant",
      "nativeName": "Comuna Nalbant",
      "code": "RO-TL-672531",
      "countryId": 798549,
      "countryCode": "RO",
      "stateCode": "RO-TL",
      "latitude": 45.04119,
      "longitude": 28.59827
    },
    {
      "id": 672228,
      "name": "Comuna Niculiţel",
      "nativeName": "Comuna Niculiţel",
      "code": "RO-TL-672228",
      "countryId": 798549,
      "countryCode": "RO",
      "stateCode": "RO-TL",
      "latitude": 45.18251,
      "longitude": 28.48139
    },
    {
      "id": 672127,
      "name": "Comuna Nufăru",
      "nativeName": "Comuna Nufăru",
      "code": "RO-TL-672127",
      "countryId": 798549,
      "countryCode": "RO",
      "stateCode": "RO-TL",
      "latitude": 45.14333,
      "longitude": 28.92452
    },
    {
      "id": 671630,
      "name": "Comuna Ostrov",
      "nativeName": "Comuna Ostrov",
      "code": "RO-TL-671630",
      "countryId": 798549,
      "countryCode": "RO",
      "stateCode": "RO-TL",
      "latitude": 44.91052,
      "longitude": 28.1464
    },
    {
      "id": 671347,
      "name": "Comuna Pardina",
      "nativeName": "Comuna Pardina",
      "code": "RO-TL-671347",
      "countryId": 798549,
      "countryCode": "RO",
      "stateCode": "RO-TL",
      "latitude": 45.3078,
      "longitude": 28.95691
    },
    {
      "id": 671189,
      "name": "Comuna Peceneaga",
      "nativeName": "Comuna Peceneaga",
      "code": "RO-TL-671189",
      "countryId": 798549,
      "countryCode": "RO",
      "stateCode": "RO-TL",
      "latitude": 45.00849,
      "longitude": 28.14872
    },
    {
      "id": 667990,
      "name": "Comuna Sarichioi",
      "nativeName": "Comuna Sarichioi",
      "code": "RO-TL-667990",
      "countryId": 798549,
      "countryCode": "RO",
      "stateCode": "RO-TL",
      "latitude": 44.92129,
      "longitude": 28.8187
    },
    {
      "id": 667299,
      "name": "Comuna Sfântu Gheorghe",
      "nativeName": "Comuna Sfântu Gheorghe",
      "code": "RO-TL-667299",
      "countryId": 798549,
      "countryCode": "RO",
      "stateCode": "RO-TL",
      "latitude": 44.89654,
      "longitude": 29.59357
    },
    {
      "id": 666739,
      "name": "Comuna Slava Cercheză",
      "nativeName": "Comuna Slava Cercheză",
      "code": "RO-TL-666739",
      "countryId": 798549,
      "countryCode": "RO",
      "stateCode": "RO-TL",
      "latitude": 44.87578,
      "longitude": 28.58134
    },
    {
      "id": 666620,
      "name": "Comuna Smârdan",
      "nativeName": "Comuna Smârdan",
      "code": "RO-TL-666620",
      "countryId": 798549,
      "countryCode": "RO",
      "stateCode": "RO-TL",
      "latitude": 45.28462,
      "longitude": 28.00599
    },
    {
      "id": 666450,
      "name": "Comuna Somova",
      "nativeName": "Comuna Somova",
      "code": "RO-TL-666450",
      "countryId": 798549,
      "countryCode": "RO",
      "stateCode": "RO-TL",
      "latitude": 45.18861,
      "longitude": 28.65673
    },
    {
      "id": 666177,
      "name": "Comuna Stejaru",
      "nativeName": "Comuna Stejaru",
      "code": "RO-TL-666177",
      "countryId": 798549,
      "countryCode": "RO",
      "stateCode": "RO-TL",
      "latitude": 44.78528,
      "longitude": 28.53996
    },
    {
      "id": 664734,
      "name": "Comuna Topolog",
      "nativeName": "Comuna Topolog",
      "code": "RO-TL-664734",
      "countryId": 798549,
      "countryCode": "RO",
      "stateCode": "RO-TL",
      "latitude": 44.86083,
      "longitude": 28.3432
    },
    {
      "id": 664463,
      "name": "Comuna Turcoaia",
      "nativeName": "Comuna Turcoaia",
      "code": "RO-TL-664463",
      "countryId": 798549,
      "countryCode": "RO",
      "stateCode": "RO-TL",
      "latitude": 45.10923,
      "longitude": 28.18806
    },
    {
      "id": 663547,
      "name": "Comuna Valea Nucarilor",
      "nativeName": "Comuna Valea Nucarilor",
      "code": "RO-TL-663547",
      "countryId": 798549,
      "countryCode": "RO",
      "stateCode": "RO-TL",
      "latitude": 45.03206,
      "longitude": 28.91994
    },
    {
      "id": 8334920,
      "name": "Comuna Valea Teilor",
      "nativeName": "Comuna Valea Teilor",
      "code": "RO-TL-8334920",
      "countryId": 798549,
      "countryCode": "RO",
      "stateCode": "RO-TL",
      "latitude": 45.1115,
      "longitude": 28.48801
    },
    {
      "id": 664043,
      "name": "Comuna Văcăreni",
      "nativeName": "Comuna Văcăreni",
      "code": "RO-TL-664043",
      "countryId": 798549,
      "countryCode": "RO",
      "stateCode": "RO-TL",
      "latitude": 45.32463,
      "longitude": 28.19504
    },
    {
      "id": 8334861,
      "name": "Municipiul Tulcea",
      "nativeName": "Municipiul Tulcea",
      "code": "RO-TL-8334861",
      "countryId": 798549,
      "countryCode": "RO",
      "stateCode": "RO-TL",
      "latitude": 45.18325,
      "longitude": 28.79298
    },
    {
      "id": 8334805,
      "name": "Oraş Babadag",
      "nativeName": "Oraş Babadag",
      "code": "RO-TL-8334805",
      "countryId": 798549,
      "countryCode": "RO",
      "stateCode": "RO-TL",
      "latitude": 44.89092,
      "longitude": 28.71858
    },
    {
      "id": 8334862,
      "name": "Oraş Isaccea",
      "nativeName": "Oraş Isaccea",
      "code": "RO-TL-8334862",
      "countryId": 798549,
      "countryCode": "RO",
      "stateCode": "RO-TL",
      "latitude": 45.269,
      "longitude": 28.40446
    },
    {
      "id": 8334949,
      "name": "Oraş Mãcin",
      "nativeName": "Oraş Mãcin",
      "code": "RO-TL-8334949",
      "countryId": 798549,
      "countryCode": "RO",
      "stateCode": "RO-TL",
      "latitude": 45.24736,
      "longitude": 28.1383
    },
    {
      "id": 8334744,
      "name": "Oraş Sulina",
      "nativeName": "Oraş Sulina",
      "code": "RO-TL-8334744",
      "countryId": 798549,
      "countryCode": "RO",
      "stateCode": "RO-TL",
      "latitude": 45.15608,
      "longitude": 29.65197
    }
  ]
}