{
  "stateId": 323784,
  "stateCode": "TR-06",
  "countryCode": "TR",
  "cities": [
    {
      "id": 8632043,
      "name": "Akyurt İlçesi",
      "nativeName": "Akyurt İlçesi",
      "code": "TR-06-8632043",
      "countryId": 298795,
      "countryCode": "TR",
      "stateCode": "TR-06",
      "latitude": 40.1414,
      "longitude": 33.09743
    },
    {
      "id": 7732081,
      "name": "Altındağ",
      "nativeName": "Altındağ",
      "code": "TR-06-7732081",
      "countryId": 298795,
      "countryCode": "TR",
      "stateCode": "TR-06",
      "latitude": 40.0011,
      "longitude": 32.97022
    },
    {
      "id": 8632061,
      "name": "Ayaş İlçesi",
      "nativeName": "Ayaş İlçesi",
      "code": "TR-06-8632061",
      "countryId": 298795,
      "countryCode": "TR",
      "stateCode": "TR-06",
      "latitude": 40.02484,
      "longitude": 32.34089
    },
    {
      "id": 8632047,
      "name": "Bala İlçesi",
      "nativeName": "Bala İlçesi",
      "code": "TR-06-8632047",
      "countryId": 298795,
      "countryCode": "TR",
      "stateCode": "TR-06",
      "latitude": 39.56374,
      "longitude": 33.12962
    },
    {
      "id": 7910611,
      "name": "Beypazari",
      "nativeName": "Beypazari",
      "code": "TR-06-7910611",
      "countryId": 298795,
      "countryCode": "TR",
      "stateCode": "TR-06",
      "latitude": 40.14695,
      "longitude": 31.91911
    },
    {
      "id": 8632039,
      "name": "Elmadağ İlçesi",
      "nativeName": "Elmadağ İlçesi",
      "code": "TR-06-8632039",
      "countryId": 298795,
      "countryCode": "TR",
      "stateCode": "TR-06",
      "latitude": 39.93117,
      "longitude": 33.23812
    },
    {
      "id": 8632058,
      "name": "Etimesgut İlçesi",
      "nativeName": "Etimesgut İlçesi",
      "code": "TR-06-8632058",
      "countryId": 298795,
      "countryCode": "TR",
      "stateCode": "TR-06",
      "latitude": 39.96335,
      "longitude": 32.63744
    },
    {
      "id": 8632037,
      "name": "Evren İlçesi",
      "nativeName": "Evren İlçesi",
      "code": "TR-06-8632037",
      "countryId": 298795,
      "countryCode": "TR",
      "stateCode": "TR-06",
      "latitude": 39.03001,
      "longitude": 33.79767
    },
    {
      "id": 7732107,
      "name": "Gölbaşı",
      "nativeName": "Gölbaşı",
      "code": "TR-06-7732107",
      "countryId": 298795,
      "countryCode": "TR",
      "stateCode": "TR-06",
      "latitude": 39.80748,
      "longitude": 32.79419
    },
    {
      "id": 8632056,
      "name": "Güdül İlçesi",
      "nativeName": "Güdül İlçesi",
      "code": "TR-06-8632056",
      "countryId": 298795,
      "countryCode": "TR",
      "stateCode": "TR-06",
      "latitude": 40.21954,
      "longitude": 32.24885
    },
    {
      "id": 8632057,
      "name": "Haymana İlçesi",
      "nativeName": "Haymana İlçesi",
      "code": "TR-06-8632057",
      "countryId": 298795,
      "countryCode": "TR",
      "stateCode": "TR-06",
      "latitude": 39.44015,
      "longitude": 32.48852
    },
    {
      "id": 7732167,
      "name": "Kahramankazan",
      "nativeName": "Kahramankazan",
      "code": "TR-06-7732167",
      "countryId": 298795,
      "countryCode": "TR",
      "stateCode": "TR-06",
      "latitude": 40.16502,
      "longitude": 32.63904
    },
    {
      "id": 8632041,
      "name": "Kalecik District",
      "nativeName": "Kalecik İlçesi",
      "code": "TR-06-8632041",
      "countryId": 298795,
      "countryCode": "TR",
      "stateCode": "TR-06",
      "latitude": 40.10634,
      "longitude": 33.41973
    },
    {
      "id": 11791803,
      "name": "Kazan İlçesi",
      "nativeName": "Kazan İlçesi",
      "code": "TR-06-11791803",
      "countryId": 298795,
      "countryCode": "TR",
      "stateCode": "TR-06",
      "latitude": 40.24166,
      "longitude": 32.69141
    },
    {
      "id": 7733221,
      "name": "Keçiören",
      "nativeName": "Keçiören",
      "code": "TR-06-7733221",
      "countryId": 298795,
      "countryCode": "TR",
      "stateCode": "TR-06",
      "latitude": 40.02106,
      "longitude": 32.83102
    },
    {
      "id": 8632063,
      "name": "Kızılcahamam İlçesi",
      "nativeName": "Kızılcahamam İlçesi",
      "code": "TR-06-8632063",
      "countryId": 298795,
      "countryCode": "TR",
      "stateCode": "TR-06",
      "latitude": 40.48011,
      "longitude": 32.65546
    },
    {
      "id": 8632046,
      "name": "Mamak İlçesi",
      "nativeName": "Mamak İlçesi",
      "code": "TR-06-8632046",
      "countryId": 298795,
      "countryCode": "TR",
      "stateCode": "TR-06",
      "latitude": 39.94587,
      "longitude": 32.90811
    },
    {
      "id": 8632052,
      "name": "Nallıhan İlçesi",
      "nativeName": "Nallıhan İlçesi",
      "code": "TR-06-8632052",
      "countryId": 298795,
      "countryCode": "TR",
      "stateCode": "TR-06",
      "latitude": 40.19436,
      "longitude": 31.36316
    },
    {
      "id": 7732180,
      "name": "Polatlı",
      "nativeName": "Polatlı",
      "code": "TR-06-7732180",
      "countryId": 298795,
      "countryCode": "TR",
      "stateCode": "TR-06",
      "latitude": 39.47995,
      "longitude": 32.15507
    },
    {
      "id": 9551354,
      "name": "Pursaklar",
      "nativeName": "Pursaklar",
      "code": "TR-06-9551354",
      "countryId": 298795,
      "countryCode": "TR",
      "stateCode": "TR-06",
      "latitude": 40.03961,
      "longitude": 32.90139
    },
    {
      "id": 7732181,
      "name": "Sincan İlçesi",
      "nativeName": "Sincan İlçesi",
      "code": "TR-06-7732181",
      "countryId": 298795,
      "countryCode": "TR",
      "stateCode": "TR-06",
      "latitude": 39.95943,
      "longitude": 32.49567
    },
    {
      "id": 7732184,
      "name": "Yenimahalle",
      "nativeName": "Yenimahalle",
      "code": "TR-06-7732184",
      "countryId": 298795,
      "countryCode": "TR",
      "stateCode": "TR-06",
      "latitude": 39.99043,
      "longitude": 32.69555
    },
    {
      "id": 8632062,
      "name": "Çamlıdere İlçesi",
      "nativeName": "Çamlıdere İlçesi",
      "code": "TR-06-8632062",
      "countryId": 298795,
      "countryCode": "TR",
      "stateCode": "TR-06",
      "latitude": 40.49994,
      "longitude": 32.47986
    },
    {
      "id": 7732084,
      "name": "Çankaya",
      "nativeName": "Çankaya",
      "code": "TR-06-7732084",
      "countryId": 298795,
      "countryCode": "TR",
      "stateCode": "TR-06",
      "latitude": 39.86093,
      "longitude": 32.84176
    },
    {
      "id": 8632045,
      "name": "Çubuk District",
      "nativeName": "Çubuk İlçesi",
      "code": "TR-06-8632045",
      "countryId": 298795,
      "countryCode": "TR",
      "stateCode": "TR-06",
      "latitude": 40.23985,
      "longitude": 33.04706
    },
    {
      "id": 8632050,
      "name": "Şereflikoçhisar İlçesi",
      "nativeName": "Şereflikoçhisar İlçesi",
      "code": "TR-06-8632050",
      "countryId": 298795,
      "countryCode": "TR",
      "stateCode": "TR-06",
      "latitude": 38.9545,
      "longitude": 33.54801
    }
  ]
}