{
  "stateId": 315807,
  "stateCode": "TR-23",
  "countryCode": "TR",
  "cities": [
    {
      "id": 8631565,
      "name": "Arıcak İlçesi",
      "nativeName": "Arıcak İlçesi",
      "code": "TR-23-8631565",
      "countryId": 298795,
      "countryCode": "TR",
      "stateCode": "TR-23",
      "latitude": 38.56421,
      "longitude": 40.13506
    },
    {
      "id": 7733228,
      "name": "Ağın",
      "nativeName": "Ağın",
      "code": "TR-23-7733228",
      "countryId": 298795,
      "countryCode": "TR",
      "stateCode": "TR-23",
      "latitude": 38.93846,
      "longitude": 38.67253
    },
    {
      "id": 8631561,
      "name": "Baskil İlçesi",
      "nativeName": "Baskil İlçesi",
      "code": "TR-23-8631561",
      "countryId": 298795,
      "countryCode": "TR",
      "stateCode": "TR-23",
      "latitude": 38.56695,
      "longitude": 38.82357
    },
    {
      "id": 6544214,
      "name": "Karakoçan / Elazığ",
      "nativeName": "Karakoçan / Elazığ",
      "code": "TR-23-6544214",
      "countryId": 298795,
      "countryCode": "TR",
      "stateCode": "TR-23",
      "latitude": 38.95527,
      "longitude": 40.04053
    },
    {
      "id": 8631574,
      "name": "Keban İlçesi",
      "nativeName": "Keban İlçesi",
      "code": "TR-23-8631574",
      "countryId": 298795,
      "countryCode": "TR",
      "stateCode": "TR-23",
      "latitude": 38.79438,
      "longitude": 38.73773
    },
    {
      "id": 8631562,
      "name": "Kovancılar District",
      "nativeName": "Kovancılar İlçesi",
      "code": "TR-23-8631562",
      "countryId": 298795,
      "countryCode": "TR",
      "stateCode": "TR-23",
      "latitude": 38.71883,
      "longitude": 39.8652
    },
    {
      "id": 8631564,
      "name": "Maden İlçesi",
      "nativeName": "Maden İlçesi",
      "code": "TR-23-8631564",
      "countryId": 298795,
      "countryCode": "TR",
      "stateCode": "TR-23",
      "latitude": 38.39354,
      "longitude": 39.67252
    },
    {
      "id": 7732370,
      "name": "Merkez",
      "nativeName": "Merkez",
      "code": "TR-23-7732370",
      "countryId": 298795,
      "countryCode": "TR",
      "stateCode": "TR-23",
      "latitude": 38.6679,
      "longitude": 39.21567
    },
    {
      "id": 8631570,
      "name": "Palu İlçesi",
      "nativeName": "Palu İlçesi",
      "code": "TR-23-8631570",
      "countryId": 298795,
      "countryCode": "TR",
      "stateCode": "TR-23",
      "latitude": 38.69286,
      "longitude": 39.92652
    },
    {
      "id": 8631563,
      "name": "Sivrice İlçesi",
      "nativeName": "Sivrice İlçesi",
      "code": "TR-23-8631563",
      "countryId": 298795,
      "countryCode": "TR",
      "stateCode": "TR-23",
      "latitude": 38.44921,
      "longitude": 39.30582
    }
  ]
}