{
  "stateId": 311728,
  "stateCode": "TR-33",
  "countryCode": "TR",
  "cities": [
    {
      "id": 9542422,
      "name": "Akdeniz",
      "nativeName": "Akdeniz",
      "code": "TR-33-9542422",
      "countryId": 298795,
      "countryCode": "TR",
      "stateCode": "TR-33",
      "latitude": 36.86424,
      "longitude": 34.67731
    },
    {
      "id": 8632146,
      "name": "Anamur İlçesi",
      "nativeName": "Anamur İlçesi",
      "code": "TR-33-8632146",
      "countryId": 298795,
      "countryCode": "TR",
      "stateCode": "TR-33",
      "latitude": 36.08361,
      "longitude": 32.82615
    },
    {
      "id": 8632145,
      "name": "Aydıncık İlçesi",
      "nativeName": "Aydıncık İlçesi",
      "code": "TR-33-8632145",
      "countryId": 298795,
      "countryCode": "TR",
      "stateCode": "TR-33",
      "latitude": 36.15358,
      "longitude": 33.30397
    },
    {
      "id": 8632138,
      "name": "Bozyazı İlçesi",
      "nativeName": "Bozyazı İlçesi",
      "code": "TR-33-8632138",
      "countryId": 298795,
      "countryCode": "TR",
      "stateCode": "TR-33",
      "latitude": 36.11329,
      "longitude": 32.97886
    },
    {
      "id": 8632149,
      "name": "Erdemli İlçesi",
      "nativeName": "Erdemli İlçesi",
      "code": "TR-33-8632149",
      "countryId": 298795,
      "countryCode": "TR",
      "stateCode": "TR-33",
      "latitude": 36.61383,
      "longitude": 34.29601
    },
    {
      "id": 8632144,
      "name": "Gülnar İlçesi",
      "nativeName": "Gülnar İlçesi",
      "code": "TR-33-8632144",
      "countryId": 298795,
      "countryCode": "TR",
      "stateCode": "TR-33",
      "latitude": 36.3529,
      "longitude": 33.40308
    },
    {
      "id": 8632142,
      "name": "Mezitli İlçesi",
      "nativeName": "Mezitli İlçesi",
      "code": "TR-33-8632142",
      "countryId": 298795,
      "countryCode": "TR",
      "stateCode": "TR-33",
      "latitude": 36.894,
      "longitude": 34.42987
    },
    {
      "id": 7910604,
      "name": "Mut",
      "nativeName": "Mut",
      "code": "TR-33-7910604",
      "countryId": 298795,
      "countryCode": "TR",
      "stateCode": "TR-33",
      "latitude": 36.71842,
      "longitude": 33.38718
    },
    {
      "id": 8632148,
      "name": "Silifke İlçesi",
      "nativeName": "Silifke İlçesi",
      "code": "TR-33-8632148",
      "countryId": 298795,
      "countryCode": "TR",
      "stateCode": "TR-33",
      "latitude": 36.38869,
      "longitude": 33.94072
    },
    {
      "id": 7732939,
      "name": "Tarsus",
      "nativeName": "Tarsus",
      "code": "TR-33-7732939",
      "countryId": 298795,
      "countryCode": "TR",
      "stateCode": "TR-33",
      "latitude": 37.07328,
      "longitude": 34.8549
    },
    {
      "id": 9542263,
      "name": "Toroslar",
      "nativeName": "Toroslar",
      "code": "TR-33-9542263",
      "countryId": 298795,
      "countryCode": "TR",
      "stateCode": "TR-33",
      "latitude": 36.87083,
      "longitude": 34.60299
    },
    {
      "id": 9542118,
      "name": "Yenişehir",
      "nativeName": "Yenişehir",
      "code": "TR-33-9542118",
      "countryId": 298795,
      "countryCode": "TR",
      "stateCode": "TR-33",
      "latitude": 36.81602,
      "longitude": 34.57621
    },
    {
      "id": 8632141,
      "name": "Çamlıyayla İlçesi",
      "nativeName": "Çamlıyayla İlçesi",
      "code": "TR-33-8632141",
      "countryId": 298795,
      "countryCode": "TR",
      "stateCode": "TR-33",
      "latitude": 37.18,
      "longitude": 34.60678
    }
  ]
}