{
  "stateId": 745042,
  "stateCode": "TR-34",
  "countryCode": "TR",
  "cities": [
    {
      "id": 8521527,
      "name": "Adalar",
      "nativeName": "Adalar",
      "code": "TR-34-8521527",
      "countryId": 298795,
      "countryCode": "TR",
      "stateCode": "TR-34",
      "latitude": 40.86913,
      "longitude": 29.12064
    },
    {
      "id": 8521528,
      "name": "Arnavutköy",
      "nativeName": "Arnavutköy",
      "code": "TR-34-8521528",
      "countryId": 298795,
      "countryCode": "TR",
      "stateCode": "TR-34",
      "latitude": 41.19674,
      "longitude": 28.73405
    },
    {
      "id": 8521529,
      "name": "Ataşehir",
      "nativeName": "Ataşehir",
      "code": "TR-34-8521529",
      "countryId": 298795,
      "countryCode": "TR",
      "stateCode": "TR-34",
      "latitude": 40.99104,
      "longitude": 29.13471
    },
    {
      "id": 7732454,
      "name": "Avcılar",
      "nativeName": "Avcılar",
      "code": "TR-34-7732454",
      "countryId": 298795,
      "countryCode": "TR",
      "stateCode": "TR-34",
      "latitude": 41.02355,
      "longitude": 28.7186
    },
    {
      "id": 7732457,
      "name": "Bahçelievler",
      "nativeName": "Bahçelievler",
      "code": "TR-34-7732457",
      "countryId": 298795,
      "countryCode": "TR",
      "stateCode": "TR-34",
      "latitude": 41.00652,
      "longitude": 28.84099
    },
    {
      "id": 7732461,
      "name": "Bakırköy",
      "nativeName": "Bakırköy",
      "code": "TR-34-7732461",
      "countryId": 298795,
      "countryCode": "TR",
      "stateCode": "TR-34",
      "latitude": 40.98388,
      "longitude": 28.83541
    },
    {
      "id": 7732459,
      "name": "Bayrampaşa",
      "nativeName": "Bayrampaşa",
      "code": "TR-34-7732459",
      "countryId": 298795,
      "countryCode": "TR",
      "stateCode": "TR-34",
      "latitude": 41.04691,
      "longitude": 28.90278
    },
    {
      "id": 7732460,
      "name": "Bağcılar",
      "nativeName": "Bağcılar",
      "code": "TR-34-7732460",
      "countryId": 298795,
      "countryCode": "TR",
      "stateCode": "TR-34",
      "latitude": 41.04275,
      "longitude": 28.83625
    },
    {
      "id": 8521530,
      "name": "Başakşehir",
      "nativeName": "Başakşehir",
      "code": "TR-34-8521530",
      "countryId": 298795,
      "countryCode": "TR",
      "stateCode": "TR-34",
      "latitude": 41.09203,
      "longitude": 28.80203
    },
    {
      "id": 7733235,
      "name": "Beykoz",
      "nativeName": "Beykoz",
      "code": "TR-34-7733235",
      "countryId": 298795,
      "countryCode": "TR",
      "stateCode": "TR-34",
      "latitude": 41.13774,
      "longitude": 29.16932
    },
    {
      "id": 8521531,
      "name": "Beylikdüzü",
      "nativeName": "Beylikdüzü",
      "code": "TR-34-8521531",
      "countryId": 298795,
      "countryCode": "TR",
      "stateCode": "TR-34",
      "latitude": 41.00322,
      "longitude": 28.64067
    },
    {
      "id": 7732462,
      "name": "Beyoğlu",
      "nativeName": "Beyoğlu",
      "code": "TR-34-7732462",
      "countryId": 298795,
      "countryCode": "TR",
      "stateCode": "TR-34",
      "latitude": 41.03786,
      "longitude": 28.96767
    },
    {
      "id": 7733234,
      "name": "Beşiktaş",
      "nativeName": "Beşiktaş",
      "code": "TR-34-7733234",
      "countryId": 298795,
      "countryCode": "TR",
      "stateCode": "TR-34",
      "latitude": 41.07122,
      "longitude": 29.02321
    },
    {
      "id": 7732455,
      "name": "Büyükçekmece",
      "nativeName": "Büyükçekmece",
      "code": "TR-34-7732455",
      "countryId": 298795,
      "countryCode": "TR",
      "stateCode": "TR-34",
      "latitude": 41.04521,
      "longitude": 28.59573
    },
    {
      "id": 7732467,
      "name": "Esenler",
      "nativeName": "Esenler",
      "code": "TR-34-7732467",
      "countryId": 298795,
      "countryCode": "TR",
      "stateCode": "TR-34",
      "latitude": 41.07925,
      "longitude": 28.85235
    },
    {
      "id": 8521533,
      "name": "Esenyurt",
      "nativeName": "Esenyurt",
      "code": "TR-34-8521533",
      "countryId": 298795,
      "countryCode": "TR",
      "stateCode": "TR-34",
      "latitude": 41.04,
      "longitude": 28.66161
    },
    {
      "id": 7732469,
      "name": "Eyüpsultan",
      "nativeName": "Eyüpsultan",
      "code": "TR-34-7732469",
      "countryId": 298795,
      "countryCode": "TR",
      "stateCode": "TR-34",
      "latitude": 41.19904,
      "longitude": 28.88667
    },
    {
      "id": 7733237,
      "name": "Fatih",
      "nativeName": "Fatih",
      "code": "TR-34-7733237",
      "countryId": 298795,
      "countryCode": "TR",
      "stateCode": "TR-34",
      "latitude": 41.01746,
      "longitude": 28.94053
    },
    {
      "id": 7732471,
      "name": "Gaziosmanpaşa",
      "nativeName": "Gaziosmanpaşa",
      "code": "TR-34-7732471",
      "countryId": 298795,
      "countryCode": "TR",
      "stateCode": "TR-34",
      "latitude": 41.07857,
      "longitude": 28.89679
    },
    {
      "id": 7732474,
      "name": "Güngören",
      "nativeName": "Güngören",
      "code": "TR-34-7732474",
      "countryId": 298795,
      "countryCode": "TR",
      "stateCode": "TR-34",
      "latitude": 41.01787,
      "longitude": 28.87882
    },
    {
      "id": 7732501,
      "name": "Kadıköy",
      "nativeName": "Kadıköy",
      "code": "TR-34-7732501",
      "countryId": 298795,
      "countryCode": "TR",
      "stateCode": "TR-34",
      "latitude": 40.98229,
      "longitude": 29.09032
    },
    {
      "id": 7732506,
      "name": "Kartal",
      "nativeName": "Kartal",
      "code": "TR-34-7732506",
      "countryId": 298795,
      "countryCode": "TR",
      "stateCode": "TR-34",
      "latitude": 40.91197,
      "longitude": 29.2119
    },
    {
      "id": 7732504,
      "name": "Kâğıthane",
      "nativeName": "Kâğıthane",
      "code": "TR-34-7732504",
      "countryId": 298795,
      "countryCode": "TR",
      "stateCode": "TR-34",
      "latitude": 41.08319,
      "longitude": 28.97826
    },
    {
      "id": 7732569,
      "name": "Küçükçekmece",
      "nativeName": "Küçükçekmece",
      "code": "TR-34-7732569",
      "countryId": 298795,
      "countryCode": "TR",
      "stateCode": "TR-34",
      "latitude": 41.06947,
      "longitude": 28.76983
    },
    {
      "id": 7733238,
      "name": "Maltepe",
      "nativeName": "Maltepe",
      "code": "TR-34-7733238",
      "countryId": 298795,
      "countryCode": "TR",
      "stateCode": "TR-34",
      "latitude": 40.9589,
      "longitude": 29.17866
    },
    {
      "id": 7732579,
      "name": "Pendik",
      "nativeName": "Pendik",
      "code": "TR-34-7732579",
      "countryId": 298795,
      "countryCode": "TR",
      "stateCode": "TR-34",
      "latitude": 40.94577,
      "longitude": 29.33019
    },
    {
      "id": 8521534,
      "name": "Sancaktepe",
      "nativeName": "Sancaktepe",
      "code": "TR-34-8521534",
      "countryId": 298795,
      "countryCode": "TR",
      "stateCode": "TR-34",
      "latitude": 40.98949,
      "longitude": 29.2432
    },
    {
      "id": 8521535,
      "name": "Sarıyer",
      "nativeName": "Sarıyer",
      "code": "TR-34-8521535",
      "countryId": 298795,
      "countryCode": "TR",
      "stateCode": "TR-34",
      "latitude": 41.21482,
      "longitude": 29.05678
    },
    {
      "id": 7732582,
      "name": "Silivri",
      "nativeName": "Silivri",
      "code": "TR-34-7732582",
      "countryId": 298795,
      "countryCode": "TR",
      "stateCode": "TR-34",
      "latitude": 41.18116,
      "longitude": 28.1989
    },
    {
      "id": 7732583,
      "name": "Sultanbeyli",
      "nativeName": "Sultanbeyli",
      "code": "TR-34-7732583",
      "countryId": 298795,
      "countryCode": "TR",
      "stateCode": "TR-34",
      "latitude": 40.95264,
      "longitude": 29.26797
    },
    {
      "id": 8521536,
      "name": "Sultangazi",
      "nativeName": "Sultangazi",
      "code": "TR-34-8521536",
      "countryId": 298795,
      "countryCode": "TR",
      "stateCode": "TR-34",
      "latitude": 41.21792,
      "longitude": 28.7174
    },
    {
      "id": 7732587,
      "name": "Tuzla",
      "nativeName": "Tuzla",
      "code": "TR-34-7732587",
      "countryId": 298795,
      "countryCode": "TR",
      "stateCode": "TR-34",
      "latitude": 40.86368,
      "longitude": 29.31942
    },
    {
      "id": 7732593,
      "name": "Zeytinburnu",
      "nativeName": "Zeytinburnu",
      "code": "TR-34-7732593",
      "countryId": 298795,
      "countryCode": "TR",
      "stateCode": "TR-34",
      "latitude": 41.00824,
      "longitude": 28.90952
    },
    {
      "id": 7732464,
      "name": "Çatalca",
      "nativeName": "Çatalca",
      "code": "TR-34-7732464",
      "countryId": 298795,
      "countryCode": "TR",
      "stateCode": "TR-34",
      "latitude": 41.29651,
      "longitude": 28.45419
    },
    {
      "id": 8521532,
      "name": "Çekmeköy",
      "nativeName": "Çekmeköy",
      "code": "TR-34-8521532",
      "countryId": 298795,
      "countryCode": "TR",
      "stateCode": "TR-34",
      "latitude": 41.03819,
      "longitude": 29.20029
    },
    {
      "id": 7732588,
      "name": "Ümraniye",
      "nativeName": "Ümraniye",
      "code": "TR-34-7732588",
      "countryId": 298795,
      "countryCode": "TR",
      "stateCode": "TR-34",
      "latitude": 41.03482,
      "longitude": 29.10896
    },
    {
      "id": 7732589,
      "name": "Üsküdar",
      "nativeName": "Üsküdar",
      "code": "TR-34-7732589",
      "countryId": 298795,
      "countryCode": "TR",
      "stateCode": "TR-34",
      "latitude": 41.02841,
      "longitude": 29.05979
    },
    {
      "id": 8521537,
      "name": "Şile",
      "nativeName": "Şile",
      "code": "TR-34-8521537",
      "countryId": 298795,
      "countryCode": "TR",
      "stateCode": "TR-34",
      "latitude": 41.12902,
      "longitude": 29.61845
    },
    {
      "id": 8521538,
      "name": "Şişli",
      "nativeName": "Şişli",
      "code": "TR-34-8521538",
      "countryId": 298795,
      "countryCode": "TR",
      "stateCode": "TR-34",
      "latitude": 41.12514,
      "longitude": 29.00013
    }
  ]
}