{
  "stateId": 304794,
  "stateCode": "TR-47",
  "countryCode": "TR",
  "cities": [
    {
      "id": 9552222,
      "name": "Artuklu",
      "nativeName": "Artuklu",
      "code": "TR-47-9552222",
      "countryId": 298795,
      "countryCode": "TR",
      "stateCode": "TR-47",
      "latitude": 37.31714,
      "longitude": 40.72473
    },
    {
      "id": 441646,
      "name": "Dargeçit İlçesi",
      "nativeName": "Dargeçit İlçesi",
      "code": "TR-47-441646",
      "countryId": 298795,
      "countryCode": "TR",
      "stateCode": "TR-47",
      "latitude": 37.54644,
      "longitude": 41.72415
    },
    {
      "id": 8630817,
      "name": "Derik İlçesi",
      "nativeName": "Derik İlçesi",
      "code": "TR-47-8630817",
      "countryId": 298795,
      "countryCode": "TR",
      "stateCode": "TR-47",
      "latitude": 37.36431,
      "longitude": 40.26883
    },
    {
      "id": 8630814,
      "name": "Kızıltepe İlçesi",
      "nativeName": "Kızıltepe İlçesi",
      "code": "TR-47-8630814",
      "countryId": 298795,
      "countryCode": "TR",
      "stateCode": "TR-47",
      "latitude": 37.19268,
      "longitude": 40.58327
    },
    {
      "id": 441866,
      "name": "Mardin Merkez",
      "nativeName": "Mardin Merkez",
      "code": "TR-47-441866",
      "countryId": 298795,
      "countryCode": "TR",
      "stateCode": "TR-47",
      "latitude": 37.31256,
      "longitude": 40.73439
    },
    {
      "id": 8630815,
      "name": "Mazıdağı İlçesi",
      "nativeName": "Mazıdağı İlçesi",
      "code": "TR-47-8630815",
      "countryId": 298795,
      "countryCode": "TR",
      "stateCode": "TR-47",
      "latitude": 37.48542,
      "longitude": 40.4985
    },
    {
      "id": 441469,
      "name": "Midyat İlçesi",
      "nativeName": "Midyat İlçesi",
      "code": "TR-47-441469",
      "countryId": 298795,
      "countryCode": "TR",
      "stateCode": "TR-47",
      "latitude": 37.40056,
      "longitude": 41.375
    },
    {
      "id": 441966,
      "name": "Nusaybin İlçesi",
      "nativeName": "Nusaybin İlçesi",
      "code": "TR-47-441966",
      "countryId": 298795,
      "countryCode": "TR",
      "stateCode": "TR-47",
      "latitude": 37.15694,
      "longitude": 41.34139
    },
    {
      "id": 441186,
      "name": "Savur İlçesi",
      "nativeName": "Savur İlçesi",
      "code": "TR-47-441186",
      "countryId": 298795,
      "countryCode": "TR",
      "stateCode": "TR-47",
      "latitude": 37.53684,
      "longitude": 40.88886
    },
    {
      "id": 441187,
      "name": "Yeşilli İlçesi",
      "nativeName": "Yeşilli İlçesi",
      "code": "TR-47-441187",
      "countryId": 298795,
      "countryCode": "TR",
      "stateCode": "TR-47",
      "latitude": 37.33944,
      "longitude": 40.82605
    },
    {
      "id": 441188,
      "name": "Ömerli İlçesi",
      "nativeName": "Ömerli İlçesi",
      "code": "TR-47-441188",
      "countryId": 298795,
      "countryCode": "TR",
      "stateCode": "TR-47",
      "latitude": 37.37944,
      "longitude": 40.99472
    }
  ]
}