{
  "stateId": 300617,
  "stateCode": "TR-58",
  "countryCode": "TR",
  "cities": [
    {
      "id": 8631660,
      "name": "Akıncılar İlçesi",
      "nativeName": "Akıncılar İlçesi",
      "code": "TR-58-8631660",
      "countryId": 298795,
      "countryCode": "TR",
      "stateCode": "TR-58",
      "latitude": 40.07866,
      "longitude": 38.34618
    },
    {
      "id": 8631654,
      "name": "Altınyayla İlçesi",
      "nativeName": "Altınyayla İlçesi",
      "code": "TR-58-8631654",
      "countryId": 298795,
      "countryCode": "TR",
      "stateCode": "TR-58",
      "latitude": 39.28233,
      "longitude": 36.75681
    },
    {
      "id": 8631663,
      "name": "Divriği İlçesi",
      "nativeName": "Divriği İlçesi",
      "code": "TR-58-8631663",
      "countryId": 298795,
      "countryCode": "TR",
      "stateCode": "TR-58",
      "latitude": 39.37924,
      "longitude": 38.12144
    },
    {
      "id": 8631653,
      "name": "Doğanşar İlçesi",
      "nativeName": "Doğanşar İlçesi",
      "code": "TR-58-8631653",
      "countryId": 298795,
      "countryCode": "TR",
      "stateCode": "TR-58",
      "latitude": 40.21408,
      "longitude": 37.53599
    },
    {
      "id": 8631657,
      "name": "Gemerek İlçesi",
      "nativeName": "Gemerek İlçesi",
      "code": "TR-58-8631657",
      "countryId": 298795,
      "countryCode": "TR",
      "stateCode": "TR-58",
      "latitude": 39.19397,
      "longitude": 36.07783
    },
    {
      "id": 8631659,
      "name": "Gölova İlçesi",
      "nativeName": "Gölova İlçesi",
      "code": "TR-58-8631659",
      "countryId": 298795,
      "countryCode": "TR",
      "stateCode": "TR-58",
      "latitude": 40.0607,
      "longitude": 38.6084
    },
    {
      "id": 8631649,
      "name": "Gürün İlçesi",
      "nativeName": "Gürün İlçesi",
      "code": "TR-58-8631649",
      "countryId": 298795,
      "countryCode": "TR",
      "stateCode": "TR-58",
      "latitude": 38.73288,
      "longitude": 37.27516
    },
    {
      "id": 8631665,
      "name": "Hafik İlçesi",
      "nativeName": "Hafik İlçesi",
      "code": "TR-58-8631665",
      "countryId": 298795,
      "countryCode": "TR",
      "stateCode": "TR-58",
      "latitude": 39.86693,
      "longitude": 37.3972
    },
    {
      "id": 8631662,
      "name": "Kangal İlçesi",
      "nativeName": "Kangal İlçesi",
      "code": "TR-58-8631662",
      "countryId": 298795,
      "countryCode": "TR",
      "stateCode": "TR-58",
      "latitude": 39.24324,
      "longitude": 37.39731
    },
    {
      "id": 8631652,
      "name": "Koyulhisar İlçesi",
      "nativeName": "Koyulhisar İlçesi",
      "code": "TR-58-8631652",
      "countryId": 298795,
      "countryCode": "TR",
      "stateCode": "TR-58",
      "latitude": 40.30113,
      "longitude": 37.83311
    },
    {
      "id": 7732989,
      "name": "Merkez",
      "nativeName": "Merkez",
      "code": "TR-58-7732989",
      "countryId": 298795,
      "countryCode": "TR",
      "stateCode": "TR-58",
      "latitude": 39.71613,
      "longitude": 36.97695
    },
    {
      "id": 8631651,
      "name": "Suşehri İlçesi",
      "nativeName": "Suşehri İlçesi",
      "code": "TR-58-8631651",
      "countryId": 298795,
      "countryCode": "TR",
      "stateCode": "TR-58",
      "latitude": 40.16338,
      "longitude": 38.08926
    },
    {
      "id": 8631664,
      "name": "Ulaş İlçesi",
      "nativeName": "Ulaş İlçesi",
      "code": "TR-58-8631664",
      "countryId": 298795,
      "countryCode": "TR",
      "stateCode": "TR-58",
      "latitude": 39.45456,
      "longitude": 37.04541
    },
    {
      "id": 8631658,
      "name": "Yıldızeli İlçesi",
      "nativeName": "Yıldızeli İlçesi",
      "code": "TR-58-8631658",
      "countryId": 298795,
      "countryCode": "TR",
      "stateCode": "TR-58",
      "latitude": 39.87601,
      "longitude": 36.60652
    },
    {
      "id": 7732990,
      "name": "Zara",
      "nativeName": "Zara",
      "code": "TR-58-7732990",
      "countryId": 298795,
      "countryCode": "TR",
      "stateCode": "TR-58",
      "latitude": 39.82406,
      "longitude": 37.77499
    },
    {
      "id": 8631661,
      "name": "İmranlı İlçesi",
      "nativeName": "İmranlı İlçesi",
      "code": "TR-58-8631661",
      "countryId": 298795,
      "countryCode": "TR",
      "stateCode": "TR-58",
      "latitude": 39.88524,
      "longitude": 38.12015
    },
    {
      "id": 8631656,
      "name": "Şarkışla İlçesi",
      "nativeName": "Şarkışla İlçesi",
      "code": "TR-58-8631656",
      "countryId": 298795,
      "countryCode": "TR",
      "stateCode": "TR-58",
      "latitude": 39.36171,
      "longitude": 36.41827
    }
  ]
}