{
  "stateId": 862468,
  "stateCode": "TR-78",
  "countryCode": "TR",
  "cities": [
    {
      "id": 8632500,
      "name": "Eflani District",
      "nativeName": "Eflani İlçesi",
      "code": "TR-78-8632500",
      "countryId": 298795,
      "countryCode": "TR",
      "stateCode": "TR-78",
      "latitude": 41.43169,
      "longitude": 32.94765
    },
    {
      "id": 8632504,
      "name": "Eskipazar District",
      "nativeName": "Eskipazar İlçesi",
      "code": "TR-78-8632504",
      "countryId": 298795,
      "countryCode": "TR",
      "stateCode": "TR-78",
      "latitude": 40.95207,
      "longitude": 32.54604
    },
    {
      "id": 8632501,
      "name": "Ovacık District",
      "nativeName": "Ovacık İlçesi",
      "code": "TR-78-8632501",
      "countryId": 298795,
      "countryCode": "TR",
      "stateCode": "TR-78",
      "latitude": 41.08029,
      "longitude": 32.93224
    },
    {
      "id": 8632502,
      "name": "Safranbolu District",
      "nativeName": "Safranbolu İlçesi",
      "code": "TR-78-8632502",
      "countryId": 298795,
      "countryCode": "TR",
      "stateCode": "TR-78",
      "latitude": 41.26029,
      "longitude": 32.69928
    },
    {
      "id": 8632503,
      "name": "Yenice District",
      "nativeName": "Yenice İlçesi",
      "code": "TR-78-8632503",
      "countryId": 298795,
      "countryCode": "TR",
      "stateCode": "TR-78",
      "latitude": 41.21014,
      "longitude": 32.33661
    }
  ]
}