{
  "stateId": 443187,
  "stateCode": "TR-70",
  "countryCode": "TR",
  "cities": [
    {
      "id": 8632134,
      "name": "Ayrancı İlçesi",
      "nativeName": "Ayrancı İlçesi",
      "code": "TR-70-8632134",
      "countryId": 298795,
      "countryCode": "TR",
      "stateCode": "TR-70",
      "latitude": 37.37111,
      "longitude": 33.69291
    },
    {
      "id": 8632132,
      "name": "Başyayla İlçesi",
      "nativeName": "Başyayla İlçesi",
      "code": "TR-70-8632132",
      "countryId": 298795,
      "countryCode": "TR",
      "stateCode": "TR-70",
      "latitude": 36.76219,
      "longitude": 32.68863
    },
    {
      "id": 8632136,
      "name": "Ermenek İlçesi",
      "nativeName": "Ermenek İlçesi",
      "code": "TR-70-8632136",
      "countryId": 298795,
      "countryCode": "TR",
      "stateCode": "TR-70",
      "latitude": 36.65058,
      "longitude": 32.89698
    },
    {
      "id": 13308786,
      "name": "Karaman",
      "nativeName": "Karaman",
      "code": "TR-70-13308786",
      "countryId": 298795,
      "countryCode": "TR",
      "stateCode": "TR-70",
      "latitude": 37.17383,
      "longitude": 33.22384
    },
    {
      "id": 8632133,
      "name": "Kazımkarabekir İlçesi",
      "nativeName": "Kazımkarabekir İlçesi",
      "code": "TR-70-8632133",
      "countryId": 298795,
      "countryCode": "TR",
      "stateCode": "TR-70",
      "latitude": 37.24035,
      "longitude": 32.96413
    },
    {
      "id": 8632131,
      "name": "Sarıveliler İlçesi",
      "nativeName": "Sarıveliler İlçesi",
      "code": "TR-70-8632131",
      "countryId": 298795,
      "countryCode": "TR",
      "stateCode": "TR-70",
      "latitude": 36.70177,
      "longitude": 32.62647
    }
  ]
}