{
  "stateId": 2588490,
  "stateCode": "LR-GK",
  "countryCode": "LR",
  "cities": [
    {
      "id": 2278890,
      "name": "Barclayville",
      "nativeName": "Barclayville",
      "code": "LR-GK-2278890",
      "countryId": 2275384,
      "countryCode": "LR",
      "stateCode": "LR-GK",
      "latitude": 4.72704,
      "longitude": -8.18442
    },
    {
      "id": 9645228,
      "name": "Bleebo District",
      "nativeName": "Bleebo District",
      "code": "LR-GK-9645228",
      "countryId": 2275384,
      "countryCode": "LR",
      "stateCode": "LR-GK",
      "latitude": 4.7548,
      "longitude": -7.95558
    },
    {
      "id": 2278361,
      "name": "Bolloh District",
      "nativeName": "Bolloh District",
      "code": "LR-GK-2278361",
      "countryId": 2275384,
      "countryCode": "LR",
      "stateCode": "LR-GK",
      "latitude": 4.96473,
      "longitude": -8.39801
    },
    {
      "id": 2278169,
      "name": "Buah",
      "nativeName": "Buah",
      "code": "LR-GK-2278169",
      "countryId": 2275384,
      "countryCode": "LR",
      "stateCode": "LR-GK",
      "latitude": 4.84096,
      "longitude": -8.16949
    },
    {
      "id": 9645223,
      "name": "Dorbor District",
      "nativeName": "Dorbor District",
      "code": "LR-GK-9645223",
      "countryId": 2275384,
      "countryCode": "LR",
      "stateCode": "LR-GK",
      "latitude": 4.99377,
      "longitude": -8.28102
    },
    {
      "id": 9645221,
      "name": "Dweh District",
      "nativeName": "Dweh District",
      "code": "LR-GK-9645221",
      "countryId": 2275384,
      "countryCode": "LR",
      "stateCode": "LR-GK",
      "latitude": 5.07072,
      "longitude": -8.06874
    },
    {
      "id": 9645227,
      "name": "Felo-Jekwi District",
      "nativeName": "Felo-Jekwi District",
      "code": "LR-GK-9645227",
      "countryId": 2275384,
      "countryCode": "LR",
      "stateCode": "LR-GK",
      "latitude": 4.72577,
      "longitude": -8.3834
    },
    {
      "id": 9645224,
      "name": "Fenetoe District",
      "nativeName": "Fenetoe District",
      "code": "LR-GK-9645224",
      "countryId": 2275384,
      "countryCode": "LR",
      "stateCode": "LR-GK",
      "latitude": 4.90498,
      "longitude": -8.37372
    },
    {
      "id": 9645219,
      "name": "Forpoh District",
      "nativeName": "Forpoh District",
      "code": "LR-GK-9645219",
      "countryId": 2275384,
      "countryCode": "LR",
      "stateCode": "LR-GK",
      "latitude": 5.11111,
      "longitude": -8.237
    },
    {
      "id": 2277191,
      "name": "Garraway",
      "nativeName": "Garraway",
      "code": "LR-GK-2277191",
      "countryId": 2275384,
      "countryCode": "LR",
      "stateCode": "LR-GK",
      "latitude": 4.56398,
      "longitude": -7.9134
    },
    {
      "id": 2276626,
      "name": "Grand Cess Wedabo",
      "nativeName": "Grand Cess Wedabo",
      "code": "LR-GK-2276626",
      "countryId": 2275384,
      "countryCode": "LR",
      "stateCode": "LR-GK",
      "latitude": 4.62337,
      "longitude": -8.08634
    },
    {
      "id": 9645222,
      "name": "Kpi District",
      "nativeName": "Kpi District",
      "code": "LR-GK-9645222",
      "countryId": 2275384,
      "countryCode": "LR",
      "stateCode": "LR-GK",
      "latitude": 5.01309,
      "longitude": -8.14151
    },
    {
      "id": 2276161,
      "name": "Lower Jloh",
      "nativeName": "Lower Jloh",
      "code": "LR-GK-2276161",
      "countryId": 2275384,
      "countryCode": "LR",
      "stateCode": "LR-GK",
      "latitude": 4.87826,
      "longitude": -8.5624
    },
    {
      "id": 9645226,
      "name": "Nrokwia-Wesldow District",
      "nativeName": "Nrokwia-Wesldow District",
      "code": "LR-GK-9645226",
      "countryId": 2275384,
      "countryCode": "LR",
      "stateCode": "LR-GK",
      "latitude": 4.83094,
      "longitude": -8.32619
    },
    {
      "id": 2274101,
      "name": "Sasstown",
      "nativeName": "Sasstown",
      "code": "LR-GK-2274101",
      "countryId": 2275384,
      "countryCode": "LR",
      "stateCode": "LR-GK",
      "latitude": 4.83333,
      "longitude": -8.33333
    },
    {
      "id": 9645229,
      "name": "Trenbo District",
      "nativeName": "Trenbo District",
      "code": "LR-GK-9645229",
      "countryId": 2275384,
      "countryCode": "LR",
      "stateCode": "LR-GK",
      "latitude": 4.70179,
      "longitude": -7.87355
    },
    {
      "id": 9645225,
      "name": "Upper Jloh District",
      "nativeName": "Upper Jloh District",
      "code": "LR-GK-9645225",
      "countryId": 2275384,
      "countryCode": "LR",
      "stateCode": "LR-GK",
      "latitude": 4.82,
      "longitude": -8.46837
    },
    {
      "id": 2273190,
      "name": "Webado",
      "nativeName": "Webado",
      "code": "LR-GK-2273190",
      "countryId": 2275384,
      "countryCode": "LR",
      "stateCode": "LR-GK",
      "latitude": 4.58333,
      "longitude": -8.08333
    },
    {
      "id": 9645220,
      "name": "Wlogba District",
      "nativeName": "Wlogba District",
      "code": "LR-GK-9645220",
      "countryId": 2275384,
      "countryCode": "LR",
      "stateCode": "LR-GK",
      "latitude": 5.08166,
      "longitude": -8.17601
    }
  ]
}