{
  "stateId": 2276622,
  "stateCode": "LR-GG",
  "countryCode": "LR",
  "cities": [
    {
      "id": 2278611,
      "name": "B’hai District",
      "nativeName": "B’hai District",
      "code": "LR-GG-2278611",
      "countryId": 2275384,
      "countryCode": "LR",
      "stateCode": "LR-GG",
      "latitude": 6.38751,
      "longitude": -8.48982
    },
    {
      "id": 9645155,
      "name": "Cavala District",
      "nativeName": "Cavala District",
      "code": "LR-GG-9645155",
      "countryId": 2275384,
      "countryCode": "LR",
      "stateCode": "LR-GG",
      "latitude": 6.11018,
      "longitude": -8.23964
    },
    {
      "id": 9645154,
      "name": "Gbao District",
      "nativeName": "Gbao District",
      "code": "LR-GG-9645154",
      "countryId": 2275384,
      "countryCode": "LR",
      "stateCode": "LR-GG",
      "latitude": 6.07333,
      "longitude": -8.50436
    },
    {
      "id": 2277043,
      "name": "Gbazohn",
      "nativeName": "Gbazohn",
      "code": "LR-GG-2277043",
      "countryId": 2275384,
      "countryCode": "LR",
      "stateCode": "LR-GG",
      "latitude": 6.16667,
      "longitude": -8.41667
    },
    {
      "id": 2276983,
      "name": "Gbobo",
      "nativeName": "Gbobo",
      "code": "LR-GG-2276983",
      "countryId": 2275384,
      "countryCode": "LR",
      "stateCode": "LR-GG",
      "latitude": 6.16667,
      "longitude": -8.16667
    },
    {
      "id": 9645153,
      "name": "Gboe-Ploe District",
      "nativeName": "Gboe-Ploe District",
      "code": "LR-GG-9645153",
      "countryId": 2275384,
      "countryCode": "LR",
      "stateCode": "LR-GG",
      "latitude": 6.01709,
      "longitude": -8.79236
    },
    {
      "id": 2276801,
      "name": "Glio-Twarbo",
      "nativeName": "Glio-Twarbo",
      "code": "LR-GG-2276801",
      "countryId": 2275384,
      "countryCode": "LR",
      "stateCode": "LR-GG",
      "latitude": 5.69612,
      "longitude": -7.59527
    },
    {
      "id": 2275728,
      "name": "Konobo",
      "nativeName": "Konobo",
      "code": "LR-GG-2275728",
      "countryId": 2275384,
      "countryCode": "LR",
      "stateCode": "LR-GG",
      "latitude": 5.85176,
      "longitude": -7.88715
    },
    {
      "id": 2274719,
      "name": "Niabo",
      "nativeName": "Niabo",
      "code": "LR-GG-2274719",
      "countryId": 2275384,
      "countryCode": "LR",
      "stateCode": "LR-GG",
      "latitude": 6.25694,
      "longitude": -8.08389
    },
    {
      "id": 2274312,
      "name": "Putu",
      "nativeName": "Putu",
      "code": "LR-GG-2274312",
      "countryId": 2275384,
      "countryCode": "LR",
      "stateCode": "LR-GG",
      "latitude": 5.66854,
      "longitude": -8.20401
    },
    {
      "id": 2273657,
      "name": "Tchien",
      "nativeName": "Tchien",
      "code": "LR-GG-2273657",
      "countryId": 2275384,
      "countryCode": "LR",
      "stateCode": "LR-GG",
      "latitude": 6.05828,
      "longitude": -8.13435
    }
  ]
}