{
  "countryId": 2275384,
  "countryCode": "LR",
  "states": [
    {
      "id": 2278324,
      "name": "Bomi County",
      "nativeName": "Bomi County",
      "code": "LR-BM",
      "internalCode": "BM",
      "countryId": 2275384,
      "countryCode": "LR",
      "latitude": 6.73333,
      "longitude": -10.81667
    },
    {
      "id": 2278292,
      "name": "Bong County",
      "nativeName": "Bong County",
      "code": "LR-BG",
      "internalCode": "BG",
      "countryId": 2275384,
      "countryCode": "LR",
      "latitude": 6.96667,
      "longitude": -9.63333
    },
    {
      "id": 2593119,
      "name": "Gbarpolu County",
      "nativeName": "Gbarpolu County",
      "code": "LR-GP",
      "internalCode": "GP",
      "countryId": 2275384,
      "countryCode": "LR",
      "latitude": 7.36667,
      "longitude": -10.31667
    },
    {
      "id": 2276630,
      "name": "Grand Bassa County",
      "nativeName": "Grand Bassa County",
      "code": "LR-GB",
      "internalCode": "GB",
      "countryId": 2275384,
      "countryCode": "LR",
      "latitude": 6.23333,
      "longitude": -9.83333
    },
    {
      "id": 2276627,
      "name": "Grand Cape Mount County",
      "nativeName": "Grand Cape Mount County",
      "code": "LR-CM",
      "internalCode": "CM",
      "countryId": 2275384,
      "countryCode": "LR",
      "latitude": 7.13333,
      "longitude": -11.05
    },
    {
      "id": 2276622,
      "name": "Grand Gedeh County",
      "nativeName": "Grand Gedeh County",
      "code": "LR-GG",
      "internalCode": "GG",
      "countryId": 2275384,
      "countryCode": "LR",
      "latitude": 5.96667,
      "longitude": -8.2
    },
    {
      "id": 2588490,
      "name": "Grand Kru County",
      "nativeName": "Grand Kru County",
      "code": "LR-GK",
      "internalCode": "GK",
      "countryId": 2275384,
      "countryCode": "LR",
      "latitude": 4.78333,
      "longitude": -8.21667
    },
    {
      "id": 2275344,
      "name": "Lofa County",
      "nativeName": "Lofa County",
      "code": "LR-LO",
      "internalCode": "LO",
      "countryId": 2275384,
      "countryCode": "LR",
      "latitude": 8.03333,
      "longitude": -9.85
    },
    {
      "id": 2588491,
      "name": "Margibi County",
      "nativeName": "Margibi County",
      "code": "LR-MG",
      "internalCode": "MG",
      "countryId": 2275384,
      "countryCode": "LR",
      "latitude": 6.55,
      "longitude": -10.31667
    },
    {
      "id": 2275099,
      "name": "Maryland County",
      "nativeName": "Maryland County",
      "code": "LR-MY",
      "internalCode": "MY",
      "countryId": 2275384,
      "countryCode": "LR",
      "latitude": 4.75,
      "longitude": -7.75
    },
    {
      "id": 2274890,
      "name": "Montserrado County",
      "nativeName": "Montserrado County",
      "code": "LR-MO",
      "internalCode": "MO",
      "countryId": 2275384,
      "countryCode": "LR",
      "latitude": 6.5,
      "longitude": -10.56667
    },
    {
      "id": 2274688,
      "name": "Nimba",
      "nativeName": "Nimba County",
      "code": "LR-NI",
      "internalCode": "NI",
      "countryId": 2275384,
      "countryCode": "LR",
      "latitude": 6.81667,
      "longitude": -8.78333
    },
    {
      "id": 2588492,
      "name": "River Cess County",
      "nativeName": "River Cess County",
      "code": "LR-RI",
      "internalCode": "RI",
      "countryId": 2275384,
      "countryCode": "LR",
      "latitude": 5.91667,
      "longitude": -9.36667
    },
    {
      "id": 2593120,
      "name": "River Gee County",
      "nativeName": "River Gee County",
      "code": "LR-RG",
      "internalCode": "RG",
      "countryId": 2275384,
      "countryCode": "LR",
      "latitude": 5.31667,
      "longitude": -7.8
    },
    {
      "id": 2273898,
      "name": "Sinoe County",
      "nativeName": "Sinoe County",
      "code": "LR-SI",
      "internalCode": "SI",
      "countryId": 2275384,
      "countryCode": "LR",
      "latitude": 5.33333,
      "longitude": -8.76667
    }
  ]
}