{
  "stateId": 1484846,
  "stateCode": "UZ-AN",
  "countryCode": "UZ",
  "cities": [
    {
      "id": 1538282,
      "name": "Andijon Shahri",
      "nativeName": "Andijon Shahri",
      "code": "UZ-AN-1538282",
      "countryId": 1512440,
      "countryCode": "UZ",
      "stateCode": "UZ-AN",
      "latitude": 40.78577,
      "longitude": 72.35091
    },
    {
      "id": 1514584,
      "name": "Andijon Tumani",
      "nativeName": "Andijon Tumani",
      "code": "UZ-AN-1514584",
      "countryId": 1512440,
      "countryCode": "UZ",
      "stateCode": "UZ-AN",
      "latitude": 40.8,
      "longitude": 72.41667
    },
    {
      "id": 1513270,
      "name": "Asaka District",
      "nativeName": "Asaka Tumani",
      "code": "UZ-AN-1513270",
      "countryId": 1512440,
      "countryCode": "UZ",
      "stateCode": "UZ-AN",
      "latitude": 40.66667,
      "longitude": 72.25
    },
    {
      "id": 1538283,
      "name": "Asaka Shahri",
      "nativeName": "Asaka Shahri",
      "code": "UZ-AN-1538283",
      "countryId": 1512440,
      "countryCode": "UZ",
      "stateCode": "UZ-AN",
      "latitude": 40.63333,
      "longitude": 72.25
    },
    {
      "id": 1514451,
      "name": "Baliqchi District",
      "nativeName": "Baliqchi Tumani",
      "code": "UZ-AN-1514451",
      "countryId": 1512440,
      "countryCode": "UZ",
      "stateCode": "UZ-AN",
      "latitude": 40.86667,
      "longitude": 72
    },
    {
      "id": 1514336,
      "name": "Bo‘z Tumani",
      "nativeName": "Bo‘z Tumani",
      "code": "UZ-AN-1514336",
      "countryId": 1512440,
      "countryCode": "UZ",
      "stateCode": "UZ-AN",
      "latitude": 40.66667,
      "longitude": 71.91667
    },
    {
      "id": 1538281,
      "name": "Buloqboshi District",
      "nativeName": "Buloqboshi Tumani",
      "code": "UZ-AN-1538281",
      "countryId": 1512440,
      "countryCode": "UZ",
      "stateCode": "UZ-AN",
      "latitude": 40.61667,
      "longitude": 72.46667
    },
    {
      "id": 1513888,
      "name": "Izboskan Tumani",
      "nativeName": "Izboskan Tumani",
      "code": "UZ-AN-1513888",
      "countryId": 1512440,
      "countryCode": "UZ",
      "stateCode": "UZ-AN",
      "latitude": 40.91667,
      "longitude": 72.25
    },
    {
      "id": 1514108,
      "name": "Jalolkuduk Tumani",
      "nativeName": "Jalolkuduk Tumani",
      "code": "UZ-AN-1514108",
      "countryId": 1512440,
      "countryCode": "UZ",
      "stateCode": "UZ-AN",
      "latitude": 40.75,
      "longitude": 72.66667
    },
    {
      "id": 1538285,
      "name": "Khonobod Shahri",
      "nativeName": "Khonobod Shahri",
      "code": "UZ-AN-1538285",
      "countryId": 1512440,
      "countryCode": "UZ",
      "stateCode": "UZ-AN",
      "latitude": 40.79762,
      "longitude": 73.00466
    },
    {
      "id": 1513598,
      "name": "Khŭjaobod Tumani",
      "nativeName": "Khŭjaobod Tumani",
      "code": "UZ-AN-1513598",
      "countryId": 1512440,
      "countryCode": "UZ",
      "stateCode": "UZ-AN",
      "latitude": 40.66667,
      "longitude": 72.58333
    },
    {
      "id": 1513240,
      "name": "Marhamat District",
      "nativeName": "Marhamat Tumani",
      "code": "UZ-AN-1513240",
      "countryId": 1512440,
      "countryCode": "UZ",
      "stateCode": "UZ-AN",
      "latitude": 40.5,
      "longitude": 72.31667
    },
    {
      "id": 1514606,
      "name": "Oltinkŭl Tumani",
      "nativeName": "Oltinkŭl Tumani",
      "code": "UZ-AN-1514606",
      "countryId": 1512440,
      "countryCode": "UZ",
      "stateCode": "UZ-AN",
      "latitude": 40.8,
      "longitude": 72.16667
    },
    {
      "id": 1513039,
      "name": "Pakhtaobod Tumani",
      "nativeName": "Pakhtaobod Tumani",
      "code": "UZ-AN-1513039",
      "countryId": 1512440,
      "countryCode": "UZ",
      "stateCode": "UZ-AN",
      "latitude": 40.93333,
      "longitude": 72.5
    },
    {
      "id": 1538284,
      "name": "Qorasuw Shahri",
      "nativeName": "Qorasuw Shahri",
      "code": "UZ-AN-1538284",
      "countryId": 1512440,
      "countryCode": "UZ",
      "stateCode": "UZ-AN",
      "latitude": 40.7341,
      "longitude": 72.88461
    },
    {
      "id": 1513363,
      "name": "Qŭrghontepa Tumani",
      "nativeName": "Qŭrghontepa Tumani",
      "code": "UZ-AN-1513363",
      "countryId": 1512440,
      "countryCode": "UZ",
      "stateCode": "UZ-AN",
      "latitude": 40.75,
      "longitude": 72.83333
    },
    {
      "id": 1538286,
      "name": "Shahrikhon Shahri",
      "nativeName": "Shahrikhon Shahri",
      "code": "UZ-AN-1538286",
      "countryId": 1512440,
      "countryCode": "UZ",
      "stateCode": "UZ-AN",
      "latitude": 40.71071,
      "longitude": 72.05787
    },
    {
      "id": 1513193,
      "name": "Shahrikhon Tumani",
      "nativeName": "Shahrikhon Tumani",
      "code": "UZ-AN-1513193",
      "countryId": 1512440,
      "countryCode": "UZ",
      "stateCode": "UZ-AN",
      "latitude": 40.71667,
      "longitude": 72.06667
    },
    {
      "id": 7668830,
      "name": "Ulugnar",
      "nativeName": "Ulugnar",
      "code": "UZ-AN-7668830",
      "countryId": 1512440,
      "countryCode": "UZ",
      "stateCode": "UZ-AN",
      "latitude": 40.77187,
      "longitude": 71.67068
    },
    {
      "id": 1513493,
      "name": "Ulug‘nor Tumani",
      "nativeName": "Ulug‘nor Tumani",
      "code": "UZ-AN-1513493",
      "countryId": 1512440,
      "countryCode": "UZ",
      "stateCode": "UZ-AN",
      "latitude": 40.75,
      "longitude": 71.7
    }
  ]
}