{
  "stateId": 1484842,
  "stateCode": "UZ-NG",
  "countryCode": "UZ",
  "cities": [
    {
      "id": 1538272,
      "name": "Chortoq Tumani",
      "nativeName": "Chortoq Tumani",
      "code": "UZ-NG-1538272",
      "countryId": 1512440,
      "countryCode": "UZ",
      "stateCode": "UZ-NG",
      "latitude": 41.16667,
      "longitude": 71.83333
    },
    {
      "id": 1514190,
      "name": "Chust District",
      "nativeName": "Chust Tumani",
      "code": "UZ-NG-1514190",
      "countryId": 1512440,
      "countryCode": "UZ",
      "stateCode": "UZ-NG",
      "latitude": 40.97095,
      "longitude": 71.24005
    },
    {
      "id": 1513713,
      "name": "Kosonsoy Tumani",
      "nativeName": "Kosonsoy Tumani",
      "code": "UZ-NG-1513713",
      "countryId": 1512440,
      "countryCode": "UZ",
      "stateCode": "UZ-NG",
      "latitude": 41.23301,
      "longitude": 71.58279
    },
    {
      "id": 1512289,
      "name": "Mingbuloq Tumani",
      "nativeName": "Mingbuloq Tumani",
      "code": "UZ-NG-1512289",
      "countryId": 1512440,
      "countryCode": "UZ",
      "stateCode": "UZ-NG",
      "latitude": 40.73734,
      "longitude": 71.22852
    },
    {
      "id": 1513156,
      "name": "Namangan District",
      "nativeName": "Namangan Tumani",
      "code": "UZ-NG-1513156",
      "countryId": 1512440,
      "countryCode": "UZ",
      "stateCode": "UZ-NG",
      "latitude": 40.92007,
      "longitude": 71.64717
    },
    {
      "id": 1513144,
      "name": "Norin Tumani",
      "nativeName": "Norin Tumani",
      "code": "UZ-NG-1513144",
      "countryId": 1512440,
      "countryCode": "UZ",
      "stateCode": "UZ-NG",
      "latitude": 40.91667,
      "longitude": 72
    },
    {
      "id": 11611821,
      "name": "Pap District",
      "nativeName": "Pap District",
      "code": "UZ-NG-11611821",
      "countryId": 1512440,
      "countryCode": "UZ",
      "stateCode": "UZ-NG",
      "latitude": 40.8667,
      "longitude": 71.2
    },
    {
      "id": 1513021,
      "name": "Pop Tumani",
      "nativeName": "Pop Tumani",
      "code": "UZ-NG-1513021",
      "countryId": 1512440,
      "countryCode": "UZ",
      "stateCode": "UZ-NG",
      "latitude": 40.86654,
      "longitude": 71.11478
    },
    {
      "id": 1512548,
      "name": "Tŭraqŭrghon Tumani",
      "nativeName": "Tŭraqŭrghon Tumani",
      "code": "UZ-NG-1512548",
      "countryId": 1512440,
      "countryCode": "UZ",
      "stateCode": "UZ-NG",
      "latitude": 41.0072,
      "longitude": 71.47176
    },
    {
      "id": 1512500,
      "name": "Uchqŭrghon Tumani",
      "nativeName": "Uchqŭrghon Tumani",
      "code": "UZ-NG-1512500",
      "countryId": 1512440,
      "countryCode": "UZ",
      "stateCode": "UZ-NG",
      "latitude": 41.07716,
      "longitude": 72.1082
    },
    {
      "id": 1512448,
      "name": "Uychi Tumani",
      "nativeName": "Uychi Tumani",
      "code": "UZ-NG-1512448",
      "countryId": 1512440,
      "countryCode": "UZ",
      "stateCode": "UZ-NG",
      "latitude": 41.04128,
      "longitude": 71.89873
    },
    {
      "id": 1512349,
      "name": "Yangiqo‘rg‘on Tumani",
      "nativeName": "Yangiqo‘rg‘on Tumani",
      "code": "UZ-NG-1512349",
      "countryId": 1512440,
      "countryCode": "UZ",
      "stateCode": "UZ-NG",
      "latitude": 41.25,
      "longitude": 71.75
    }
  ]
}