{
  "stateId": 1484840,
  "stateCode": "UZ-SI",
  "countryCode": "UZ",
  "cities": [
    {
      "id": 1538253,
      "name": "Bakht Shahri",
      "nativeName": "Bakht Shahri",
      "code": "UZ-SI-1538253",
      "countryId": 1512440,
      "countryCode": "UZ",
      "stateCode": "UZ-SI",
      "latitude": 40.7184,
      "longitude": 68.69463
    },
    {
      "id": 7668840,
      "name": "Bayaut Shahri",
      "nativeName": "Bayaut",
      "code": "UZ-SI-7668840",
      "countryId": 1512440,
      "countryCode": "UZ",
      "stateCode": "UZ-SI",
      "latitude": 40.35237,
      "longitude": 68.9559
    },
    {
      "id": 1514430,
      "name": "Bayaut Tumani",
      "nativeName": "Boyowut Tumani",
      "code": "UZ-SI-1514430",
      "countryId": 1512440,
      "countryCode": "UZ",
      "stateCode": "UZ-SI",
      "latitude": 40.36667,
      "longitude": 69
    },
    {
      "id": 1538249,
      "name": "Guliston Shahri",
      "nativeName": "Guliston Shahri",
      "code": "UZ-SI-1538249",
      "countryId": 1512440,
      "countryCode": "UZ",
      "stateCode": "UZ-SI",
      "latitude": 40.48972,
      "longitude": 68.78417
    },
    {
      "id": 1513967,
      "name": "Guliston Tumani",
      "nativeName": "Guliston Tumani",
      "code": "UZ-SI-1513967",
      "countryId": 1512440,
      "countryCode": "UZ",
      "stateCode": "UZ-SI",
      "latitude": 40.5,
      "longitude": 68.91667
    },
    {
      "id": 1513618,
      "name": "Khovos Tumani",
      "nativeName": "Khovos Tumani",
      "code": "UZ-SI-1513618",
      "countryId": 1512440,
      "countryCode": "UZ",
      "stateCode": "UZ-SI",
      "latitude": 40.26722,
      "longitude": 68.905
    },
    {
      "id": 1538246,
      "name": "Mehnatobod Tumani",
      "nativeName": "Mehnatobod Tumani",
      "code": "UZ-SI-1538246",
      "countryId": 1512440,
      "countryCode": "UZ",
      "stateCode": "UZ-SI",
      "latitude": 40.33333,
      "longitude": 68.66667
    },
    {
      "id": 1513490,
      "name": "Mirzaobod Tumani",
      "nativeName": "Mirzaobod Tumani",
      "code": "UZ-SI-1513490",
      "countryId": 1512440,
      "countryCode": "UZ",
      "stateCode": "UZ-SI",
      "latitude": 40.5,
      "longitude": 68.58333
    },
    {
      "id": 1514705,
      "name": "Oqoltin Tumani",
      "nativeName": "Oqoltin Tumani",
      "code": "UZ-SI-1514705",
      "countryId": 1512440,
      "countryCode": "UZ",
      "stateCode": "UZ-SI",
      "latitude": 40.5,
      "longitude": 68.33333
    },
    {
      "id": 1512404,
      "name": "Sayhunobod Tumani",
      "nativeName": "Sayhunobod Tumani",
      "code": "UZ-SI-1512404",
      "countryId": 1512440,
      "countryCode": "UZ",
      "stateCode": "UZ-SI",
      "latitude": 40.71667,
      "longitude": 68.85
    },
    {
      "id": 1513952,
      "name": "Sharof-Rashidow Tumani",
      "nativeName": "Sharof-Rashidow Tumani",
      "code": "UZ-SI-1513952",
      "countryId": 1512440,
      "countryCode": "UZ",
      "stateCode": "UZ-SI",
      "latitude": 40.33333,
      "longitude": 68.33333
    },
    {
      "id": 1538251,
      "name": "Shirin Shahri",
      "nativeName": "Shirin Shahri",
      "code": "UZ-SI-1538251",
      "countryId": 1512440,
      "countryCode": "UZ",
      "stateCode": "UZ-SI",
      "latitude": 40.23333,
      "longitude": 69.12
    },
    {
      "id": 1512717,
      "name": "Sirdaryo District",
      "nativeName": "Sirdaryo Tumani",
      "code": "UZ-SI-1512717",
      "countryId": 1512440,
      "countryCode": "UZ",
      "stateCode": "UZ-SI",
      "latitude": 40.83333,
      "longitude": 68.66667
    },
    {
      "id": 1538250,
      "name": "Sirdaryo Shahri",
      "nativeName": "Sirdaryo Shahri",
      "code": "UZ-SI-1538250",
      "countryId": 1512440,
      "countryCode": "UZ",
      "stateCode": "UZ-SI",
      "latitude": 40.83948,
      "longitude": 68.66191
    },
    {
      "id": 1538252,
      "name": "Yangiyer Shahri",
      "nativeName": "Yangiyer Shahri",
      "code": "UZ-SI-1538252",
      "countryId": 1512440,
      "countryCode": "UZ",
      "stateCode": "UZ-SI",
      "latitude": 40.2769,
      "longitude": 68.82548
    }
  ]
}