{
  "stateId": 1114926,
  "stateCode": "UZ-SU",
  "countryCode": "UZ",
  "cities": [
    {
      "id": 1217872,
      "name": "Angor District",
      "nativeName": "Angor Tumani",
      "code": "UZ-SU-1217872",
      "countryId": 1512440,
      "countryCode": "UZ",
      "stateCode": "UZ-SU",
      "latitude": 37.41667,
      "longitude": 67.16667
    },
    {
      "id": 1346534,
      "name": "Bandikhon Tumani",
      "nativeName": "Bandikhon Tumani",
      "code": "UZ-SU-1346534",
      "countryId": 1512440,
      "countryCode": "UZ",
      "stateCode": "UZ-SU",
      "latitude": 37.83333,
      "longitude": 67.36667
    },
    {
      "id": 1217733,
      "name": "Boysun District",
      "nativeName": "Boysun Tumani",
      "code": "UZ-SU-1217733",
      "countryId": 1512440,
      "countryCode": "UZ",
      "stateCode": "UZ-SU",
      "latitude": 38.25,
      "longitude": 67.25
    },
    {
      "id": 1346537,
      "name": "Denov Shahri",
      "nativeName": "Denov Shahri",
      "code": "UZ-SU-1346537",
      "countryId": 1512440,
      "countryCode": "UZ",
      "stateCode": "UZ-SU",
      "latitude": 38.26667,
      "longitude": 67.9
    },
    {
      "id": 1217476,
      "name": "Denov Tumani",
      "nativeName": "Denov Tumani",
      "code": "UZ-SU-1217476",
      "countryId": 1512440,
      "countryCode": "UZ",
      "stateCode": "UZ-SU",
      "latitude": 38.32684,
      "longitude": 67.83372
    },
    {
      "id": 1217391,
      "name": "Jarqo‘rg‘on Tumani",
      "nativeName": "Jarqo‘rg‘on Tumani",
      "code": "UZ-SU-1217391",
      "countryId": 1512440,
      "countryCode": "UZ",
      "stateCode": "UZ-SU",
      "latitude": 37.5,
      "longitude": 67.5
    },
    {
      "id": 1217341,
      "name": "Muzrabod Tumani",
      "nativeName": "Muzrabod Tumani",
      "code": "UZ-SU-1217341",
      "countryId": 1512440,
      "countryCode": "UZ",
      "stateCode": "UZ-SU",
      "latitude": 37.41667,
      "longitude": 66.83333
    },
    {
      "id": 1217894,
      "name": "Oltinsoy District",
      "nativeName": "Oltinsoy Tumani",
      "code": "UZ-SU-1217894",
      "countryId": 1512440,
      "countryCode": "UZ",
      "stateCode": "UZ-SU",
      "latitude": 38.2,
      "longitude": 67.75
    },
    {
      "id": 1216571,
      "name": "Qiziriq Tumani",
      "nativeName": "Qiziriq Tumani",
      "code": "UZ-SU-1216571",
      "countryId": 1512440,
      "countryCode": "UZ",
      "stateCode": "UZ-SU",
      "latitude": 37.66667,
      "longitude": 67.25
    },
    {
      "id": 1216685,
      "name": "Qumqŭrghon Tumani",
      "nativeName": "Qumqŭrghon Tumani",
      "code": "UZ-SU-1216685",
      "countryId": 1512440,
      "countryCode": "UZ",
      "stateCode": "UZ-SU",
      "latitude": 38,
      "longitude": 67.58333
    },
    {
      "id": 1216243,
      "name": "Sariosiyo Tumani",
      "nativeName": "Sariosiyo Tumani",
      "code": "UZ-SU-1216243",
      "countryId": 1512440,
      "countryCode": "UZ",
      "stateCode": "UZ-SU",
      "latitude": 38.66667,
      "longitude": 67.8
    },
    {
      "id": 1216154,
      "name": "Sherobod District",
      "nativeName": "Sherobod Tumani",
      "code": "UZ-SU-1216154",
      "countryId": 1512440,
      "countryCode": "UZ",
      "stateCode": "UZ-SU",
      "latitude": 37.75,
      "longitude": 66.83333
    },
    {
      "id": 1216113,
      "name": "Sho‘rchi Tumani",
      "nativeName": "Sho‘rchi Tumani",
      "code": "UZ-SU-1216113",
      "countryId": 1512440,
      "countryCode": "UZ",
      "stateCode": "UZ-SU",
      "latitude": 38,
      "longitude": 67.83333
    },
    {
      "id": 1346536,
      "name": "Termiz Shahri",
      "nativeName": "Termiz Shahri",
      "code": "UZ-SU-1346536",
      "countryId": 1512440,
      "countryCode": "UZ",
      "stateCode": "UZ-SU",
      "latitude": 37.23917,
      "longitude": 67.27639
    },
    {
      "id": 1346497,
      "name": "Uzun District",
      "nativeName": "Uzun Tumani",
      "code": "UZ-SU-1346497",
      "countryId": 1512440,
      "countryCode": "UZ",
      "stateCode": "UZ-SU",
      "latitude": 38.16667,
      "longitude": 68.16667
    },
    {
      "id": 1538254,
      "name": "Yangiyŭl Tumani",
      "nativeName": "Yangiyŭl Tumani",
      "code": "UZ-SU-1538254",
      "countryId": 1512440,
      "countryCode": "UZ",
      "stateCode": "UZ-SU",
      "latitude": 41.16667,
      "longitude": 69
    }
  ]
}