{
  "countryId": 1512440,
  "countryCode": "UZ",
  "states": [
    {
      "id": 1484846,
      "name": "Andijan Region",
      "nativeName": "Andijan Region",
      "code": "UZ-AN",
      "internalCode": "AN",
      "countryId": 1512440,
      "countryCode": "UZ",
      "latitude": 40.75,
      "longitude": 72.33333
    },
    {
      "id": 1114929,
      "name": "Bukhara",
      "nativeName": "Bukhara Region",
      "code": "UZ-BU",
      "internalCode": "BU",
      "countryId": 1512440,
      "countryCode": "UZ",
      "latitude": 40,
      "longitude": 64
    },
    {
      "id": 1484845,
      "name": "Fergana",
      "nativeName": "Fergana Region",
      "code": "UZ-FA",
      "internalCode": "FA",
      "countryId": 1512440,
      "countryCode": "UZ",
      "latitude": 40.5,
      "longitude": 71.25
    },
    {
      "id": 1484844,
      "name": "Jizzakh Region",
      "nativeName": "Jizzakh Region",
      "code": "UZ-JI",
      "internalCode": "JI",
      "countryId": 1512440,
      "countryCode": "UZ",
      "latitude": 40.33333,
      "longitude": 67.66667
    },
    {
      "id": 453752,
      "name": "Karakalpakstan",
      "nativeName": "Karakalpakstan",
      "code": "UZ-QR",
      "internalCode": "QR",
      "countryId": 1512440,
      "countryCode": "UZ",
      "latitude": 44.21636,
      "longitude": 58.82986
    },
    {
      "id": 1484842,
      "name": "Namangan",
      "nativeName": "Namangan Region",
      "code": "UZ-NG",
      "internalCode": "NG",
      "countryId": 1512440,
      "countryCode": "UZ",
      "latitude": 40.99747,
      "longitude": 71.24784
    },
    {
      "id": 1484841,
      "name": "Navoiy Region",
      "nativeName": "Navoiy Region",
      "code": "UZ-NW",
      "internalCode": "NW",
      "countryId": 1512440,
      "countryCode": "UZ",
      "latitude": 42,
      "longitude": 64
    },
    {
      "id": 1114928,
      "name": "Qashqadaryo",
      "nativeName": "Qashqadaryo Region",
      "code": "UZ-QA",
      "internalCode": "QA",
      "countryId": 1512440,
      "countryCode": "UZ",
      "latitude": 38.58333,
      "longitude": 66
    },
    {
      "id": 1114927,
      "name": "Samarqand Region",
      "nativeName": "Samarqand Region",
      "code": "UZ-SA",
      "internalCode": "SA",
      "countryId": 1512440,
      "countryCode": "UZ",
      "latitude": 39.8,
      "longitude": 66.43333
    },
    {
      "id": 1484840,
      "name": "Sirdaryo Region",
      "nativeName": "Sirdaryo Region",
      "code": "UZ-SI",
      "internalCode": "SI",
      "countryId": 1512440,
      "countryCode": "UZ",
      "latitude": 40.43333,
      "longitude": 68.66667
    },
    {
      "id": 1114926,
      "name": "Surxondaryo Region",
      "nativeName": "Surxondaryo Region",
      "code": "UZ-SU",
      "internalCode": "SU",
      "countryId": 1512440,
      "countryCode": "UZ",
      "latitude": 38,
      "longitude": 67.5
    },
    {
      "id": 1484839,
      "name": "Tashkent",
      "nativeName": "Tashkent",
      "code": "UZ-TK",
      "internalCode": "TK",
      "countryId": 1512440,
      "countryCode": "UZ",
      "latitude": 41.33333,
      "longitude": 69.25
    },
    {
      "id": 1484838,
      "name": "Tashkent Region",
      "nativeName": "Tashkent Region",
      "code": "UZ-TO",
      "internalCode": "TO",
      "countryId": 1512440,
      "countryCode": "UZ",
      "latitude": 41.23333,
      "longitude": 69.8
    },
    {
      "id": 1484843,
      "name": "Xorazm Region",
      "nativeName": "Xorazm Region",
      "code": "UZ-XO",
      "internalCode": "XO",
      "countryId": 1512440,
      "countryCode": "UZ",
      "latitude": 41.5,
      "longitude": 60.5
    }
  ]
}