{
  "stateId": 6940571,
  "stateCode": "YE-SA",
  "countryCode": "YE",
  "cities": [
    {
      "id": 6940657,
      "name": "Al Wahdah District",
      "nativeName": "Al Wahdah",
      "code": "YE-SA-6940657",
      "countryId": 69543,
      "countryCode": "YE",
      "stateCode": "YE-SA",
      "latitude": 15.3352,
      "longitude": 44.1868
    },
    {
      "id": 6940662,
      "name": "As Sabain",
      "nativeName": "As Sabain",
      "code": "YE-SA-6940662",
      "countryId": 69543,
      "countryCode": "YE",
      "stateCode": "YE-SA",
      "latitude": 15.3145,
      "longitude": 44.2198
    },
    {
      "id": 6940660,
      "name": "Assafi'yah District",
      "nativeName": "Assafi'yah",
      "code": "YE-SA-6940660",
      "countryId": 69543,
      "countryCode": "YE",
      "stateCode": "YE-SA",
      "latitude": 15.3431,
      "longitude": 44.2355
    },
    {
      "id": 6940665,
      "name": "At Tahrir District",
      "nativeName": "At Tahrir",
      "code": "YE-SA-6940665",
      "countryId": 69543,
      "countryCode": "YE",
      "stateCode": "YE-SA",
      "latitude": 15.354,
      "longitude": 44.1979
    },
    {
      "id": 6940659,
      "name": "Ath'thaorah District",
      "nativeName": "Ath'thaorah",
      "code": "YE-SA-6940659",
      "countryId": 69543,
      "countryCode": "YE",
      "stateCode": "YE-SA",
      "latitude": 15.3911,
      "longitude": 44.1929
    },
    {
      "id": 6940664,
      "name": "Az'zal District",
      "nativeName": "Az'zal",
      "code": "YE-SA-6940664",
      "countryId": 69543,
      "countryCode": "YE",
      "stateCode": "YE-SA",
      "latitude": 15.3562,
      "longitude": 44.2385
    },
    {
      "id": 6940595,
      "name": "Bani Al Harith District",
      "nativeName": "Bani Al Harith",
      "code": "YE-SA-6940595",
      "countryId": 69543,
      "countryCode": "YE",
      "stateCode": "YE-SA",
      "latitude": 15.5062,
      "longitude": 44.2601
    },
    {
      "id": 6940661,
      "name": "Ma'ain District",
      "nativeName": "Ma'ain",
      "code": "YE-SA-6940661",
      "countryId": 69543,
      "countryCode": "YE",
      "stateCode": "YE-SA",
      "latitude": 15.3706,
      "longitude": 44.1659
    },
    {
      "id": 6940658,
      "name": "Old City",
      "nativeName": "Old City",
      "code": "YE-SA-6940658",
      "countryId": 69543,
      "countryCode": "YE",
      "stateCode": "YE-SA",
      "latitude": 15.3551,
      "longitude": 44.2145
    },
    {
      "id": 6940663,
      "name": "Shu'aub District",
      "nativeName": "Shu'aub",
      "code": "YE-SA-6940663",
      "countryId": 69543,
      "countryCode": "YE",
      "stateCode": "YE-SA",
      "latitude": 15.3856,
      "longitude": 44.2241
    }
  ]
}