{
  "stateId": 2847618,
  "stateCode": "DE-RP",
  "countryCode": "DE",
  "cities": [
    {
      "id": 2936213,
      "name": "Donnersbergkreis",
      "nativeName": "Donnersbergkreis",
      "code": "DE-RP-2936213",
      "countryId": 2921044,
      "countryCode": "DE",
      "stateCode": "DE-RP",
      "latitude": 49.63444,
      "longitude": 7.91639
    },
    {
      "id": 3247913,
      "name": "Eifelkreis Bitburg-Prüm",
      "nativeName": "Eifelkreis Bitburg-Prüm",
      "code": "DE-RP-3247913",
      "countryId": 2921044,
      "countryCode": "DE",
      "stateCode": "DE-RP",
      "latitude": 50.07583,
      "longitude": 6.38
    },
    {
      "id": 2925546,
      "name": "Kreisfreie Stadt Frankenthal (Pfalz)",
      "nativeName": "Kreisfreie Stadt Frankenthal (Pfalz)",
      "code": "DE-RP-2925546",
      "countryId": 2921044,
      "countryCode": "DE",
      "stateCode": "DE-RP",
      "latitude": 49.54361,
      "longitude": 8.36389
    },
    {
      "id": 3247900,
      "name": "Kreisfreie Stadt Kaiserslautern",
      "nativeName": "Kreisfreie Stadt Kaiserslautern",
      "code": "DE-RP-3247900",
      "countryId": 2921044,
      "countryCode": "DE",
      "stateCode": "DE-RP",
      "latitude": 49.44,
      "longitude": 7.76028
    },
    {
      "id": 3247459,
      "name": "Kreisfreie Stadt Koblenz",
      "nativeName": "Kreisfreie Stadt Koblenz",
      "code": "DE-RP-3247459",
      "countryId": 2921044,
      "countryCode": "DE",
      "stateCode": "DE-RP",
      "latitude": 50.35806,
      "longitude": 7.59472
    },
    {
      "id": 3247905,
      "name": "Kreisfreie Stadt Landau in der Pfalz",
      "nativeName": "Kreisfreie Stadt Landau in der Pfalz",
      "code": "DE-RP-3247905",
      "countryId": 2921044,
      "countryCode": "DE",
      "stateCode": "DE-RP",
      "latitude": 49.20222,
      "longitude": 8.1275
    },
    {
      "id": 3247910,
      "name": "Kreisfreie Stadt Ludwigshafen am Rhein",
      "nativeName": "Kreisfreie Stadt Ludwigshafen am Rhein",
      "code": "DE-RP-3247910",
      "countryId": 2921044,
      "countryCode": "DE",
      "stateCode": "DE-RP",
      "latitude": 49.47806,
      "longitude": 8.39083
    },
    {
      "id": 3247465,
      "name": "Kreisfreie Stadt Mainz",
      "nativeName": "Kreisfreie Stadt Mainz",
      "code": "DE-RP-3247465",
      "countryId": 2921044,
      "countryCode": "DE",
      "stateCode": "DE-RP",
      "latitude": 49.99167,
      "longitude": 8.25361
    },
    {
      "id": 3247906,
      "name": "Kreisfreie Stadt Neustadt an der Weinstraße",
      "nativeName": "Kreisfreie Stadt Neustadt an der Weinstraße",
      "code": "DE-RP-3247906",
      "countryId": 2921044,
      "countryCode": "DE",
      "stateCode": "DE-RP",
      "latitude": 49.34882,
      "longitude": 8.16517
    },
    {
      "id": 3247903,
      "name": "Kreisfreie Stadt Pirmasens",
      "nativeName": "Kreisfreie Stadt Pirmasens",
      "code": "DE-RP-3247903",
      "countryId": 2921044,
      "countryCode": "DE",
      "stateCode": "DE-RP",
      "latitude": 49.20972,
      "longitude": 7.60472
    },
    {
      "id": 3247908,
      "name": "Kreisfreie Stadt Speyer",
      "nativeName": "Kreisfreie Stadt Speyer",
      "code": "DE-RP-3247908",
      "countryId": 2921044,
      "countryCode": "DE",
      "stateCode": "DE-RP",
      "latitude": 49.32361,
      "longitude": 8.42861
    },
    {
      "id": 3247911,
      "name": "Kreisfreie Stadt Trier",
      "nativeName": "Kreisfreie Stadt Trier",
      "code": "DE-RP-3247911",
      "countryId": 2921044,
      "countryCode": "DE",
      "stateCode": "DE-RP",
      "latitude": 49.76917,
      "longitude": 6.675
    },
    {
      "id": 3247467,
      "name": "Kreisfreie Stadt Worms",
      "nativeName": "Kreisfreie Stadt Worms",
      "code": "DE-RP-3247467",
      "countryId": 2921044,
      "countryCode": "DE",
      "stateCode": "DE-RP",
      "latitude": 49.66306,
      "longitude": 8.33583
    },
    {
      "id": 3247902,
      "name": "Kreisfreie Stadt Zweibrücken",
      "nativeName": "Kreisfreie Stadt Zweibrücken",
      "code": "DE-RP-3247902",
      "countryId": 2921044,
      "countryCode": "DE",
      "stateCode": "DE-RP",
      "latitude": 49.25806,
      "longitude": 7.37944
    },
    {
      "id": 3247460,
      "name": "Landkreis Ahrweiler",
      "nativeName": "Landkreis Ahrweiler",
      "code": "DE-RP-3247460",
      "countryId": 2921044,
      "countryCode": "DE",
      "stateCode": "DE-RP",
      "latitude": 50.47722,
      "longitude": 7.04917
    },
    {
      "id": 3247456,
      "name": "Landkreis Altenkirchen",
      "nativeName": "Landkreis Altenkirchen",
      "code": "DE-RP-3247456",
      "countryId": 2921044,
      "countryCode": "DE",
      "stateCode": "DE-RP",
      "latitude": 50.77917,
      "longitude": 7.75
    },
    {
      "id": 2956708,
      "name": "Landkreis Alzey-Worms",
      "nativeName": "Landkreis Alzey-Worms",
      "code": "DE-RP-2956708",
      "countryId": 2921044,
      "countryCode": "DE",
      "stateCode": "DE-RP",
      "latitude": 49.74944,
      "longitude": 8.15
    },
    {
      "id": 2953523,
      "name": "Landkreis Bad Dürkheim",
      "nativeName": "Landkreis Bad Dürkheim",
      "code": "DE-RP-2953523",
      "countryId": 2921044,
      "countryCode": "DE",
      "stateCode": "DE-RP",
      "latitude": 49.49917,
      "longitude": 8.1525
    },
    {
      "id": 2953415,
      "name": "Landkreis Bad Kreuznach",
      "nativeName": "Landkreis Bad Kreuznach",
      "code": "DE-RP-2953415",
      "countryId": 2921044,
      "countryCode": "DE",
      "stateCode": "DE-RP",
      "latitude": 49.82389,
      "longitude": 7.69833
    },
    {
      "id": 3247912,
      "name": "Landkreis Bernkastel-Wittlich",
      "nativeName": "Landkreis Bernkastel-Wittlich",
      "code": "DE-RP-3247912",
      "countryId": 2921044,
      "countryCode": "DE",
      "stateCode": "DE-RP",
      "latitude": 49.94306,
      "longitude": 6.98083
    },
    {
      "id": 2948589,
      "name": "Landkreis Birkenfeld",
      "nativeName": "Landkreis Birkenfeld",
      "code": "DE-RP-2948589",
      "countryId": 2921044,
      "countryCode": "DE",
      "stateCode": "DE-RP",
      "latitude": 49.71944,
      "longitude": 7.28139
    },
    {
      "id": 3247464,
      "name": "Landkreis Cochem-Zell",
      "nativeName": "Landkreis Cochem-Zell",
      "code": "DE-RP-3247464",
      "countryId": 2921044,
      "countryCode": "DE",
      "stateCode": "DE-RP",
      "latitude": 50.14611,
      "longitude": 7.17917
    },
    {
      "id": 3247907,
      "name": "Landkreis Germersheim",
      "nativeName": "Landkreis Germersheim",
      "code": "DE-RP-3247907",
      "countryId": 2921044,
      "countryCode": "DE",
      "stateCode": "DE-RP",
      "latitude": 49.14333,
      "longitude": 8.29889
    },
    {
      "id": 2894002,
      "name": "Landkreis Kaiserslautern",
      "nativeName": "Landkreis Kaiserslautern",
      "code": "DE-RP-2894002",
      "countryId": 2921044,
      "countryCode": "DE",
      "stateCode": "DE-RP",
      "latitude": 49.4565,
      "longitude": 7.67253
    },
    {
      "id": 3247901,
      "name": "Landkreis Kusel",
      "nativeName": "Landkreis Kusel",
      "code": "DE-RP-3247901",
      "countryId": 2921044,
      "countryCode": "DE",
      "stateCode": "DE-RP",
      "latitude": 49.57111,
      "longitude": 7.49917
    },
    {
      "id": 3247466,
      "name": "Landkreis Mainz-Bingen",
      "nativeName": "Landkreis Mainz-Bingen",
      "code": "DE-RP-3247466",
      "countryId": 2921044,
      "countryCode": "DE",
      "stateCode": "DE-RP",
      "latitude": 49.9375,
      "longitude": 8.11361
    },
    {
      "id": 3247461,
      "name": "Landkreis Mayen-Koblenz",
      "nativeName": "Landkreis Mayen-Koblenz",
      "code": "DE-RP-3247461",
      "countryId": 2921044,
      "countryCode": "DE",
      "stateCode": "DE-RP",
      "latitude": 50.33333,
      "longitude": 7.31722
    },
    {
      "id": 3247458,
      "name": "Landkreis Neuwied",
      "nativeName": "Landkreis Neuwied",
      "code": "DE-RP-3247458",
      "countryId": 2921044,
      "countryCode": "DE",
      "stateCode": "DE-RP",
      "latitude": 50.53944,
      "longitude": 7.47806
    },
    {
      "id": 2825001,
      "name": "Landkreis Südliche Weinstraße",
      "nativeName": "Landkreis Südliche Weinstraße",
      "code": "DE-RP-2825001",
      "countryId": 2921044,
      "countryCode": "DE",
      "stateCode": "DE-RP",
      "latitude": 49.21746,
      "longitude": 8.04752
    },
    {
      "id": 2821160,
      "name": "Landkreis Trier-Saarburg",
      "nativeName": "Landkreis Trier-Saarburg",
      "code": "DE-RP-2821160",
      "countryId": 2921044,
      "countryCode": "DE",
      "stateCode": "DE-RP",
      "latitude": 49.70722,
      "longitude": 6.71972
    },
    {
      "id": 3247463,
      "name": "Rhein-Hunsrück-Kreis",
      "nativeName": "Rhein-Hunsrück-Kreis",
      "code": "DE-RP-3247463",
      "countryId": 2921044,
      "countryCode": "DE",
      "stateCode": "DE-RP",
      "latitude": 50.06778,
      "longitude": 7.54667
    },
    {
      "id": 3247462,
      "name": "Rhein-Lahn-Kreis",
      "nativeName": "Rhein-Lahn-Kreis",
      "code": "DE-RP-3247462",
      "countryId": 2921044,
      "countryCode": "DE",
      "stateCode": "DE-RP",
      "latitude": 50.26889,
      "longitude": 7.86583
    },
    {
      "id": 3247909,
      "name": "Rhein-Pfalz-Kreis",
      "nativeName": "Rhein-Pfalz-Kreis",
      "code": "DE-RP-3247909",
      "countryId": 2921044,
      "countryCode": "DE",
      "stateCode": "DE-RP",
      "latitude": 49.4275,
      "longitude": 8.34361
    },
    {
      "id": 3247904,
      "name": "Südwestpfalz",
      "nativeName": "Südwestpfalz",
      "code": "DE-RP-3247904",
      "countryId": 2921044,
      "countryCode": "DE",
      "stateCode": "DE-RP",
      "latitude": 49.22722,
      "longitude": 7.67944
    },
    {
      "id": 3247914,
      "name": "Vulkaneifel",
      "nativeName": "Vulkaneifel",
      "code": "DE-RP-3247914",
      "countryId": 2921044,
      "countryCode": "DE",
      "stateCode": "DE-RP",
      "latitude": 50.2525,
      "longitude": 6.74806
    },
    {
      "id": 3247457,
      "name": "Westerwaldkreis",
      "nativeName": "Westerwaldkreis",
      "code": "DE-RP-3247457",
      "countryId": 2921044,
      "countryCode": "DE",
      "stateCode": "DE-RP",
      "latitude": 50.52222,
      "longitude": 7.87028
    }
  ]
}