{
  "stateId": 2081175,
  "stateCode": "FM-YAP",
  "countryCode": "FM",
  "cities": [
    {
      "id": 7626936,
      "name": "Dalipebinaw Municipality",
      "nativeName": "Dalipebinaw Municipality",
      "code": "FM-YAP-7626936",
      "countryId": 2081918,
      "countryCode": "FM",
      "stateCode": "FM-YAP",
      "latitude": 9.52229,
      "longitude": 138.0854
    },
    {
      "id": 7626937,
      "name": "Eauripik Municipality",
      "nativeName": "Eauripik Municipality",
      "code": "FM-YAP-7626937",
      "countryId": 2081918,
      "countryCode": "FM",
      "stateCode": "FM-YAP",
      "latitude": 6.68299,
      "longitude": 143.07803
    },
    {
      "id": 7626938,
      "name": "Elato Municipality",
      "nativeName": "Elato Municipality",
      "code": "FM-YAP-7626938",
      "countryId": 2081918,
      "countryCode": "FM",
      "stateCode": "FM-YAP",
      "latitude": 7.51236,
      "longitude": 146.17181
    },
    {
      "id": 7626939,
      "name": "Fais Municipality",
      "nativeName": "Fais Municipality",
      "code": "FM-YAP-7626939",
      "countryId": 2081918,
      "countryCode": "FM",
      "stateCode": "FM-YAP",
      "latitude": 9.766,
      "longitude": 140.519
    },
    {
      "id": 7626940,
      "name": "Fanif Municipality",
      "nativeName": "Fanif Municipality",
      "code": "FM-YAP-7626940",
      "countryId": 2081918,
      "countryCode": "FM",
      "stateCode": "FM-YAP",
      "latitude": 9.56056,
      "longitude": 138.11333
    },
    {
      "id": 7626941,
      "name": "Faraulep Municipality",
      "nativeName": "Faraulep Municipality",
      "code": "FM-YAP-7626941",
      "countryId": 2081918,
      "countryCode": "FM",
      "stateCode": "FM-YAP",
      "latitude": 8.588,
      "longitude": 144.5065
    },
    {
      "id": 7626942,
      "name": "Gaferut Municipality",
      "nativeName": "Gaferut Municipality",
      "code": "FM-YAP-7626942",
      "countryId": 2081918,
      "countryCode": "FM",
      "stateCode": "FM-YAP",
      "latitude": 9.228,
      "longitude": 145.384
    },
    {
      "id": 7626943,
      "name": "Gagil Municipality",
      "nativeName": "Gagil Municipality",
      "code": "FM-YAP-7626943",
      "countryId": 2081918,
      "countryCode": "FM",
      "stateCode": "FM-YAP",
      "latitude": 9.54722,
      "longitude": 138.19028
    },
    {
      "id": 7626944,
      "name": "Gilman Municipality",
      "nativeName": "Gilman Municipality",
      "code": "FM-YAP-7626944",
      "countryId": 2081918,
      "countryCode": "FM",
      "stateCode": "FM-YAP",
      "latitude": 9.44611,
      "longitude": 138.06389
    },
    {
      "id": 7626945,
      "name": "Ifalik Municipality",
      "nativeName": "Ifalik Municipality",
      "code": "FM-YAP-7626945",
      "countryId": 2081918,
      "countryCode": "FM",
      "stateCode": "FM-YAP",
      "latitude": 7.24898,
      "longitude": 144.45527
    },
    {
      "id": 7626946,
      "name": "Kanifay Municipality",
      "nativeName": "Kanifay Municipality",
      "code": "FM-YAP-7626946",
      "countryId": 2081918,
      "countryCode": "FM",
      "stateCode": "FM-YAP",
      "latitude": 9.46735,
      "longitude": 138.05935
    },
    {
      "id": 7626947,
      "name": "Lamotrek Municipality",
      "nativeName": "Lamotrek Municipality",
      "code": "FM-YAP-7626947",
      "countryId": 2081918,
      "countryCode": "FM",
      "stateCode": "FM-YAP",
      "latitude": 7.491,
      "longitude": 146.303
    },
    {
      "id": 7626948,
      "name": "Maap Municipality",
      "nativeName": "Maap Municipality",
      "code": "FM-YAP-7626948",
      "countryId": 2081918,
      "countryCode": "FM",
      "stateCode": "FM-YAP",
      "latitude": 9.58975,
      "longitude": 138.17119
    },
    {
      "id": 7626949,
      "name": "Ngulu Municipality",
      "nativeName": "Ngulu Municipality",
      "code": "FM-YAP-7626949",
      "countryId": 2081918,
      "countryCode": "FM",
      "stateCode": "FM-YAP",
      "latitude": 8.45,
      "longitude": 137.481
    },
    {
      "id": 7626950,
      "name": "Rull Municipality",
      "nativeName": "Rull Municipality",
      "code": "FM-YAP-7626950",
      "countryId": 2081918,
      "countryCode": "FM",
      "stateCode": "FM-YAP",
      "latitude": 9.50773,
      "longitude": 138.1154
    },
    {
      "id": 7626951,
      "name": "Rumung Municipality",
      "nativeName": "Rumung Municipality",
      "code": "FM-YAP-7626951",
      "countryId": 2081918,
      "countryCode": "FM",
      "stateCode": "FM-YAP",
      "latitude": 9.62428,
      "longitude": 138.15745
    },
    {
      "id": 7626952,
      "name": "Satawal Municipality",
      "nativeName": "Satawal Municipality",
      "code": "FM-YAP-7626952",
      "countryId": 2081918,
      "countryCode": "FM",
      "stateCode": "FM-YAP",
      "latitude": 7.382,
      "longitude": 147.0318
    },
    {
      "id": 7626953,
      "name": "Sorol Municipality",
      "nativeName": "Sorol Municipality",
      "code": "FM-YAP-7626953",
      "countryId": 2081918,
      "countryCode": "FM",
      "stateCode": "FM-YAP",
      "latitude": 8.1435,
      "longitude": 140.3925
    },
    {
      "id": 7626954,
      "name": "Tomil Municipality",
      "nativeName": "Tomil Municipality",
      "code": "FM-YAP-7626954",
      "countryId": 2081918,
      "countryCode": "FM",
      "stateCode": "FM-YAP",
      "latitude": 9.52517,
      "longitude": 138.15488
    },
    {
      "id": 7626955,
      "name": "Ulithi Municipality",
      "nativeName": "Ulithi Municipality",
      "code": "FM-YAP-7626955",
      "countryId": 2081918,
      "countryCode": "FM",
      "stateCode": "FM-YAP",
      "latitude": 9.9,
      "longitude": 139.6
    },
    {
      "id": 7626956,
      "name": "Weloy Municipality",
      "nativeName": "Weloy Municipality",
      "code": "FM-YAP-7626956",
      "countryId": 2081918,
      "countryCode": "FM",
      "stateCode": "FM-YAP",
      "latitude": 9.52712,
      "longitude": 138.11909
    },
    {
      "id": 7626957,
      "name": "Woleai Municipality",
      "nativeName": "Woleai Municipality",
      "code": "FM-YAP-7626957",
      "countryId": 2081918,
      "countryCode": "FM",
      "stateCode": "FM-YAP",
      "latitude": 7.345,
      "longitude": 143.857
    }
  ]
}