{
  "stateId": 3579932,
  "stateCode": "GD-02",
  "countryCode": "GD",
  "cities": [
    {
      "id": 3579931,
      "name": "Saint David’s",
      "nativeName": "Saint David’s",
      "code": "GD-02-3579931",
      "countryId": 3580239,
      "countryCode": "GD",
      "stateCode": "GD-02",
      "latitude": 12.04903,
      "longitude": -61.66875
    },
    {
      "id": 3580460,
      "name": "Après Tout",
      "nativeName": "Après Tout",
      "code": "GD-02-3580460",
      "countryId": 3580239,
      "countryCode": "GD",
      "stateCode": "GD-02",
      "latitude": 12.05972,
      "longitude": -61.6723
    },
    {
      "id": 3580453,
      "name": "Baillies Bacolet",
      "nativeName": "Baillies Bacolet",
      "code": "GD-02-3580453",
      "countryId": 3580239,
      "countryCode": "GD",
      "stateCode": "GD-02",
      "latitude": 12.03257,
      "longitude": -61.68327
    },
    {
      "id": 3580447,
      "name": "Barrow",
      "nativeName": "Barrow",
      "code": "GD-02-3580447",
      "countryId": 3580239,
      "countryCode": "GD",
      "stateCode": "GD-02",
      "latitude": 12.04975,
      "longitude": -61.70476
    },
    {
      "id": 3580444,
      "name": "Beaton",
      "nativeName": "Beaton",
      "code": "GD-02-3580444",
      "countryId": 3580239,
      "countryCode": "GD",
      "stateCode": "GD-02",
      "latitude": 12.03485,
      "longitude": -61.69591
    },
    {
      "id": 3580438,
      "name": "Becke Moui",
      "nativeName": "Becke Moui",
      "code": "GD-02-3580438",
      "countryId": 3580239,
      "countryCode": "GD",
      "stateCode": "GD-02",
      "latitude": 12.01725,
      "longitude": -61.69717
    },
    {
      "id": 3580433,
      "name": "Belle Isle",
      "nativeName": "Belle Isle",
      "code": "GD-02-3580433",
      "countryId": 3580239,
      "countryCode": "GD",
      "stateCode": "GD-02",
      "latitude": 12.03443,
      "longitude": -61.65075
    },
    {
      "id": 3580432,
      "name": "Belle Plain",
      "nativeName": "Belle Plain",
      "code": "GD-02-3580432",
      "countryId": 3580239,
      "countryCode": "GD",
      "stateCode": "GD-02",
      "latitude": 12.04376,
      "longitude": -61.71402
    },
    {
      "id": 3580431,
      "name": "Bellevue",
      "nativeName": "Bellevue",
      "code": "GD-02-3580431",
      "countryId": 3580239,
      "countryCode": "GD",
      "stateCode": "GD-02",
      "latitude": 12.05266,
      "longitude": -61.66254
    },
    {
      "id": 3580409,
      "name": "Bois de Gannes",
      "nativeName": "Bois de Gannes",
      "code": "GD-02-3580409",
      "countryId": 3580239,
      "countryCode": "GD",
      "stateCode": "GD-02",
      "latitude": 12.0398,
      "longitude": -61.70707
    },
    {
      "id": 3580372,
      "name": "Champs Fleurs",
      "nativeName": "Champs Fleurs",
      "code": "GD-02-3580372",
      "countryId": 3580239,
      "countryCode": "GD",
      "stateCode": "GD-02",
      "latitude": 12.05664,
      "longitude": -61.68694
    },
    {
      "id": 3580368,
      "name": "Charlotte Vale",
      "nativeName": "Charlotte Vale",
      "code": "GD-02-3580368",
      "countryId": 3580239,
      "countryCode": "GD",
      "stateCode": "GD-02",
      "latitude": 12.04341,
      "longitude": -61.7053
    },
    {
      "id": 3580351,
      "name": "Content",
      "nativeName": "Content",
      "code": "GD-02-3580351",
      "countryId": 3580239,
      "countryCode": "GD",
      "stateCode": "GD-02",
      "latitude": 12.03597,
      "longitude": -61.6658
    },
    {
      "id": 3580349,
      "name": "Corinth",
      "nativeName": "Corinth",
      "code": "GD-02-3580349",
      "countryId": 3580239,
      "countryCode": "GD",
      "stateCode": "GD-02",
      "latitude": 12.036,
      "longitude": -61.67748
    },
    {
      "id": 3580305,
      "name": "Epping Forest",
      "nativeName": "Epping Forest",
      "code": "GD-02-3580305",
      "countryId": 3580239,
      "countryCode": "GD",
      "stateCode": "GD-02",
      "latitude": 12.04577,
      "longitude": -61.70266
    },
    {
      "id": 3580304,
      "name": "Fairfield",
      "nativeName": "Fairfield",
      "code": "GD-02-3580304",
      "countryId": 3580239,
      "countryCode": "GD",
      "stateCode": "GD-02",
      "latitude": 12.05589,
      "longitude": -61.66096
    },
    {
      "id": 3580194,
      "name": "La Femme",
      "nativeName": "La Femme",
      "code": "GD-02-3580194",
      "countryId": 3580239,
      "countryCode": "GD",
      "stateCode": "GD-02",
      "latitude": 12.04109,
      "longitude": -61.70423
    },
    {
      "id": 3580175,
      "name": "Laura",
      "nativeName": "Laura",
      "code": "GD-02-3580175",
      "countryId": 3580239,
      "countryCode": "GD",
      "stateCode": "GD-02",
      "latitude": 12.03801,
      "longitude": -61.69756
    },
    {
      "id": 3580121,
      "name": "Mardigras",
      "nativeName": "Mardigras",
      "code": "GD-02-3580121",
      "countryId": 3580239,
      "countryCode": "GD",
      "stateCode": "GD-02",
      "latitude": 12.05577,
      "longitude": -61.71508
    },
    {
      "id": 3580114,
      "name": "Marlmount",
      "nativeName": "Marlmount",
      "code": "GD-02-3580114",
      "countryId": 3580239,
      "countryCode": "GD",
      "stateCode": "GD-02",
      "latitude": 12.05138,
      "longitude": -61.65404
    },
    {
      "id": 3580106,
      "name": "Maulti",
      "nativeName": "Maulti",
      "code": "GD-02-3580106",
      "countryId": 3580239,
      "countryCode": "GD",
      "stateCode": "GD-02",
      "latitude": 12.04133,
      "longitude": -61.67015
    },
    {
      "id": 3580090,
      "name": "Mon Repos",
      "nativeName": "Mon Repos",
      "code": "GD-02-3580090",
      "countryId": 3580239,
      "countryCode": "GD",
      "stateCode": "GD-02",
      "latitude": 12.04623,
      "longitude": -61.67814
    },
    {
      "id": 3580074,
      "name": "Morne Tranquille",
      "nativeName": "Morne Tranquille",
      "code": "GD-02-3580074",
      "countryId": 3580239,
      "countryCode": "GD",
      "stateCode": "GD-02",
      "latitude": 12.06009,
      "longitude": -61.69059
    },
    {
      "id": 3580073,
      "name": "Mount Agnes",
      "nativeName": "Mount Agnes",
      "code": "GD-02-3580073",
      "countryId": 3580239,
      "countryCode": "GD",
      "stateCode": "GD-02",
      "latitude": 12.06936,
      "longitude": -61.66744
    },
    {
      "id": 3580046,
      "name": "Mount Pleasant",
      "nativeName": "Mount Pleasant",
      "code": "GD-02-3580046",
      "countryId": 3580239,
      "countryCode": "GD",
      "stateCode": "GD-02",
      "latitude": 12.04982,
      "longitude": -61.71351
    },
    {
      "id": 3580039,
      "name": "Mount Rose",
      "nativeName": "Mount Rose",
      "code": "GD-02-3580039",
      "countryId": 3580239,
      "countryCode": "GD",
      "stateCode": "GD-02",
      "latitude": 12.04605,
      "longitude": -61.70905
    },
    {
      "id": 3580004,
      "name": "Perdmontemps",
      "nativeName": "Perdmontemps",
      "code": "GD-02-3580004",
      "countryId": 3580239,
      "countryCode": "GD",
      "stateCode": "GD-02",
      "latitude": 12.04766,
      "longitude": -61.7009
    },
    {
      "id": 3580002,
      "name": "Petit Bacaye",
      "nativeName": "Petit Bacaye",
      "code": "GD-02-3580002",
      "countryId": 3580239,
      "countryCode": "GD",
      "stateCode": "GD-02",
      "latitude": 12.01827,
      "longitude": -61.69463
    },
    {
      "id": 3579990,
      "name": "Petit Étang",
      "nativeName": "Petit Étang",
      "code": "GD-02-3579990",
      "countryId": 3580239,
      "countryCode": "GD",
      "stateCode": "GD-02",
      "latitude": 12.06442,
      "longitude": -61.68698
    },
    {
      "id": 3579977,
      "name": "Pomme Rose",
      "nativeName": "Pomme Rose",
      "code": "GD-02-3579977",
      "countryId": 3580239,
      "countryCode": "GD",
      "stateCode": "GD-02",
      "latitude": 12.05638,
      "longitude": -61.65461
    },
    {
      "id": 3579969,
      "name": "Providence",
      "nativeName": "Providence",
      "code": "GD-02-3579969",
      "countryId": 3580239,
      "countryCode": "GD",
      "stateCode": "GD-02",
      "latitude": 12.05215,
      "longitude": -61.67447
    },
    {
      "id": 3579955,
      "name": "Retreat",
      "nativeName": "Retreat",
      "code": "GD-02-3579955",
      "countryId": 3580239,
      "countryCode": "GD",
      "stateCode": "GD-02",
      "latitude": 12.06596,
      "longitude": -61.66
    },
    {
      "id": 3579870,
      "name": "Syracuse",
      "nativeName": "Syracuse",
      "code": "GD-02-3579870",
      "countryId": 3580239,
      "countryCode": "GD",
      "stateCode": "GD-02",
      "latitude": 12.03453,
      "longitude": -61.68158
    },
    {
      "id": 3579861,
      "name": "Terre Cannes",
      "nativeName": "Terre Cannes",
      "code": "GD-02-3579861",
      "countryId": 3580239,
      "countryCode": "GD",
      "stateCode": "GD-02",
      "latitude": 12.0686,
      "longitude": -61.67377
    },
    {
      "id": 3579860,
      "name": "Thebaide",
      "nativeName": "Thebaide",
      "code": "GD-02-3579860",
      "countryId": 3580239,
      "countryCode": "GD",
      "stateCode": "GD-02",
      "latitude": 12.05304,
      "longitude": -61.67066
    },
    {
      "id": 3579838,
      "name": "Upper La Tante",
      "nativeName": "Upper La Tante",
      "code": "GD-02-3579838",
      "countryId": 3580239,
      "countryCode": "GD",
      "stateCode": "GD-02",
      "latitude": 12.05,
      "longitude": -61.65
    },
    {
      "id": 3579832,
      "name": "Vincennes",
      "nativeName": "Vincennes",
      "code": "GD-02-3579832",
      "countryId": 3580239,
      "countryCode": "GD",
      "stateCode": "GD-02",
      "latitude": 12.05304,
      "longitude": -61.68926
    },
    {
      "id": 3579831,
      "name": "Vineyard",
      "nativeName": "Vineyard",
      "code": "GD-02-3579831",
      "countryId": 3580239,
      "countryCode": "GD",
      "stateCode": "GD-02",
      "latitude": 12.05357,
      "longitude": -61.69958
    },
    {
      "id": 3579824,
      "name": "Westerhall Point",
      "nativeName": "Westerhall Point",
      "code": "GD-02-3579824",
      "countryId": 3580239,
      "countryCode": "GD",
      "stateCode": "GD-02",
      "latitude": 12.00956,
      "longitude": -61.70076
    },
    {
      "id": 3579817,
      "name": "Windsor Castle",
      "nativeName": "Windsor Castle",
      "code": "GD-02-3579817",
      "countryId": 3580239,
      "countryCode": "GD",
      "stateCode": "GD-02",
      "latitude": 12.04521,
      "longitude": -61.69876
    },
    {
      "id": 3579816,
      "name": "Windsor Forest",
      "nativeName": "Windsor Forest",
      "code": "GD-02-3579816",
      "countryId": 3580239,
      "countryCode": "GD",
      "stateCode": "GD-02",
      "latitude": 12.05614,
      "longitude": -61.69339
    },
    {
      "id": 3580034,
      "name": "Mount William",
      "nativeName": "Mount William",
      "code": "GD-02-3580034",
      "countryId": 3580239,
      "countryCode": "GD",
      "stateCode": "GD-02",
      "latitude": 12.06872,
      "longitude": -61.68104
    },
    {
      "id": 3579825,
      "name": "Westerhall Land Settlement",
      "nativeName": "Westerhall Land Settlement",
      "code": "GD-02-3579825",
      "countryId": 3580239,
      "countryCode": "GD",
      "stateCode": "GD-02",
      "latitude": 12.01906,
      "longitude": -61.70094
    }
  ]
}