{
  "stateId": 3579919,
  "stateCode": "GD-04",
  "countryCode": "GD",
  "cities": [
    {
      "id": 3580279,
      "name": "Gouyave",
      "nativeName": "Gouyave",
      "code": "GD-04-3580279",
      "countryId": 3580239,
      "countryCode": "GD",
      "stateCode": "GD-04",
      "latitude": 12.16462,
      "longitude": -61.72965
    },
    {
      "id": 3580424,
      "name": "Belvidere",
      "nativeName": "Belvidere",
      "code": "GD-04-3580424",
      "countryId": 3580239,
      "countryCode": "GD",
      "stateCode": "GD-04",
      "latitude": 12.13537,
      "longitude": -61.69697
    },
    {
      "id": 3580375,
      "name": "Chadeau",
      "nativeName": "Chadeau",
      "code": "GD-04-3580375",
      "countryId": 3580239,
      "countryCode": "GD",
      "stateCode": "GD-04",
      "latitude": 12.1384,
      "longitude": -61.68756
    },
    {
      "id": 3580360,
      "name": "Clozier",
      "nativeName": "Clozier",
      "code": "GD-04-3580360",
      "countryId": 3580239,
      "countryCode": "GD",
      "stateCode": "GD-04",
      "latitude": 12.14209,
      "longitude": -61.69726
    },
    {
      "id": 3580358,
      "name": "Concord",
      "nativeName": "Concord",
      "code": "GD-04-3580358",
      "countryId": 3580239,
      "countryCode": "GD",
      "stateCode": "GD-04",
      "latitude": 12.11856,
      "longitude": -61.73956
    },
    {
      "id": 3580325,
      "name": "Dothan",
      "nativeName": "Dothan",
      "code": "GD-04-3580325",
      "countryId": 3580239,
      "countryCode": "GD",
      "stateCode": "GD-04",
      "latitude": 12.13758,
      "longitude": -61.74299
    },
    {
      "id": 3580298,
      "name": "Florida",
      "nativeName": "Florida",
      "code": "GD-04-3580298",
      "countryId": 3580239,
      "countryCode": "GD",
      "stateCode": "GD-04",
      "latitude": 12.15943,
      "longitude": -61.70309
    },
    {
      "id": 3580257,
      "name": "Grand Roy",
      "nativeName": "Grand Roy",
      "code": "GD-04-3580257",
      "countryId": 3580239,
      "countryCode": "GD",
      "stateCode": "GD-04",
      "latitude": 12.1322,
      "longitude": -61.74537
    },
    {
      "id": 3580136,
      "name": "Mabouya",
      "nativeName": "Mabouya",
      "code": "GD-04-3580136",
      "countryId": 3580239,
      "countryCode": "GD",
      "stateCode": "GD-04",
      "latitude": 12.14844,
      "longitude": -61.72988
    },
    {
      "id": 3580124,
      "name": "Maran",
      "nativeName": "Maran",
      "code": "GD-04-3580124",
      "countryId": 3580239,
      "countryCode": "GD",
      "stateCode": "GD-04",
      "latitude": 12.17445,
      "longitude": -61.72357
    },
    {
      "id": 3580118,
      "name": "Marigot",
      "nativeName": "Marigot",
      "code": "GD-04-3580118",
      "countryId": 3580239,
      "countryCode": "GD",
      "stateCode": "GD-04",
      "latitude": 12.12294,
      "longitude": -61.74422
    },
    {
      "id": 3580091,
      "name": "Mon Plaisir",
      "nativeName": "Mon Plaisir",
      "code": "GD-04-3580091",
      "countryId": 3580239,
      "countryCode": "GD",
      "stateCode": "GD-04",
      "latitude": 12.13093,
      "longitude": -61.72912
    },
    {
      "id": 3580080,
      "name": "Morne Jaloux",
      "nativeName": "Morne Jaloux",
      "code": "GD-04-3580080",
      "countryId": 3580239,
      "countryCode": "GD",
      "stateCode": "GD-04",
      "latitude": 12.13942,
      "longitude": -61.69453
    },
    {
      "id": 3580050,
      "name": "Mount Nesbit",
      "nativeName": "Mount Nesbit",
      "code": "GD-04-3580050",
      "countryId": 3580239,
      "countryCode": "GD",
      "stateCode": "GD-04",
      "latitude": 12.14824,
      "longitude": -61.72852
    },
    {
      "id": 3580011,
      "name": "Paradise",
      "nativeName": "Paradise",
      "code": "GD-04-3580011",
      "countryId": 3580239,
      "countryCode": "GD",
      "stateCode": "GD-04",
      "latitude": 12.14439,
      "longitude": -61.69329
    },
    {
      "id": 3579942,
      "name": "Rosemont",
      "nativeName": "Rosemont",
      "code": "GD-04-3579942",
      "countryId": 3580239,
      "countryCode": "GD",
      "stateCode": "GD-04",
      "latitude": 12.15481,
      "longitude": -61.70719
    },
    {
      "id": 3579909,
      "name": "Saint Mary",
      "nativeName": "Saint Mary",
      "code": "GD-04-3579909",
      "countryId": 3580239,
      "countryCode": "GD",
      "stateCode": "GD-04",
      "latitude": 12.15048,
      "longitude": -61.70153
    },
    {
      "id": 3579857,
      "name": "The Lance",
      "nativeName": "The Lance",
      "code": "GD-04-3579857",
      "countryId": 3580239,
      "countryCode": "GD",
      "stateCode": "GD-04",
      "latitude": 12.16742,
      "longitude": -61.72953
    },
    {
      "id": 3580049,
      "name": "Mount Nesbit Land Settlement",
      "nativeName": "Mount Nesbit Land Settlement",
      "code": "GD-04-3580049",
      "countryId": 3580239,
      "countryCode": "GD",
      "stateCode": "GD-04",
      "latitude": 12.13967,
      "longitude": -61.71947
    },
    {
      "id": 3579981,
      "name": "Plaisance Land Settlement",
      "nativeName": "Plaisance Land Settlement",
      "code": "GD-04-3579981",
      "countryId": 3580239,
      "countryCode": "GD",
      "stateCode": "GD-04",
      "latitude": 12.14765,
      "longitude": -61.69062
    }
  ]
}