{
  "stateId": 7303836,
  "stateCode": "GD-10",
  "countryCode": "GD",
  "cities": [
    {
      "id": 3580215,
      "name": "Hillsborough",
      "nativeName": "Hillsborough",
      "code": "GD-10-3580215",
      "countryId": 3580239,
      "countryCode": "GD",
      "stateCode": "GD-10",
      "latitude": 12.48292,
      "longitude": -61.45597
    },
    {
      "id": 3580459,
      "name": "Argyle",
      "nativeName": "Argyle",
      "code": "GD-10-3580459",
      "countryId": 3580239,
      "countryCode": "GD",
      "stateCode": "GD-10",
      "latitude": 12.45601,
      "longitude": -61.47852
    },
    {
      "id": 12949700,
      "name": "Bayaleau",
      "nativeName": "Bayaleau",
      "code": "GD-10-12949700",
      "countryId": 3580239,
      "countryCode": "GD",
      "stateCode": "GD-10",
      "latitude": 12.50184,
      "longitude": -61.42389
    },
    {
      "id": 12949696,
      "name": "Beausejour",
      "nativeName": "Beausejour",
      "code": "GD-10-12949696",
      "countryId": 3580239,
      "countryCode": "GD",
      "stateCode": "GD-10",
      "latitude": 12.48925,
      "longitude": -61.45321
    },
    {
      "id": 3580435,
      "name": "Belair",
      "nativeName": "Belair",
      "code": "GD-10-3580435",
      "countryId": 3580239,
      "countryCode": "GD",
      "stateCode": "GD-10",
      "latitude": 12.49227,
      "longitude": -61.44061
    },
    {
      "id": 12949469,
      "name": "Belmont",
      "nativeName": "Belmont",
      "code": "GD-10-12949469",
      "countryId": 3580239,
      "countryCode": "GD",
      "stateCode": "GD-10",
      "latitude": 12.45006,
      "longitude": -61.47358
    },
    {
      "id": 3580425,
      "name": "Belvedere",
      "nativeName": "Belvedere",
      "code": "GD-10-3580425",
      "countryId": 3580239,
      "countryCode": "GD",
      "stateCode": "GD-10",
      "latitude": 12.50032,
      "longitude": -61.44041
    },
    {
      "id": 3580410,
      "name": "Bogles",
      "nativeName": "Bogles",
      "code": "GD-10-3580410",
      "countryId": 3580239,
      "countryCode": "GD",
      "stateCode": "GD-10",
      "latitude": 12.50232,
      "longitude": -61.4487
    },
    {
      "id": 12949691,
      "name": "Cherry Hill",
      "nativeName": "Cherry Hill",
      "code": "GD-10-12949691",
      "countryId": 3580239,
      "countryCode": "GD",
      "stateCode": "GD-10",
      "latitude": 12.49939,
      "longitude": -61.44546
    },
    {
      "id": 11281268,
      "name": "Citern Village",
      "nativeName": "Citern Village",
      "code": "GD-10-11281268",
      "countryId": 3580239,
      "countryCode": "GD",
      "stateCode": "GD-10",
      "latitude": 12.5178,
      "longitude": -61.39096
    },
    {
      "id": 12949703,
      "name": "Citerne",
      "nativeName": "Citerne",
      "code": "GD-10-12949703",
      "countryId": 3580239,
      "countryCode": "GD",
      "stateCode": "GD-10",
      "latitude": 12.51758,
      "longitude": -61.3908
    },
    {
      "id": 12949704,
      "name": "Craigston",
      "nativeName": "Craigston",
      "code": "GD-10-12949704",
      "countryId": 3580239,
      "countryCode": "GD",
      "stateCode": "GD-10",
      "latitude": 12.49362,
      "longitude": -61.45036
    },
    {
      "id": 3580321,
      "name": "Dover",
      "nativeName": "Dover",
      "code": "GD-10-3580321",
      "countryId": 3580239,
      "countryCode": "GD",
      "stateCode": "GD-10",
      "latitude": 12.50619,
      "longitude": -61.43419
    },
    {
      "id": 3580318,
      "name": "Dumfries",
      "nativeName": "Dumfries",
      "code": "GD-10-3580318",
      "countryId": 3580239,
      "countryCode": "GD",
      "stateCode": "GD-10",
      "latitude": 12.46311,
      "longitude": -61.45736
    },
    {
      "id": 3580266,
      "name": "Grand Bay",
      "nativeName": "Grand Bay",
      "code": "GD-10-3580266",
      "countryId": 3580239,
      "countryCode": "GD",
      "stateCode": "GD-10",
      "latitude": 12.47427,
      "longitude": -61.4348
    },
    {
      "id": 3580219,
      "name": "Hermitage",
      "nativeName": "Hermitage",
      "code": "GD-10-3580219",
      "countryId": 3580239,
      "countryCode": "GD",
      "stateCode": "GD-10",
      "latitude": 12.45157,
      "longitude": -61.48856
    },
    {
      "id": 11281263,
      "name": "Kendace",
      "nativeName": "Kendace",
      "code": "GD-10-11281263",
      "countryId": 3580239,
      "countryCode": "GD",
      "stateCode": "GD-10",
      "latitude": 12.51513,
      "longitude": -61.38779
    },
    {
      "id": 13037110,
      "name": "La Resouc",
      "nativeName": "La Resouc",
      "code": "GD-10-13037110",
      "countryId": 3580239,
      "countryCode": "GD",
      "stateCode": "GD-10",
      "latitude": 12.47203,
      "longitude": -61.44928
    },
    {
      "id": 11281260,
      "name": "Lauriston",
      "nativeName": "Lauriston",
      "code": "GD-10-11281260",
      "countryId": 3580239,
      "countryCode": "GD",
      "stateCode": "GD-10",
      "latitude": 12.47358,
      "longitude": -61.47256
    },
    {
      "id": 12949687,
      "name": "Locust",
      "nativeName": "Locust",
      "code": "GD-10-12949687",
      "countryId": 3580239,
      "countryCode": "GD",
      "stateCode": "GD-10",
      "latitude": 12.52077,
      "longitude": -61.38369
    },
    {
      "id": 3580182,
      "name": "L’Appelle",
      "nativeName": "L’Appelle",
      "code": "GD-10-3580182",
      "countryId": 3580239,
      "countryCode": "GD",
      "stateCode": "GD-10",
      "latitude": 12.52272,
      "longitude": -61.43347
    },
    {
      "id": 3580166,
      "name": "L’Esterre",
      "nativeName": "L’Esterre",
      "code": "GD-10-3580166",
      "countryId": 3580239,
      "countryCode": "GD",
      "stateCode": "GD-10",
      "latitude": 12.46936,
      "longitude": -61.48422
    },
    {
      "id": 12949709,
      "name": "Madame Pierre",
      "nativeName": "Madame Pierre",
      "code": "GD-10-12949709",
      "countryId": 3580239,
      "countryCode": "GD",
      "stateCode": "GD-10",
      "latitude": 12.52523,
      "longitude": -61.38342
    },
    {
      "id": 13037106,
      "name": "Mount D'Or",
      "nativeName": "Mount D'Or",
      "code": "GD-10-13037106",
      "countryId": 3580239,
      "countryCode": "GD",
      "stateCode": "GD-10",
      "latitude": 12.46832,
      "longitude": -61.44327
    },
    {
      "id": 13037111,
      "name": "Mount Desire",
      "nativeName": "Mount Desire",
      "code": "GD-10-13037111",
      "countryId": 3580239,
      "countryCode": "GD",
      "stateCode": "GD-10",
      "latitude": 12.47019,
      "longitude": -61.45756
    },
    {
      "id": 3580045,
      "name": "Mount Pleasant",
      "nativeName": "Mount Pleasant",
      "code": "GD-10-3580045",
      "countryId": 3580239,
      "countryCode": "GD",
      "stateCode": "GD-10",
      "latitude": 12.47869,
      "longitude": -61.43469
    },
    {
      "id": 13037105,
      "name": "Mount Royal",
      "nativeName": "Mount Royal",
      "code": "GD-10-13037105",
      "countryId": 3580239,
      "countryCode": "GD",
      "stateCode": "GD-10",
      "latitude": 12.46928,
      "longitude": -61.45038
    },
    {
      "id": 12949684,
      "name": "Paradise",
      "nativeName": "Paradise",
      "code": "GD-10-12949684",
      "countryId": 3580239,
      "countryCode": "GD",
      "stateCode": "GD-10",
      "latitude": 12.52273,
      "longitude": -61.38956
    },
    {
      "id": 12949711,
      "name": "Petit Carenage",
      "nativeName": "Petit Carenage",
      "code": "GD-10-12949711",
      "countryId": 3580239,
      "countryCode": "GD",
      "stateCode": "GD-10",
      "latitude": 12.52247,
      "longitude": -61.43738
    },
    {
      "id": 13037112,
      "name": "Prospect Hall",
      "nativeName": "Prospect Hall",
      "code": "GD-10-13037112",
      "countryId": 3580239,
      "countryCode": "GD",
      "stateCode": "GD-10",
      "latitude": 12.475,
      "longitude": -61.45555
    },
    {
      "id": 13037114,
      "name": "Sabazan",
      "nativeName": "Sabazan",
      "code": "GD-10-13037114",
      "countryId": 3580239,
      "countryCode": "GD",
      "stateCode": "GD-10",
      "latitude": 12.45823,
      "longitude": -61.44529
    },
    {
      "id": 12949698,
      "name": "Sanchez",
      "nativeName": "Sanchez",
      "code": "GD-10-12949698",
      "countryId": 3580239,
      "countryCode": "GD",
      "stateCode": "GD-10",
      "latitude": 12.52481,
      "longitude": -61.38675
    },
    {
      "id": 3579882,
      "name": "Six Roads",
      "nativeName": "Six Roads",
      "code": "GD-10-3579882",
      "countryId": 3580239,
      "countryCode": "GD",
      "stateCode": "GD-10",
      "latitude": 12.46798,
      "longitude": -61.46098
    },
    {
      "id": 3579815,
      "name": "Windward",
      "nativeName": "Windward",
      "code": "GD-10-3579815",
      "countryId": 3580239,
      "countryCode": "GD",
      "stateCode": "GD-10",
      "latitude": 12.51239,
      "longitude": -61.43033
    },
    {
      "id": 12949692,
      "name": "Belle Vue",
      "nativeName": "Belle Vue",
      "code": "GD-10-12949692",
      "countryId": 3580239,
      "countryCode": "GD",
      "stateCode": "GD-10",
      "latitude": 12.51919,
      "longitude": -61.38679
    },
    {
      "id": 12949685,
      "name": "Limlair",
      "nativeName": "Limlair",
      "code": "GD-10-12949685",
      "countryId": 3580239,
      "countryCode": "GD",
      "stateCode": "GD-10",
      "latitude": 12.49997,
      "longitude": -61.43183
    }
  ]
}