{
  "stateId": 3527115,
  "stateCode": "MX-HID",
  "countryCode": "MX",
  "cities": [
    {
      "id": 8582021,
      "name": "Acatlán",
      "nativeName": "Acatlán",
      "code": "MX-HID-8582021",
      "countryId": 3996063,
      "countryCode": "MX",
      "stateCode": "MX-HID",
      "latitude": 20.20857,
      "longitude": -98.44324
    },
    {
      "id": 8582022,
      "name": "Acaxochitlán Municipality",
      "nativeName": "Acaxochitlán",
      "code": "MX-HID-8582022",
      "countryId": 3996063,
      "countryCode": "MX",
      "stateCode": "MX-HID",
      "latitude": 20.16674,
      "longitude": -98.18971
    },
    {
      "id": 8582023,
      "name": "Actopan Municipality",
      "nativeName": "Actopan",
      "code": "MX-HID-8582023",
      "countryId": 3996063,
      "countryCode": "MX",
      "stateCode": "MX-HID",
      "latitude": 20.28451,
      "longitude": -98.91525
    },
    {
      "id": 8582024,
      "name": "Agua Blanca de Iturbide Municipality",
      "nativeName": "Agua Blanca de Iturbide",
      "code": "MX-HID-8582024",
      "countryId": 3996063,
      "countryCode": "MX",
      "stateCode": "MX-HID",
      "latitude": 20.35998,
      "longitude": -98.36979
    },
    {
      "id": 8582025,
      "name": "Ajacuba Municipality",
      "nativeName": "Ajacuba",
      "code": "MX-HID-8582025",
      "countryId": 3996063,
      "countryCode": "MX",
      "stateCode": "MX-HID",
      "latitude": 20.14326,
      "longitude": -99.06141
    },
    {
      "id": 8582026,
      "name": "Alfajayucan Municipality",
      "nativeName": "Alfajayucan",
      "code": "MX-HID-8582026",
      "countryId": 3996063,
      "countryCode": "MX",
      "stateCode": "MX-HID",
      "latitude": 20.41183,
      "longitude": -99.38388
    },
    {
      "id": 8582027,
      "name": "Almoloya Municipality",
      "nativeName": "Almoloya",
      "code": "MX-HID-8582027",
      "countryId": 3996063,
      "countryCode": "MX",
      "stateCode": "MX-HID",
      "latitude": 19.74335,
      "longitude": -98.33939
    },
    {
      "id": 8582028,
      "name": "Apan Municipality",
      "nativeName": "Apan",
      "code": "MX-HID-8582028",
      "countryId": 3996063,
      "countryCode": "MX",
      "stateCode": "MX-HID",
      "latitude": 19.73895,
      "longitude": -98.43331
    },
    {
      "id": 8582030,
      "name": "Atitalaquía Municipality",
      "nativeName": "Atitalaquia",
      "code": "MX-HID-8582030",
      "countryId": 3996063,
      "countryCode": "MX",
      "stateCode": "MX-HID",
      "latitude": 20.05691,
      "longitude": -99.21779
    },
    {
      "id": 8582031,
      "name": "Atlapexco Municipality",
      "nativeName": "Atlapexco",
      "code": "MX-HID-8582031",
      "countryId": 3996063,
      "countryCode": "MX",
      "stateCode": "MX-HID",
      "latitude": 21.02507,
      "longitude": -98.36834
    },
    {
      "id": 8582032,
      "name": "Atotonilco El Grande Municipality",
      "nativeName": "Atotonilco el Grande",
      "code": "MX-HID-8582032",
      "countryId": 3996063,
      "countryCode": "MX",
      "stateCode": "MX-HID",
      "latitude": 20.34664,
      "longitude": -98.67363
    },
    {
      "id": 8582033,
      "name": "Atotonilco de Tula Municipality",
      "nativeName": "Atotonilco de Tula",
      "code": "MX-HID-8582033",
      "countryId": 3996063,
      "countryCode": "MX",
      "stateCode": "MX-HID",
      "latitude": 19.97025,
      "longitude": -99.23866
    },
    {
      "id": 8582034,
      "name": "Calnali Municipality",
      "nativeName": "Calnali",
      "code": "MX-HID-8582034",
      "countryId": 3996063,
      "countryCode": "MX",
      "stateCode": "MX-HID",
      "latitude": 20.90221,
      "longitude": -98.57029
    },
    {
      "id": 8582035,
      "name": "Cardonal Municipality",
      "nativeName": "Cardonal",
      "code": "MX-HID-8582035",
      "countryId": 3996063,
      "countryCode": "MX",
      "stateCode": "MX-HID",
      "latitude": 20.62782,
      "longitude": -99.07353
    },
    {
      "id": 8582037,
      "name": "Chapantongo Municipality",
      "nativeName": "Chapantongo",
      "code": "MX-HID-8582037",
      "countryId": 3996063,
      "countryCode": "MX",
      "stateCode": "MX-HID",
      "latitude": 20.26532,
      "longitude": -99.46581
    },
    {
      "id": 8582038,
      "name": "Chapulhuacán Municipality",
      "nativeName": "Chapulhuacán",
      "code": "MX-HID-8582038",
      "countryId": 3996063,
      "countryCode": "MX",
      "stateCode": "MX-HID",
      "latitude": 21.14413,
      "longitude": -98.93088
    },
    {
      "id": 8582039,
      "name": "Chilcuautla Municipality",
      "nativeName": "Chilcuautla",
      "code": "MX-HID-8582039",
      "countryId": 3996063,
      "countryCode": "MX",
      "stateCode": "MX-HID",
      "latitude": 20.34166,
      "longitude": -99.23429
    },
    {
      "id": 8582036,
      "name": "Cuautepec de Hinojosa Municipality",
      "nativeName": "Cuautepec de Hinojosa",
      "code": "MX-HID-8582036",
      "countryId": 3996063,
      "countryCode": "MX",
      "stateCode": "MX-HID",
      "latitude": 19.98227,
      "longitude": -98.28683
    },
    {
      "id": 8582029,
      "name": "El Arenal Municipality",
      "nativeName": "El Arenal",
      "code": "MX-HID-8582029",
      "countryId": 3996063,
      "countryCode": "MX",
      "stateCode": "MX-HID",
      "latitude": 20.21572,
      "longitude": -98.8884
    },
    {
      "id": 8582040,
      "name": "Eloxochitlán Municipality",
      "nativeName": "Eloxochitlán",
      "code": "MX-HID-8582040",
      "countryId": 3996063,
      "countryCode": "MX",
      "stateCode": "MX-HID",
      "latitude": 20.72703,
      "longitude": -98.87693
    },
    {
      "id": 8582041,
      "name": "Emiliano Zapata Municipality",
      "nativeName": "Emiliano Zapata",
      "code": "MX-HID-8582041",
      "countryId": 3996063,
      "countryCode": "MX",
      "stateCode": "MX-HID",
      "latitude": 19.66143,
      "longitude": -98.56678
    },
    {
      "id": 8582042,
      "name": "Epazoyucan Municipality",
      "nativeName": "Epazoyucan",
      "code": "MX-HID-8582042",
      "countryId": 3996063,
      "countryCode": "MX",
      "stateCode": "MX-HID",
      "latitude": 20.02654,
      "longitude": -98.63802
    },
    {
      "id": 8582043,
      "name": "Francisco I. Madero Municipality",
      "nativeName": "Francisco I. Madero",
      "code": "MX-HID-8582043",
      "countryId": 3996063,
      "countryCode": "MX",
      "stateCode": "MX-HID",
      "latitude": 20.23866,
      "longitude": -99.07889
    },
    {
      "id": 8582044,
      "name": "Huasca de Ocampo Municipality",
      "nativeName": "Huasca de Ocampo",
      "code": "MX-HID-8582044",
      "countryId": 3996063,
      "countryCode": "MX",
      "stateCode": "MX-HID",
      "latitude": 20.23121,
      "longitude": -98.54864
    },
    {
      "id": 8582045,
      "name": "Huautla Municipality",
      "nativeName": "Huautla",
      "code": "MX-HID-8582045",
      "countryId": 3996063,
      "countryCode": "MX",
      "stateCode": "MX-HID",
      "latitude": 21.04268,
      "longitude": -98.24785
    },
    {
      "id": 8582046,
      "name": "Huazalingo Municipality",
      "nativeName": "Huazalingo",
      "code": "MX-HID-8582046",
      "countryId": 3996063,
      "countryCode": "MX",
      "stateCode": "MX-HID",
      "latitude": 20.99864,
      "longitude": -98.48989
    },
    {
      "id": 8582047,
      "name": "Huehuetla Municipality",
      "nativeName": "Huehuetla",
      "code": "MX-HID-8582047",
      "countryId": 3996063,
      "countryCode": "MX",
      "stateCode": "MX-HID",
      "latitude": 20.53204,
      "longitude": -98.03311
    },
    {
      "id": 8582048,
      "name": "Huejutla de Reyes",
      "nativeName": "Huejutla de Reyes",
      "code": "MX-HID-8582048",
      "countryId": 3996063,
      "countryCode": "MX",
      "stateCode": "MX-HID",
      "latitude": 21.11613,
      "longitude": -98.47705
    },
    {
      "id": 8582049,
      "name": "Huichapan Municipality",
      "nativeName": "Huichapan",
      "code": "MX-HID-8582049",
      "countryId": 3996063,
      "countryCode": "MX",
      "stateCode": "MX-HID",
      "latitude": 20.38929,
      "longitude": -99.65197
    },
    {
      "id": 8582050,
      "name": "Ixmiquilpan Municipality",
      "nativeName": "Ixmiquilpan",
      "code": "MX-HID-8582050",
      "countryId": 3996063,
      "countryCode": "MX",
      "stateCode": "MX-HID",
      "latitude": 20.54335,
      "longitude": -99.19505
    },
    {
      "id": 8582051,
      "name": "Jacala Municipality",
      "nativeName": "Jacala de Ledezma",
      "code": "MX-HID-8582051",
      "countryId": 3996063,
      "countryCode": "MX",
      "stateCode": "MX-HID",
      "latitude": 20.96723,
      "longitude": -99.14918
    },
    {
      "id": 8582052,
      "name": "Jaltocan Municipality",
      "nativeName": "Jaltocán",
      "code": "MX-HID-8582052",
      "countryId": 3996063,
      "countryCode": "MX",
      "stateCode": "MX-HID",
      "latitude": 21.15063,
      "longitude": -98.52451
    },
    {
      "id": 8582053,
      "name": "Juárez Municipality",
      "nativeName": "Juárez Hidalgo",
      "code": "MX-HID-8582053",
      "countryId": 3996063,
      "countryCode": "MX",
      "stateCode": "MX-HID",
      "latitude": 20.83296,
      "longitude": -98.83699
    },
    {
      "id": 8582060,
      "name": "La Misión Municipality",
      "nativeName": "La Misión",
      "code": "MX-HID-8582060",
      "countryId": 3996063,
      "countryCode": "MX",
      "stateCode": "MX-HID",
      "latitude": 21.06984,
      "longitude": -99.07146
    },
    {
      "id": 8582054,
      "name": "Lolotla Municipality",
      "nativeName": "Lolotla",
      "code": "MX-HID-8582054",
      "countryId": 3996063,
      "countryCode": "MX",
      "stateCode": "MX-HID",
      "latitude": 21.00922,
      "longitude": -98.73116
    },
    {
      "id": 8582055,
      "name": "Metepec Municipality",
      "nativeName": "Metepec",
      "code": "MX-HID-8582055",
      "countryId": 3996063,
      "countryCode": "MX",
      "stateCode": "MX-HID",
      "latitude": 20.26375,
      "longitude": -98.34366
    },
    {
      "id": 8582057,
      "name": "Metztitlán Municipality",
      "nativeName": "Metztitlán",
      "code": "MX-HID-8582057",
      "countryId": 3996063,
      "countryCode": "MX",
      "stateCode": "MX-HID",
      "latitude": 20.56753,
      "longitude": -98.79696
    },
    {
      "id": 8582070,
      "name": "Mineral de la Reforma Municipality",
      "nativeName": "Mineral de la Reforma",
      "code": "MX-HID-8582070",
      "countryId": 3996063,
      "countryCode": "MX",
      "stateCode": "MX-HID",
      "latitude": 20.07439,
      "longitude": -98.72995
    },
    {
      "id": 8582058,
      "name": "Mineral del Chico Municipality",
      "nativeName": "Mineral del Chico",
      "code": "MX-HID-8582058",
      "countryId": 3996063,
      "countryCode": "MX",
      "stateCode": "MX-HID",
      "latitude": 20.21974,
      "longitude": -98.74858
    },
    {
      "id": 8582059,
      "name": "Mineral del Monte Municipality",
      "nativeName": "Mineral del Monte",
      "code": "MX-HID-8582059",
      "countryId": 3996063,
      "countryCode": "MX",
      "stateCode": "MX-HID",
      "latitude": 20.14538,
      "longitude": -98.66527
    },
    {
      "id": 8582061,
      "name": "Mixquiahuala Municipality",
      "nativeName": "Mixquiahuala de Juárez",
      "code": "MX-HID-8582061",
      "countryId": 3996063,
      "countryCode": "MX",
      "stateCode": "MX-HID",
      "latitude": 20.22194,
      "longitude": -99.18325
    },
    {
      "id": 8582062,
      "name": "Molango Municipality",
      "nativeName": "Molango de Escamilla",
      "code": "MX-HID-8582062",
      "countryId": 3996063,
      "countryCode": "MX",
      "stateCode": "MX-HID",
      "latitude": 20.84675,
      "longitude": -98.76108
    },
    {
      "id": 8582063,
      "name": "Nicolás Flores Municipality",
      "nativeName": "Nicolás Flores",
      "code": "MX-HID-8582063",
      "countryId": 3996063,
      "countryCode": "MX",
      "stateCode": "MX-HID",
      "latitude": 20.79432,
      "longitude": -99.17321
    },
    {
      "id": 8582064,
      "name": "Nopala Municipality",
      "nativeName": "Nopala de Villagrán",
      "code": "MX-HID-8582064",
      "countryId": 3996063,
      "countryCode": "MX",
      "stateCode": "MX-HID",
      "latitude": 20.23119,
      "longitude": -99.68153
    },
    {
      "id": 8582065,
      "name": "Omitlán de Juárez Municipality",
      "nativeName": "Omitlán de Juárez",
      "code": "MX-HID-8582065",
      "countryId": 3996063,
      "countryCode": "MX",
      "stateCode": "MX-HID",
      "latitude": 20.17845,
      "longitude": -98.63631
    },
    {
      "id": 8582067,
      "name": "Pachuca Municipality",
      "nativeName": "Pachuca de Soto",
      "code": "MX-HID-8582067",
      "countryId": 3996063,
      "countryCode": "MX",
      "stateCode": "MX-HID",
      "latitude": 20.10117,
      "longitude": -98.78624
    },
    {
      "id": 8581962,
      "name": "Pacula Municipality",
      "nativeName": "Pacula",
      "code": "MX-HID-8581962",
      "countryId": 3996063,
      "countryCode": "MX",
      "stateCode": "MX-HID",
      "latitude": 20.97058,
      "longitude": -99.32162
    },
    {
      "id": 8582068,
      "name": "Pisaflores Municipality",
      "nativeName": "Pisaflores",
      "code": "MX-HID-8582068",
      "countryId": 3996063,
      "countryCode": "MX",
      "stateCode": "MX-HID",
      "latitude": 21.2276,
      "longitude": -98.99502
    },
    {
      "id": 8582069,
      "name": "Progreso Municipality",
      "nativeName": "Progreso de Obregón",
      "code": "MX-HID-8582069",
      "countryId": 3996063,
      "countryCode": "MX",
      "stateCode": "MX-HID",
      "latitude": 20.29199,
      "longitude": -99.18907
    },
    {
      "id": 8582056,
      "name": "San Agustín Metzquititlán Municipality",
      "nativeName": "San Agustín Metzquititlán",
      "code": "MX-HID-8582056",
      "countryId": 3996063,
      "countryCode": "MX",
      "stateCode": "MX-HID",
      "latitude": 20.50319,
      "longitude": -98.62484
    },
    {
      "id": 8582071,
      "name": "San Agustín Tlaxiaca Municipality",
      "nativeName": "San Agustín Tlaxiaca",
      "code": "MX-HID-8582071",
      "countryId": 3996063,
      "countryCode": "MX",
      "stateCode": "MX-HID",
      "latitude": 20.10787,
      "longitude": -98.90914
    },
    {
      "id": 8582072,
      "name": "San Bartolo Tutotepec Municipality",
      "nativeName": "San Bartolo Tutotepec",
      "code": "MX-HID-8582072",
      "countryId": 3996063,
      "countryCode": "MX",
      "stateCode": "MX-HID",
      "latitude": 20.4518,
      "longitude": -98.19931
    },
    {
      "id": 8582066,
      "name": "San Felipe Orizatlán",
      "nativeName": "San Felipe Orizatlán",
      "code": "MX-HID-8582066",
      "countryId": 3996063,
      "countryCode": "MX",
      "stateCode": "MX-HID",
      "latitude": 21.24151,
      "longitude": -98.58382
    },
    {
      "id": 8582073,
      "name": "San Salvador Municipality",
      "nativeName": "San Salvador",
      "code": "MX-HID-8582073",
      "countryId": 3996063,
      "countryCode": "MX",
      "stateCode": "MX-HID",
      "latitude": 20.29278,
      "longitude": -99.03285
    },
    {
      "id": 8582075,
      "name": "Santiago Tulantepec de Lugo Guerrero",
      "nativeName": "Santiago Tulantepec de Lugo Guerrero",
      "code": "MX-HID-8582075",
      "countryId": 3996063,
      "countryCode": "MX",
      "stateCode": "MX-HID",
      "latitude": 20.04206,
      "longitude": -98.39161
    },
    {
      "id": 8582074,
      "name": "Santiago de Anaya Municipality",
      "nativeName": "Santiago de Anaya",
      "code": "MX-HID-8582074",
      "countryId": 3996063,
      "countryCode": "MX",
      "stateCode": "MX-HID",
      "latitude": 20.40817,
      "longitude": -98.97625
    },
    {
      "id": 8582076,
      "name": "Singuilucan Municipality",
      "nativeName": "Singuilucan",
      "code": "MX-HID-8582076",
      "countryId": 3996063,
      "countryCode": "MX",
      "stateCode": "MX-HID",
      "latitude": 19.98964,
      "longitude": -98.51923
    },
    {
      "id": 8582077,
      "name": "Tasquillo Municipality",
      "nativeName": "Tasquillo",
      "code": "MX-HID-8582077",
      "countryId": 3996063,
      "countryCode": "MX",
      "stateCode": "MX-HID",
      "latitude": 20.54698,
      "longitude": -99.34562
    },
    {
      "id": 8582078,
      "name": "Tecozautla Municipality",
      "nativeName": "Tecozautla",
      "code": "MX-HID-8582078",
      "countryId": 3996063,
      "countryCode": "MX",
      "stateCode": "MX-HID",
      "latitude": 20.53302,
      "longitude": -99.64662
    },
    {
      "id": 8582079,
      "name": "Tenango de Doria Municipality",
      "nativeName": "Tenango de Doria",
      "code": "MX-HID-8582079",
      "countryId": 3996063,
      "countryCode": "MX",
      "stateCode": "MX-HID",
      "latitude": 20.35396,
      "longitude": -98.20492
    },
    {
      "id": 8582080,
      "name": "Tepeapulco Municipality",
      "nativeName": "Tepeapulco",
      "code": "MX-HID-8582080",
      "countryId": 3996063,
      "countryCode": "MX",
      "stateCode": "MX-HID",
      "latitude": 19.8047,
      "longitude": -98.50153
    },
    {
      "id": 8582081,
      "name": "Tepehuacán de Guerrero Municipality",
      "nativeName": "Tepehuacán de Guerrero",
      "code": "MX-HID-8582081",
      "countryId": 3996063,
      "countryCode": "MX",
      "stateCode": "MX-HID",
      "latitude": 21.06676,
      "longitude": -98.84444
    },
    {
      "id": 8582082,
      "name": "Tepeji del Río de Ocampo",
      "nativeName": "Tepeji del Río de Ocampo",
      "code": "MX-HID-8582082",
      "countryId": 3996063,
      "countryCode": "MX",
      "stateCode": "MX-HID",
      "latitude": 19.902,
      "longitude": -99.35263
    },
    {
      "id": 8582083,
      "name": "Tepetitlán Municipality",
      "nativeName": "Tepetitlán",
      "code": "MX-HID-8582083",
      "countryId": 3996063,
      "countryCode": "MX",
      "stateCode": "MX-HID",
      "latitude": 20.18301,
      "longitude": -99.38882
    },
    {
      "id": 8582084,
      "name": "Tetepango Municipality",
      "nativeName": "Tetepango",
      "code": "MX-HID-8582084",
      "countryId": 3996063,
      "countryCode": "MX",
      "stateCode": "MX-HID",
      "latitude": 20.1158,
      "longitude": -99.16348
    },
    {
      "id": 8582085,
      "name": "Tezontepec Municipality",
      "nativeName": "Villa de Tezontepec",
      "code": "MX-HID-8582085",
      "countryId": 3996063,
      "countryCode": "MX",
      "stateCode": "MX-HID",
      "latitude": 19.90505,
      "longitude": -98.80703
    },
    {
      "id": 8582086,
      "name": "Tezontepec de Aldama Municipality",
      "nativeName": "Tezontepec de Aldama",
      "code": "MX-HID-8582086",
      "countryId": 3996063,
      "countryCode": "MX",
      "stateCode": "MX-HID",
      "latitude": 20.17253,
      "longitude": -99.28099
    },
    {
      "id": 8582087,
      "name": "Tianguistengo Municipality",
      "nativeName": "Tianguistengo",
      "code": "MX-HID-8582087",
      "countryId": 3996063,
      "countryCode": "MX",
      "stateCode": "MX-HID",
      "latitude": 20.78328,
      "longitude": -98.55253
    },
    {
      "id": 8379477,
      "name": "Tizayuca Municipality",
      "nativeName": "Tizayuca",
      "code": "MX-HID-8379477",
      "countryId": 3996063,
      "countryCode": "MX",
      "stateCode": "MX-HID",
      "latitude": 19.83664,
      "longitude": -98.97772
    },
    {
      "id": 8582088,
      "name": "Tlahuelilpan Municipality",
      "nativeName": "Tlahuelilpan",
      "code": "MX-HID-8582088",
      "countryId": 3996063,
      "countryCode": "MX",
      "stateCode": "MX-HID",
      "latitude": 20.13087,
      "longitude": -99.22677
    },
    {
      "id": 8582089,
      "name": "Tlahuiltepa Municipality",
      "nativeName": "Tlahuiltepa",
      "code": "MX-HID-8582089",
      "countryId": 3996063,
      "countryCode": "MX",
      "stateCode": "MX-HID",
      "latitude": 20.89805,
      "longitude": -98.96263
    },
    {
      "id": 8582090,
      "name": "Tlanalapa Municipality",
      "nativeName": "Tlanalapa",
      "code": "MX-HID-8582090",
      "countryId": 3996063,
      "countryCode": "MX",
      "stateCode": "MX-HID",
      "latitude": 19.82525,
      "longitude": -98.59449
    },
    {
      "id": 8582091,
      "name": "Tlanchinol Municipality",
      "nativeName": "Tlanchinol",
      "code": "MX-HID-8582091",
      "countryId": 3996063,
      "countryCode": "MX",
      "stateCode": "MX-HID",
      "latitude": 21.03005,
      "longitude": -98.64996
    },
    {
      "id": 8582092,
      "name": "Tlaxcoapan Municipality",
      "nativeName": "Tlaxcoapan",
      "code": "MX-HID-8582092",
      "countryId": 3996063,
      "countryCode": "MX",
      "stateCode": "MX-HID",
      "latitude": 20.09503,
      "longitude": -99.22654
    },
    {
      "id": 8582093,
      "name": "Tolcayuca Municipality",
      "nativeName": "Tolcayuca",
      "code": "MX-HID-8582093",
      "countryId": 3996063,
      "countryCode": "MX",
      "stateCode": "MX-HID",
      "latitude": 19.94112,
      "longitude": -98.91908
    },
    {
      "id": 8582094,
      "name": "Tula de Allende Municipality",
      "nativeName": "Tula de Allende",
      "code": "MX-HID-8582094",
      "countryId": 3996063,
      "countryCode": "MX",
      "stateCode": "MX-HID",
      "latitude": 20.04843,
      "longitude": -99.35574
    },
    {
      "id": 8582095,
      "name": "Tulancingo Municipality",
      "nativeName": "Tulancingo de Bravo",
      "code": "MX-HID-8582095",
      "countryId": 3996063,
      "countryCode": "MX",
      "stateCode": "MX-HID",
      "latitude": 20.11983,
      "longitude": -98.36049
    },
    {
      "id": 8582096,
      "name": "Xochiatipan Municipality",
      "nativeName": "Xochiatipan",
      "code": "MX-HID-8582096",
      "countryId": 3996063,
      "countryCode": "MX",
      "stateCode": "MX-HID",
      "latitude": 20.85794,
      "longitude": -98.28206
    },
    {
      "id": 8582097,
      "name": "Xochicoatlán Municipality",
      "nativeName": "Xochicoatlán",
      "code": "MX-HID-8582097",
      "countryId": 3996063,
      "countryCode": "MX",
      "stateCode": "MX-HID",
      "latitude": 20.79715,
      "longitude": -98.63718
    },
    {
      "id": 8582098,
      "name": "Yahualica Municipality",
      "nativeName": "Yahualica",
      "code": "MX-HID-8582098",
      "countryId": 3996063,
      "countryCode": "MX",
      "stateCode": "MX-HID",
      "latitude": 20.91485,
      "longitude": -98.37868
    },
    {
      "id": 8582099,
      "name": "Zacualtipan Municipality",
      "nativeName": "Zacualtipán de Ángeles",
      "code": "MX-HID-8582099",
      "countryId": 3996063,
      "countryCode": "MX",
      "stateCode": "MX-HID",
      "latitude": 20.65608,
      "longitude": -98.59353
    },
    {
      "id": 8582100,
      "name": "Zapotlán de Juárez Municipality",
      "nativeName": "Zapotlán de Juárez",
      "code": "MX-HID-8582100",
      "countryId": 3996063,
      "countryCode": "MX",
      "stateCode": "MX-HID",
      "latitude": 19.99236,
      "longitude": -98.86078
    },
    {
      "id": 8582101,
      "name": "Zempoala Municipality",
      "nativeName": "Zempoala",
      "code": "MX-HID-8582101",
      "countryId": 3996063,
      "countryCode": "MX",
      "stateCode": "MX-HID",
      "latitude": 19.9385,
      "longitude": -98.66871
    },
    {
      "id": 8582102,
      "name": "Zimapán Municipality",
      "nativeName": "Zimapán",
      "code": "MX-HID-8582102",
      "countryId": 3996063,
      "countryCode": "MX",
      "stateCode": "MX-HID",
      "latitude": 20.7438,
      "longitude": -99.3554
    }
  ]
}