{
  "stateId": 3522509,
  "stateCode": "MX-OAX",
  "countryCode": "MX",
  "cities": [
    {
      "id": 8582472,
      "name": "Abejones",
      "nativeName": "Abejones",
      "code": "MX-OAX-8582472",
      "countryId": 3996063,
      "countryCode": "MX",
      "stateCode": "MX-OAX",
      "latitude": 17.4325,
      "longitude": -96.60417
    },
    {
      "id": 8582473,
      "name": "Acatlán de Pérez Figueroa",
      "nativeName": "Acatlán de Pérez Figueroa",
      "code": "MX-OAX-8582473",
      "countryId": 3996063,
      "countryCode": "MX",
      "stateCode": "MX-OAX",
      "latitude": 18.48357,
      "longitude": -96.52819
    },
    {
      "id": 8582474,
      "name": "Asunción Cacalotepec",
      "nativeName": "Asunción Cacalotepec",
      "code": "MX-OAX-8582474",
      "countryId": 3996063,
      "countryCode": "MX",
      "stateCode": "MX-OAX",
      "latitude": 17.0347,
      "longitude": -95.93361
    },
    {
      "id": 8582475,
      "name": "Asunción Cuyotepeji",
      "nativeName": "Asunción Cuyotepeji",
      "code": "MX-OAX-8582475",
      "countryId": 3996063,
      "countryCode": "MX",
      "stateCode": "MX-OAX",
      "latitude": 17.92426,
      "longitude": -97.6794
    },
    {
      "id": 8582476,
      "name": "Asunción Ixtaltepec",
      "nativeName": "Asunción Ixtaltepec",
      "code": "MX-OAX-8582476",
      "countryId": 3996063,
      "countryCode": "MX",
      "stateCode": "MX-OAX",
      "latitude": 16.5482,
      "longitude": -95.03043
    },
    {
      "id": 8582477,
      "name": "Asunción Nochixtlán",
      "nativeName": "Asunción Nochixtlán",
      "code": "MX-OAX-8582477",
      "countryId": 3996063,
      "countryCode": "MX",
      "stateCode": "MX-OAX",
      "latitude": 17.43751,
      "longitude": -97.17967
    },
    {
      "id": 8582478,
      "name": "Asunción Ocotlán",
      "nativeName": "Asunción Ocotlán",
      "code": "MX-OAX-8582478",
      "countryId": 3996063,
      "countryCode": "MX",
      "stateCode": "MX-OAX",
      "latitude": 16.75722,
      "longitude": -96.72194
    },
    {
      "id": 8582479,
      "name": "Asunción Tlacolulita",
      "nativeName": "Asunción Tlacolulita",
      "code": "MX-OAX-8582479",
      "countryId": 3996063,
      "countryCode": "MX",
      "stateCode": "MX-OAX",
      "latitude": 16.22612,
      "longitude": -95.7662
    },
    {
      "id": 8582480,
      "name": "Ayotzintepec",
      "nativeName": "Ayotzintepec",
      "code": "MX-OAX-8582480",
      "countryId": 3996063,
      "countryCode": "MX",
      "stateCode": "MX-OAX",
      "latitude": 17.71909,
      "longitude": -96.14202
    },
    {
      "id": 8582482,
      "name": "Calihualá",
      "nativeName": "Calihualá",
      "code": "MX-OAX-8582482",
      "countryId": 3996063,
      "countryCode": "MX",
      "stateCode": "MX-OAX",
      "latitude": 17.53983,
      "longitude": -98.26756
    },
    {
      "id": 8582483,
      "name": "Candelaria Loxicha",
      "nativeName": "Candelaria Loxicha",
      "code": "MX-OAX-8582483",
      "countryId": 3996063,
      "countryCode": "MX",
      "stateCode": "MX-OAX",
      "latitude": 15.92801,
      "longitude": -96.51749
    },
    {
      "id": 8582496,
      "name": "Chahuites",
      "nativeName": "Chahuites",
      "code": "MX-OAX-8582496",
      "countryId": 3996063,
      "countryCode": "MX",
      "stateCode": "MX-OAX",
      "latitude": 16.27267,
      "longitude": -94.19986
    },
    {
      "id": 8582497,
      "name": "Chalcatongo de Hidalgo",
      "nativeName": "Chalcatongo de Hidalgo",
      "code": "MX-OAX-8582497",
      "countryId": 3996063,
      "countryCode": "MX",
      "stateCode": "MX-OAX",
      "latitude": 16.99293,
      "longitude": -97.54976
    },
    {
      "id": 8582498,
      "name": "Chiquihuitlán de Benito Juárez",
      "nativeName": "Chiquihuitlán de Benito Juárez",
      "code": "MX-OAX-8582498",
      "countryId": 3996063,
      "countryCode": "MX",
      "stateCode": "MX-OAX",
      "latitude": 17.99062,
      "longitude": -96.75583
    },
    {
      "id": 8582485,
      "name": "Ciudad Ixtepec",
      "nativeName": "Ciudad Ixtepec",
      "code": "MX-OAX-8582485",
      "countryId": 3996063,
      "countryCode": "MX",
      "stateCode": "MX-OAX",
      "latitude": 16.57628,
      "longitude": -95.10983
    },
    {
      "id": 8582484,
      "name": "Ciénega de Zimatlán",
      "nativeName": "Ciénega de Zimatlán",
      "code": "MX-OAX-8582484",
      "countryId": 3996063,
      "countryCode": "MX",
      "stateCode": "MX-OAX",
      "latitude": 16.89366,
      "longitude": -96.76801
    },
    {
      "id": 8582486,
      "name": "Coatecas Altas",
      "nativeName": "Coatecas Altas",
      "code": "MX-OAX-8582486",
      "countryId": 3996063,
      "countryCode": "MX",
      "stateCode": "MX-OAX",
      "latitude": 16.52022,
      "longitude": -96.61657
    },
    {
      "id": 8582487,
      "name": "Coicoyán de las Flores",
      "nativeName": "Coicoyán de las Flores",
      "code": "MX-OAX-8582487",
      "countryId": 3996063,
      "countryCode": "MX",
      "stateCode": "MX-OAX",
      "latitude": 17.21594,
      "longitude": -98.18371
    },
    {
      "id": 8582489,
      "name": "Concepción Buenavista",
      "nativeName": "Concepción Buenavista",
      "code": "MX-OAX-8582489",
      "countryId": 3996063,
      "countryCode": "MX",
      "stateCode": "MX-OAX",
      "latitude": 17.96072,
      "longitude": -97.42863
    },
    {
      "id": 8582490,
      "name": "Concepción Pápalo",
      "nativeName": "Concepción Pápalo",
      "code": "MX-OAX-8582490",
      "countryId": 3996063,
      "countryCode": "MX",
      "stateCode": "MX-OAX",
      "latitude": 17.85391,
      "longitude": -96.84472
    },
    {
      "id": 8582491,
      "name": "Constancia del Rosario",
      "nativeName": "Constancia del Rosario",
      "code": "MX-OAX-8582491",
      "countryId": 3996063,
      "countryCode": "MX",
      "stateCode": "MX-OAX",
      "latitude": 17.05972,
      "longitude": -97.99546
    },
    {
      "id": 8582492,
      "name": "Cosolapa",
      "nativeName": "Cosolapa",
      "code": "MX-OAX-8582492",
      "countryId": 3996063,
      "countryCode": "MX",
      "stateCode": "MX-OAX",
      "latitude": 18.58423,
      "longitude": -96.66304
    },
    {
      "id": 8582493,
      "name": "Cosoltepec",
      "nativeName": "Cosoltepec",
      "code": "MX-OAX-8582493",
      "countryId": 3996063,
      "countryCode": "MX",
      "stateCode": "MX-OAX",
      "latitude": 18.13942,
      "longitude": -97.80552
    },
    {
      "id": 8582494,
      "name": "Cuilápam de Guerrero",
      "nativeName": "Cuilápam de Guerrero",
      "code": "MX-OAX-8582494",
      "countryId": 3996063,
      "countryCode": "MX",
      "stateCode": "MX-OAX",
      "latitude": 17.00391,
      "longitude": -96.78173
    },
    {
      "id": 8582495,
      "name": "Cuyamecalco Villa de Zaragoza",
      "nativeName": "Cuyamecalco Villa de Zaragoza",
      "code": "MX-OAX-8582495",
      "countryId": 3996063,
      "countryCode": "MX",
      "stateCode": "MX-OAX",
      "latitude": 17.96703,
      "longitude": -96.83944
    },
    {
      "id": 8582481,
      "name": "El Barrio de La Soledad",
      "nativeName": "El Barrio de la Soledad",
      "code": "MX-OAX-8582481",
      "countryId": 3996063,
      "countryCode": "MX",
      "stateCode": "MX-OAX",
      "latitude": 16.80131,
      "longitude": -95.03909
    },
    {
      "id": 8582501,
      "name": "El Espinal",
      "nativeName": "El Espinal",
      "code": "MX-OAX-8582501",
      "countryId": 3996063,
      "countryCode": "MX",
      "stateCode": "MX-OAX",
      "latitude": 16.46751,
      "longitude": -95.04198
    },
    {
      "id": 8582500,
      "name": "Eloxochitlán de Flores Magón",
      "nativeName": "Eloxochitlán de Flores Magón",
      "code": "MX-OAX-8582500",
      "countryId": 3996063,
      "countryCode": "MX",
      "stateCode": "MX-OAX",
      "latitude": 18.18584,
      "longitude": -96.87721
    },
    {
      "id": 8582503,
      "name": "Fresnillo de Trujano",
      "nativeName": "Fresnillo de Trujano",
      "code": "MX-OAX-8582503",
      "countryId": 3996063,
      "countryCode": "MX",
      "stateCode": "MX-OAX",
      "latitude": 17.92505,
      "longitude": -98.13278
    },
    {
      "id": 8582504,
      "name": "Guadalupe Etla",
      "nativeName": "Guadalupe Etla",
      "code": "MX-OAX-8582504",
      "countryId": 3996063,
      "countryCode": "MX",
      "stateCode": "MX-OAX",
      "latitude": 17.17907,
      "longitude": -96.7975
    },
    {
      "id": 8582505,
      "name": "Guadalupe de Ramírez",
      "nativeName": "Guadalupe de Ramírez",
      "code": "MX-OAX-8582505",
      "countryId": 3996063,
      "countryCode": "MX",
      "stateCode": "MX-OAX",
      "latitude": 17.75445,
      "longitude": -98.1643
    },
    {
      "id": 8582506,
      "name": "Guelatao de Juárez",
      "nativeName": "Guelatao de Juárez",
      "code": "MX-OAX-8582506",
      "countryId": 3996063,
      "countryCode": "MX",
      "stateCode": "MX-OAX",
      "latitude": 17.31479,
      "longitude": -96.50014
    },
    {
      "id": 8582507,
      "name": "Guevea de Humboldt",
      "nativeName": "Guevea de Humboldt",
      "code": "MX-OAX-8582507",
      "countryId": 3996063,
      "countryCode": "MX",
      "stateCode": "MX-OAX",
      "latitude": 16.81078,
      "longitude": -95.39203
    },
    {
      "id": 8582499,
      "name": "Heroica Ciudad de Ejutla de Crespo",
      "nativeName": "Heroica Ciudad de Ejutla de Crespo",
      "code": "MX-OAX-8582499",
      "countryId": 3996063,
      "countryCode": "MX",
      "stateCode": "MX-OAX",
      "latitude": 16.57835,
      "longitude": -96.73079
    },
    {
      "id": 8582510,
      "name": "Heroica Ciudad de Huajuapan de León",
      "nativeName": "Heroica Ciudad de Huajuapan de León",
      "code": "MX-OAX-8582510",
      "countryId": 3996063,
      "countryCode": "MX",
      "stateCode": "MX-OAX",
      "latitude": 17.82307,
      "longitude": -97.78635
    },
    {
      "id": 8582514,
      "name": "Heroica Ciudad de Juchitán de Zaragoza",
      "nativeName": "Heroica Ciudad de Juchitán de Zaragoza",
      "code": "MX-OAX-8582514",
      "countryId": 3996063,
      "countryCode": "MX",
      "stateCode": "MX-OAX",
      "latitude": 16.44873,
      "longitude": -94.98619
    },
    {
      "id": 8582511,
      "name": "Huautepec",
      "nativeName": "Huautepec",
      "code": "MX-OAX-8582511",
      "countryId": 3996063,
      "countryCode": "MX",
      "stateCode": "MX-OAX",
      "latitude": 18.08382,
      "longitude": -96.79404
    },
    {
      "id": 8582512,
      "name": "Huautla de Jiménez",
      "nativeName": "Huautla de Jiménez",
      "code": "MX-OAX-8582512",
      "countryId": 3996063,
      "countryCode": "MX",
      "stateCode": "MX-OAX",
      "latitude": 18.14518,
      "longitude": -96.8035
    },
    {
      "id": 8582536,
      "name": "Ixpantepec Nieves",
      "nativeName": "Ixpantepec Nieves",
      "code": "MX-OAX-8582536",
      "countryId": 3996063,
      "countryCode": "MX",
      "stateCode": "MX-OAX",
      "latitude": 17.50552,
      "longitude": -98.03664
    },
    {
      "id": 8582513,
      "name": "Ixtlán de Juárez",
      "nativeName": "Ixtlán de Juárez",
      "code": "MX-OAX-8582513",
      "countryId": 3996063,
      "countryCode": "MX",
      "stateCode": "MX-OAX",
      "latitude": 17.49468,
      "longitude": -96.33925
    },
    {
      "id": 8582488,
      "name": "La Compañía",
      "nativeName": "La Compañía",
      "code": "MX-OAX-8582488",
      "countryId": 3996063,
      "countryCode": "MX",
      "stateCode": "MX-OAX",
      "latitude": 16.57368,
      "longitude": -96.83838
    },
    {
      "id": 8582540,
      "name": "La Pe",
      "nativeName": "La Pe",
      "code": "MX-OAX-8582540",
      "countryId": 3996063,
      "countryCode": "MX",
      "stateCode": "MX-OAX",
      "latitude": 16.61833,
      "longitude": -96.78931
    },
    {
      "id": 8582547,
      "name": "La Reforma",
      "nativeName": "La Reforma",
      "code": "MX-OAX-8582547",
      "countryId": 3996063,
      "countryCode": "MX",
      "stateCode": "MX-OAX",
      "latitude": 16.65776,
      "longitude": -97.86005
    },
    {
      "id": 8582515,
      "name": "Loma Bonita",
      "nativeName": "Loma Bonita",
      "code": "MX-OAX-8582515",
      "countryId": 3996063,
      "countryCode": "MX",
      "stateCode": "MX-OAX",
      "latitude": 18.0188,
      "longitude": -95.88829
    },
    {
      "id": 8582516,
      "name": "Magdalena Apasco",
      "nativeName": "Magdalena Apasco",
      "code": "MX-OAX-8582516",
      "countryId": 3996063,
      "countryCode": "MX",
      "stateCode": "MX-OAX",
      "latitude": 17.23556,
      "longitude": -96.82469
    },
    {
      "id": 8582517,
      "name": "Magdalena Jaltepec",
      "nativeName": "Magdalena Jaltepec",
      "code": "MX-OAX-8582517",
      "countryId": 3996063,
      "countryCode": "MX",
      "stateCode": "MX-OAX",
      "latitude": 17.2896,
      "longitude": -97.22669
    },
    {
      "id": 8582519,
      "name": "Magdalena Mixtepec",
      "nativeName": "Magdalena Mixtepec",
      "code": "MX-OAX-8582519",
      "countryId": 3996063,
      "countryCode": "MX",
      "stateCode": "MX-OAX",
      "latitude": 16.89053,
      "longitude": -96.91722
    },
    {
      "id": 8582520,
      "name": "Magdalena Ocotlán",
      "nativeName": "Magdalena Ocotlán",
      "code": "MX-OAX-8582520",
      "countryId": 3996063,
      "countryCode": "MX",
      "stateCode": "MX-OAX",
      "latitude": 16.70889,
      "longitude": -96.71176
    },
    {
      "id": 8582521,
      "name": "Magdalena Peñasco",
      "nativeName": "Magdalena Peñasco",
      "code": "MX-OAX-8582521",
      "countryId": 3996063,
      "countryCode": "MX",
      "stateCode": "MX-OAX",
      "latitude": 17.23831,
      "longitude": -97.5614
    },
    {
      "id": 8582522,
      "name": "Magdalena Teitipac",
      "nativeName": "Magdalena Teitipac",
      "code": "MX-OAX-8582522",
      "countryId": 3996063,
      "countryCode": "MX",
      "stateCode": "MX-OAX",
      "latitude": 16.90231,
      "longitude": -96.56176
    },
    {
      "id": 8582523,
      "name": "Magdalena Tequisistlán",
      "nativeName": "Magdalena Tequisistlán",
      "code": "MX-OAX-8582523",
      "countryId": 3996063,
      "countryCode": "MX",
      "stateCode": "MX-OAX",
      "latitude": 16.40497,
      "longitude": -95.62065
    },
    {
      "id": 8582524,
      "name": "Magdalena Tlacotepec",
      "nativeName": "Magdalena Tlacotepec",
      "code": "MX-OAX-8582524",
      "countryId": 3996063,
      "countryCode": "MX",
      "stateCode": "MX-OAX",
      "latitude": 16.50898,
      "longitude": -95.20102
    },
    {
      "id": 8582525,
      "name": "Magdalena Zahuatlán",
      "nativeName": "Magdalena Zahuatlán",
      "code": "MX-OAX-8582525",
      "countryId": 3996063,
      "countryCode": "MX",
      "stateCode": "MX-OAX",
      "latitude": 17.39139,
      "longitude": -97.22708
    },
    {
      "id": 8582526,
      "name": "Mariscala de Juárez",
      "nativeName": "Mariscala de Juárez",
      "code": "MX-OAX-8582526",
      "countryId": 3996063,
      "countryCode": "MX",
      "stateCode": "MX-OAX",
      "latitude": 17.84782,
      "longitude": -98.1362
    },
    {
      "id": 8582528,
      "name": "Matías Romero Avendaño",
      "nativeName": "Matías Romero Avendaño",
      "code": "MX-OAX-8582528",
      "countryId": 3996063,
      "countryCode": "MX",
      "stateCode": "MX-OAX",
      "latitude": 17.20162,
      "longitude": -95.0217
    },
    {
      "id": 8582529,
      "name": "Mazatlán Villa de Flores",
      "nativeName": "Mazatlán Villa de Flores",
      "code": "MX-OAX-8582529",
      "countryId": 3996063,
      "countryCode": "MX",
      "stateCode": "MX-OAX",
      "latitude": 18.03498,
      "longitude": -96.92221
    },
    {
      "id": 8582508,
      "name": "Mesones Hidalgo",
      "nativeName": "Mesones Hidalgo",
      "code": "MX-OAX-8582508",
      "countryId": 3996063,
      "countryCode": "MX",
      "stateCode": "MX-OAX",
      "latitude": 16.92208,
      "longitude": -97.99765
    },
    {
      "id": 8582530,
      "name": "Miahuatlán de Porfirio Díaz",
      "nativeName": "Miahuatlán de Porfirio Díaz",
      "code": "MX-OAX-8582530",
      "countryId": 3996063,
      "countryCode": "MX",
      "stateCode": "MX-OAX",
      "latitude": 16.34489,
      "longitude": -96.61229
    },
    {
      "id": 8582531,
      "name": "Mixistlán de la Reforma",
      "nativeName": "Mixistlán de la Reforma",
      "code": "MX-OAX-8582531",
      "countryId": 3996063,
      "countryCode": "MX",
      "stateCode": "MX-OAX",
      "latitude": 17.14669,
      "longitude": -96.10669
    },
    {
      "id": 8582532,
      "name": "Monjas",
      "nativeName": "Monjas",
      "code": "MX-OAX-8582532",
      "countryId": 3996063,
      "countryCode": "MX",
      "stateCode": "MX-OAX",
      "latitude": 16.39363,
      "longitude": -96.63406
    },
    {
      "id": 8582527,
      "name": "Mártires de Tacubaya",
      "nativeName": "Mártires de Tacubaya",
      "code": "MX-OAX-8582527",
      "countryId": 3996063,
      "countryCode": "MX",
      "stateCode": "MX-OAX",
      "latitude": 16.54618,
      "longitude": -98.24174
    },
    {
      "id": 8582533,
      "name": "Natividad",
      "nativeName": "Natividad",
      "code": "MX-OAX-8582533",
      "countryId": 3996063,
      "countryCode": "MX",
      "stateCode": "MX-OAX",
      "latitude": 17.29639,
      "longitude": -96.43194
    },
    {
      "id": 8582534,
      "name": "Nazareno Etla",
      "nativeName": "Nazareno Etla",
      "code": "MX-OAX-8582534",
      "countryId": 3996063,
      "countryCode": "MX",
      "stateCode": "MX-OAX",
      "latitude": 17.17667,
      "longitude": -96.83264
    },
    {
      "id": 8582535,
      "name": "Nejapa de Madero",
      "nativeName": "Nejapa de Madero",
      "code": "MX-OAX-8582535",
      "countryId": 3996063,
      "countryCode": "MX",
      "stateCode": "MX-OAX",
      "latitude": 16.56317,
      "longitude": -95.99305
    },
    {
      "id": 8582538,
      "name": "Oaxaca de Juárez",
      "nativeName": "Oaxaca de Juárez",
      "code": "MX-OAX-8582538",
      "countryId": 3996063,
      "countryCode": "MX",
      "stateCode": "MX-OAX",
      "latitude": 17.11345,
      "longitude": -96.73556
    },
    {
      "id": 8582539,
      "name": "Ocotlán de Morelos",
      "nativeName": "Ocotlán de Morelos",
      "code": "MX-OAX-8582539",
      "countryId": 3996063,
      "countryCode": "MX",
      "stateCode": "MX-OAX",
      "latitude": 16.78148,
      "longitude": -96.67398
    },
    {
      "id": 8582541,
      "name": "Pinotepa de Don Luis",
      "nativeName": "Pinotepa de Don Luis",
      "code": "MX-OAX-8582541",
      "countryId": 3996063,
      "countryCode": "MX",
      "stateCode": "MX-OAX",
      "latitude": 16.40531,
      "longitude": -97.96684
    },
    {
      "id": 8582542,
      "name": "Pluma Hidalgo",
      "nativeName": "Pluma Hidalgo",
      "code": "MX-OAX-8582542",
      "countryId": 3996063,
      "countryCode": "MX",
      "stateCode": "MX-OAX",
      "latitude": 15.92127,
      "longitude": -96.42977
    },
    {
      "id": 8582544,
      "name": "Putla Villa de Guerrero",
      "nativeName": "Putla Villa de Guerrero",
      "code": "MX-OAX-8582544",
      "countryId": 3996063,
      "countryCode": "MX",
      "stateCode": "MX-OAX",
      "latitude": 17.02733,
      "longitude": -97.87028
    },
    {
      "id": 8582546,
      "name": "Reforma de Pineda",
      "nativeName": "Reforma de Pineda",
      "code": "MX-OAX-8582546",
      "countryId": 3996063,
      "countryCode": "MX",
      "stateCode": "MX-OAX",
      "latitude": 16.39989,
      "longitude": -94.451
    },
    {
      "id": 8582548,
      "name": "Reyes Etla",
      "nativeName": "Reyes Etla",
      "code": "MX-OAX-8582548",
      "countryId": 3996063,
      "countryCode": "MX",
      "stateCode": "MX-OAX",
      "latitude": 17.21451,
      "longitude": -96.81507
    },
    {
      "id": 8582549,
      "name": "Rojas de Cuauhtémoc",
      "nativeName": "Rojas de Cuauhtémoc",
      "code": "MX-OAX-8582549",
      "countryId": 3996063,
      "countryCode": "MX",
      "stateCode": "MX-OAX",
      "latitude": 17.00861,
      "longitude": -96.61944
    },
    {
      "id": 8582550,
      "name": "Salina Cruz",
      "nativeName": "Salina Cruz",
      "code": "MX-OAX-8582550",
      "countryId": 3996063,
      "countryCode": "MX",
      "stateCode": "MX-OAX",
      "latitude": 16.1949,
      "longitude": -95.21515
    },
    {
      "id": 8582551,
      "name": "San Agustín Amatengo",
      "nativeName": "San Agustín Amatengo",
      "code": "MX-OAX-8582551",
      "countryId": 3996063,
      "countryCode": "MX",
      "stateCode": "MX-OAX",
      "latitude": 16.51542,
      "longitude": -96.78931
    },
    {
      "id": 8582552,
      "name": "San Agustín Atenango",
      "nativeName": "San Agustín Atenango",
      "code": "MX-OAX-8582552",
      "countryId": 3996063,
      "countryCode": "MX",
      "stateCode": "MX-OAX",
      "latitude": 17.59886,
      "longitude": -97.99889
    },
    {
      "id": 8582553,
      "name": "San Agustín Chayuco",
      "nativeName": "San Agustín Chayuco",
      "code": "MX-OAX-8582553",
      "countryId": 3996063,
      "countryCode": "MX",
      "stateCode": "MX-OAX",
      "latitude": 16.44207,
      "longitude": -97.82645
    },
    {
      "id": 8582555,
      "name": "San Agustín Etla",
      "nativeName": "San Agustín Etla",
      "code": "MX-OAX-8582555",
      "countryId": 3996063,
      "countryCode": "MX",
      "stateCode": "MX-OAX",
      "latitude": 17.18659,
      "longitude": -96.75825
    },
    {
      "id": 8582556,
      "name": "San Agustín Loxicha",
      "nativeName": "San Agustín Loxicha",
      "code": "MX-OAX-8582556",
      "countryId": 3996063,
      "countryCode": "MX",
      "stateCode": "MX-OAX",
      "latitude": 15.97926,
      "longitude": -96.62173
    },
    {
      "id": 8582557,
      "name": "San Agustín Tlacotepec",
      "nativeName": "San Agustín Tlacotepec",
      "code": "MX-OAX-8582557",
      "countryId": 3996063,
      "countryCode": "MX",
      "stateCode": "MX-OAX",
      "latitude": 17.20927,
      "longitude": -97.51356
    },
    {
      "id": 8582558,
      "name": "San Agustín Yatareni",
      "nativeName": "San Agustín Yatareni",
      "code": "MX-OAX-8582558",
      "countryId": 3996063,
      "countryCode": "MX",
      "stateCode": "MX-OAX",
      "latitude": 17.08635,
      "longitude": -96.67845
    },
    {
      "id": 8582554,
      "name": "San Agustín de las Juntas",
      "nativeName": "San Agustín de las Juntas",
      "code": "MX-OAX-8582554",
      "countryId": 3996063,
      "countryCode": "MX",
      "stateCode": "MX-OAX",
      "latitude": 17.0073,
      "longitude": -96.70484
    },
    {
      "id": 8582559,
      "name": "San Andrés Cabecera Nueva",
      "nativeName": "San Andrés Cabecera Nueva",
      "code": "MX-OAX-8582559",
      "countryId": 3996063,
      "countryCode": "MX",
      "stateCode": "MX-OAX",
      "latitude": 16.85982,
      "longitude": -97.75695
    },
    {
      "id": 8582560,
      "name": "San Andrés Dinicuiti",
      "nativeName": "San Andrés Dinicuiti",
      "code": "MX-OAX-8582560",
      "countryId": 3996063,
      "countryCode": "MX",
      "stateCode": "MX-OAX",
      "latitude": 17.69633,
      "longitude": -97.69433
    },
    {
      "id": 8582561,
      "name": "San Andrés Huaxpaltepec",
      "nativeName": "San Andrés Huaxpaltepec",
      "code": "MX-OAX-8582561",
      "countryId": 3996063,
      "countryCode": "MX",
      "stateCode": "MX-OAX",
      "latitude": 16.33081,
      "longitude": -97.9053
    },
    {
      "id": 8582562,
      "name": "San Andrés Huayápam",
      "nativeName": "San Andrés Huayápam",
      "code": "MX-OAX-8582562",
      "countryId": 3996063,
      "countryCode": "MX",
      "stateCode": "MX-OAX",
      "latitude": 17.09981,
      "longitude": -96.66832
    },
    {
      "id": 8582563,
      "name": "San Andrés Ixtlahuaca",
      "nativeName": "San Andrés Ixtlahuaca",
      "code": "MX-OAX-8582563",
      "countryId": 3996063,
      "countryCode": "MX",
      "stateCode": "MX-OAX",
      "latitude": 17.06979,
      "longitude": -96.84139
    },
    {
      "id": 8582564,
      "name": "San Andrés Lagunas",
      "nativeName": "San Andrés Lagunas",
      "code": "MX-OAX-8582564",
      "countryId": 3996063,
      "countryCode": "MX",
      "stateCode": "MX-OAX",
      "latitude": 17.57344,
      "longitude": -97.52283
    },
    {
      "id": 8582565,
      "name": "San Andrés Nuxiño",
      "nativeName": "San Andrés Nuxiño",
      "code": "MX-OAX-8582565",
      "countryId": 3996063,
      "countryCode": "MX",
      "stateCode": "MX-OAX",
      "latitude": 17.2349,
      "longitude": -97.06851
    },
    {
      "id": 8582566,
      "name": "San Andrés Paxtlán",
      "nativeName": "San Andrés Paxtlán",
      "code": "MX-OAX-8582566",
      "countryId": 3996063,
      "countryCode": "MX",
      "stateCode": "MX-OAX",
      "latitude": 16.20938,
      "longitude": -96.52537
    },
    {
      "id": 8582567,
      "name": "San Andrés Sinaxtla",
      "nativeName": "San Andrés Sinaxtla",
      "code": "MX-OAX-8582567",
      "countryId": 3996063,
      "countryCode": "MX",
      "stateCode": "MX-OAX",
      "latitude": 17.48541,
      "longitude": -97.27335
    },
    {
      "id": 8582568,
      "name": "San Andrés Solaga",
      "nativeName": "San Andrés Solaga",
      "code": "MX-OAX-8582568",
      "countryId": 3996063,
      "countryCode": "MX",
      "stateCode": "MX-OAX",
      "latitude": 17.27042,
      "longitude": -96.22667
    },
    {
      "id": 8582569,
      "name": "San Andrés Teotilálpam",
      "nativeName": "San Andrés Teotilálpam",
      "code": "MX-OAX-8582569",
      "countryId": 3996063,
      "countryCode": "MX",
      "stateCode": "MX-OAX",
      "latitude": 17.94684,
      "longitude": -96.61798
    },
    {
      "id": 8582570,
      "name": "San Andrés Tepetlapa",
      "nativeName": "San Andrés Tepetlapa",
      "code": "MX-OAX-8582570",
      "countryId": 3996063,
      "countryCode": "MX",
      "stateCode": "MX-OAX",
      "latitude": 17.66292,
      "longitude": -98.38944
    },
    {
      "id": 8582571,
      "name": "San Andrés Yaá",
      "nativeName": "San Andrés Yaá",
      "code": "MX-OAX-8582571",
      "countryId": 3996063,
      "countryCode": "MX",
      "stateCode": "MX-OAX",
      "latitude": 17.2938,
      "longitude": -96.1488
    },
    {
      "id": 8582572,
      "name": "San Andrés Zabache",
      "nativeName": "San Andrés Zabache",
      "code": "MX-OAX-8582572",
      "countryId": 3996063,
      "countryCode": "MX",
      "stateCode": "MX-OAX",
      "latitude": 16.59917,
      "longitude": -96.85889
    },
    {
      "id": 8582573,
      "name": "San Andrés Zautla",
      "nativeName": "San Andrés Zautla",
      "code": "MX-OAX-8582573",
      "countryId": 3996063,
      "countryCode": "MX",
      "stateCode": "MX-OAX",
      "latitude": 17.18961,
      "longitude": -96.8573
    },
    {
      "id": 8582574,
      "name": "San Antonino Castillo Velasco",
      "nativeName": "San Antonino Castillo Velasco",
      "code": "MX-OAX-8582574",
      "countryId": 3996063,
      "countryCode": "MX",
      "stateCode": "MX-OAX",
      "latitude": 16.809,
      "longitude": -96.69267
    },
    {
      "id": 8582575,
      "name": "San Antonino El Alto",
      "nativeName": "San Antonino el Alto",
      "code": "MX-OAX-8582575",
      "countryId": 3996063,
      "countryCode": "MX",
      "stateCode": "MX-OAX",
      "latitude": 16.81984,
      "longitude": -97.02719
    },
    {
      "id": 8582576,
      "name": "San Antonino Monte Verde",
      "nativeName": "San Antonino Monte Verde",
      "code": "MX-OAX-8582576",
      "countryId": 3996063,
      "countryCode": "MX",
      "stateCode": "MX-OAX",
      "latitude": 17.51869,
      "longitude": -97.72654
    },
    {
      "id": 8582577,
      "name": "San Antonio Acutla",
      "nativeName": "San Antonio Acutla",
      "code": "MX-OAX-8582577",
      "countryId": 3996063,
      "countryCode": "MX",
      "stateCode": "MX-OAX",
      "latitude": 17.74463,
      "longitude": -97.49801
    },
    {
      "id": 8582579,
      "name": "San Antonio Huitepec",
      "nativeName": "San Antonio Huitepec",
      "code": "MX-OAX-8582579",
      "countryId": 3996063,
      "countryCode": "MX",
      "stateCode": "MX-OAX",
      "latitude": 16.9214,
      "longitude": -97.13504
    },
    {
      "id": 8582580,
      "name": "San Antonio Nanahuatípam",
      "nativeName": "San Antonio Nanahuatípam",
      "code": "MX-OAX-8582580",
      "countryId": 3996063,
      "countryCode": "MX",
      "stateCode": "MX-OAX",
      "latitude": 18.14319,
      "longitude": -97.13181
    },
    {
      "id": 8582581,
      "name": "San Antonio Sinicahua",
      "nativeName": "San Antonio Sinicahua",
      "code": "MX-OAX-8582581",
      "countryId": 3996063,
      "countryCode": "MX",
      "stateCode": "MX-OAX",
      "latitude": 17.15319,
      "longitude": -97.57725
    },
    {
      "id": 8582582,
      "name": "San Antonio Tepetlapa",
      "nativeName": "San Antonio Tepetlapa",
      "code": "MX-OAX-8582582",
      "countryId": 3996063,
      "countryCode": "MX",
      "stateCode": "MX-OAX",
      "latitude": 16.53215,
      "longitude": -98.06618
    },
    {
      "id": 8582578,
      "name": "San Antonio de la Cal",
      "nativeName": "San Antonio de la Cal",
      "code": "MX-OAX-8582578",
      "countryId": 3996063,
      "countryCode": "MX",
      "stateCode": "MX-OAX",
      "latitude": 17.03092,
      "longitude": -96.69714
    },
    {
      "id": 8582583,
      "name": "San Baltazar Chichicápam",
      "nativeName": "San Baltazar Chichicápam",
      "code": "MX-OAX-8582583",
      "countryId": 3996063,
      "countryCode": "MX",
      "stateCode": "MX-OAX",
      "latitude": 16.76491,
      "longitude": -96.48648
    },
    {
      "id": 8582584,
      "name": "San Baltazar Loxicha",
      "nativeName": "San Baltazar Loxicha",
      "code": "MX-OAX-8582584",
      "countryId": 3996063,
      "countryCode": "MX",
      "stateCode": "MX-OAX",
      "latitude": 16.01429,
      "longitude": -96.79696
    },
    {
      "id": 8582585,
      "name": "San Baltazar Yatzachi el Bajo",
      "nativeName": "San Baltazar Yatzachi el Bajo",
      "code": "MX-OAX-8582585",
      "countryId": 3996063,
      "countryCode": "MX",
      "stateCode": "MX-OAX",
      "latitude": 17.22958,
      "longitude": -96.22046
    },
    {
      "id": 8582586,
      "name": "San Bartolo Coyotepec",
      "nativeName": "San Bartolo Coyotepec",
      "code": "MX-OAX-8582586",
      "countryId": 3996063,
      "countryCode": "MX",
      "stateCode": "MX-OAX",
      "latitude": 16.94877,
      "longitude": -96.70977
    },
    {
      "id": 8582592,
      "name": "San Bartolo Soyaltepec",
      "nativeName": "San Bartolo Soyaltepec",
      "code": "MX-OAX-8582592",
      "countryId": 3996063,
      "countryCode": "MX",
      "stateCode": "MX-OAX",
      "latitude": 17.58563,
      "longitude": -97.30622
    },
    {
      "id": 8582593,
      "name": "San Bartolo Yautepec",
      "nativeName": "San Bartolo Yautepec",
      "code": "MX-OAX-8582593",
      "countryId": 3996063,
      "countryCode": "MX",
      "stateCode": "MX-OAX",
      "latitude": 16.43222,
      "longitude": -95.94493
    },
    {
      "id": 8582587,
      "name": "San Bartolomé Ayautla",
      "nativeName": "San Bartolomé Ayautla",
      "code": "MX-OAX-8582587",
      "countryId": 3996063,
      "countryCode": "MX",
      "stateCode": "MX-OAX",
      "latitude": 18.03758,
      "longitude": -96.67442
    },
    {
      "id": 8582588,
      "name": "San Bartolomé Loxicha",
      "nativeName": "San Bartolomé Loxicha",
      "code": "MX-OAX-8582588",
      "countryId": 3996063,
      "countryCode": "MX",
      "stateCode": "MX-OAX",
      "latitude": 15.93974,
      "longitude": -96.74637
    },
    {
      "id": 8582589,
      "name": "San Bartolomé Quialana",
      "nativeName": "San Bartolomé Quialana",
      "code": "MX-OAX-8582589",
      "countryId": 3996063,
      "countryCode": "MX",
      "stateCode": "MX-OAX",
      "latitude": 16.90094,
      "longitude": -96.49994
    },
    {
      "id": 8582590,
      "name": "San Bartolomé Yucuañe",
      "nativeName": "San Bartolomé Yucuañe",
      "code": "MX-OAX-8582590",
      "countryId": 3996063,
      "countryCode": "MX",
      "stateCode": "MX-OAX",
      "latitude": 17.23078,
      "longitude": -97.45194
    },
    {
      "id": 8582591,
      "name": "San Bartolomé Zoogocho",
      "nativeName": "San Bartolomé Zoogocho",
      "code": "MX-OAX-8582591",
      "countryId": 3996063,
      "countryCode": "MX",
      "stateCode": "MX-OAX",
      "latitude": 17.23861,
      "longitude": -96.24167
    },
    {
      "id": 8582594,
      "name": "San Bernardo Mixtepec",
      "nativeName": "San Bernardo Mixtepec",
      "code": "MX-OAX-8582594",
      "countryId": 3996063,
      "countryCode": "MX",
      "stateCode": "MX-OAX",
      "latitude": 16.84321,
      "longitude": -96.90571
    },
    {
      "id": 8582595,
      "name": "San Blas Atempa",
      "nativeName": "San Blas Atempa",
      "code": "MX-OAX-8582595",
      "countryId": 3996063,
      "countryCode": "MX",
      "stateCode": "MX-OAX",
      "latitude": 16.3464,
      "longitude": -95.16384
    },
    {
      "id": 8582596,
      "name": "San Carlos Yautepec",
      "nativeName": "San Carlos Yautepec",
      "code": "MX-OAX-8582596",
      "countryId": 3996063,
      "countryCode": "MX",
      "stateCode": "MX-OAX",
      "latitude": 16.42072,
      "longitude": -96.0906
    },
    {
      "id": 8582597,
      "name": "San Cristóbal Amatlán",
      "nativeName": "San Cristóbal Amatlán",
      "code": "MX-OAX-8582597",
      "countryId": 3996063,
      "countryCode": "MX",
      "stateCode": "MX-OAX",
      "latitude": 16.31045,
      "longitude": -96.38299
    },
    {
      "id": 8582598,
      "name": "San Cristóbal Amoltepec",
      "nativeName": "San Cristóbal Amoltepec",
      "code": "MX-OAX-8582598",
      "countryId": 3996063,
      "countryCode": "MX",
      "stateCode": "MX-OAX",
      "latitude": 17.28655,
      "longitude": -97.57885
    },
    {
      "id": 8582599,
      "name": "San Cristóbal Lachirioag",
      "nativeName": "San Cristóbal Lachirioag",
      "code": "MX-OAX-8582599",
      "countryId": 3996063,
      "countryCode": "MX",
      "stateCode": "MX-OAX",
      "latitude": 17.33861,
      "longitude": -96.16444
    },
    {
      "id": 8582600,
      "name": "San Cristóbal Suchixtlahuaca",
      "nativeName": "San Cristóbal Suchixtlahuaca",
      "code": "MX-OAX-8582600",
      "countryId": 3996063,
      "countryCode": "MX",
      "stateCode": "MX-OAX",
      "latitude": 17.72809,
      "longitude": -97.37038
    },
    {
      "id": 8582603,
      "name": "San Dionisio Ocotepec",
      "nativeName": "San Dionisio Ocotepec",
      "code": "MX-OAX-8582603",
      "countryId": 3996063,
      "countryCode": "MX",
      "stateCode": "MX-OAX",
      "latitude": 16.76984,
      "longitude": -96.36972
    },
    {
      "id": 8582604,
      "name": "San Dionisio Ocotlán",
      "nativeName": "San Dionisio Ocotlán",
      "code": "MX-OAX-8582604",
      "countryId": 3996063,
      "countryCode": "MX",
      "stateCode": "MX-OAX",
      "latitude": 16.74489,
      "longitude": -96.66511
    },
    {
      "id": 8582602,
      "name": "San Dionisio del Mar",
      "nativeName": "San Dionisio del Mar",
      "code": "MX-OAX-8582602",
      "countryId": 3996063,
      "countryCode": "MX",
      "stateCode": "MX-OAX",
      "latitude": 16.32786,
      "longitude": -94.75103
    },
    {
      "id": 8582605,
      "name": "San Esteban Atatlahuca",
      "nativeName": "San Esteban Atatlahuca",
      "code": "MX-OAX-8582605",
      "countryId": 3996063,
      "countryCode": "MX",
      "stateCode": "MX-OAX",
      "latitude": 17.07585,
      "longitude": -97.69096
    },
    {
      "id": 8582606,
      "name": "San Felipe Jalapa de Díaz",
      "nativeName": "San Felipe Jalapa de Díaz",
      "code": "MX-OAX-8582606",
      "countryId": 3996063,
      "countryCode": "MX",
      "stateCode": "MX-OAX",
      "latitude": 18.0778,
      "longitude": -96.52476
    },
    {
      "id": 8582607,
      "name": "San Felipe Tejalápam",
      "nativeName": "San Felipe Tejalápam",
      "code": "MX-OAX-8582607",
      "countryId": 3996063,
      "countryCode": "MX",
      "stateCode": "MX-OAX",
      "latitude": 17.09684,
      "longitude": -96.86448
    },
    {
      "id": 8582608,
      "name": "San Felipe Usila",
      "nativeName": "San Felipe Usila",
      "code": "MX-OAX-8582608",
      "countryId": 3996063,
      "countryCode": "MX",
      "stateCode": "MX-OAX",
      "latitude": 17.88964,
      "longitude": -96.48801
    },
    {
      "id": 8582609,
      "name": "San Francisco Cahuacuá",
      "nativeName": "San Francisco Cahuacuá",
      "code": "MX-OAX-8582609",
      "countryId": 3996063,
      "countryCode": "MX",
      "stateCode": "MX-OAX",
      "latitude": 16.88061,
      "longitude": -97.34685
    },
    {
      "id": 8582610,
      "name": "San Francisco Cajonos",
      "nativeName": "San Francisco Cajonos",
      "code": "MX-OAX-8582610",
      "countryId": 3996063,
      "countryCode": "MX",
      "stateCode": "MX-OAX",
      "latitude": 17.18086,
      "longitude": -96.26465
    },
    {
      "id": 8582611,
      "name": "San Francisco Chapulapa",
      "nativeName": "San Francisco Chapulapa",
      "code": "MX-OAX-8582611",
      "countryId": 3996063,
      "countryCode": "MX",
      "stateCode": "MX-OAX",
      "latitude": 17.92542,
      "longitude": -96.74948
    },
    {
      "id": 8582612,
      "name": "San Francisco Chindúa",
      "nativeName": "San Francisco Chindúa",
      "code": "MX-OAX-8582612",
      "countryId": 3996063,
      "countryCode": "MX",
      "stateCode": "MX-OAX",
      "latitude": 17.42602,
      "longitude": -97.30704
    },
    {
      "id": 8582614,
      "name": "San Francisco Huehuetlán",
      "nativeName": "San Francisco Huehuetlán",
      "code": "MX-OAX-8582614",
      "countryId": 3996063,
      "countryCode": "MX",
      "stateCode": "MX-OAX",
      "latitude": 18.19839,
      "longitude": -96.93772
    },
    {
      "id": 8582615,
      "name": "San Francisco Ixhuatán",
      "nativeName": "San Francisco Ixhuatán",
      "code": "MX-OAX-8582615",
      "countryId": 3996063,
      "countryCode": "MX",
      "stateCode": "MX-OAX",
      "latitude": 16.31382,
      "longitude": -94.47711
    },
    {
      "id": 8582616,
      "name": "San Francisco Jaltepetongo",
      "nativeName": "San Francisco Jaltepetongo",
      "code": "MX-OAX-8582616",
      "countryId": 3996063,
      "countryCode": "MX",
      "stateCode": "MX-OAX",
      "latitude": 17.34929,
      "longitude": -97.27704
    },
    {
      "id": 8582617,
      "name": "San Francisco Lachigoló",
      "nativeName": "San Francisco Lachigoló",
      "code": "MX-OAX-8582617",
      "countryId": 3996063,
      "countryCode": "MX",
      "stateCode": "MX-OAX",
      "latitude": 17.02505,
      "longitude": -96.59963
    },
    {
      "id": 8582618,
      "name": "San Francisco Logueche",
      "nativeName": "San Francisco Logueche",
      "code": "MX-OAX-8582618",
      "countryId": 3996063,
      "countryCode": "MX",
      "stateCode": "MX-OAX",
      "latitude": 16.37576,
      "longitude": -96.37907
    },
    {
      "id": 8582619,
      "name": "San Francisco Nuxaño",
      "nativeName": "San Francisco Nuxaño",
      "code": "MX-OAX-8582619",
      "countryId": 3996063,
      "countryCode": "MX",
      "stateCode": "MX-OAX",
      "latitude": 17.37465,
      "longitude": -97.33882
    },
    {
      "id": 8582620,
      "name": "San Francisco Ozolotepec",
      "nativeName": "San Francisco Ozolotepec",
      "code": "MX-OAX-8582620",
      "countryId": 3996063,
      "countryCode": "MX",
      "stateCode": "MX-OAX",
      "latitude": 16.08889,
      "longitude": -96.20407
    },
    {
      "id": 8582621,
      "name": "San Francisco Sola",
      "nativeName": "San Francisco Sola",
      "code": "MX-OAX-8582621",
      "countryId": 3996063,
      "countryCode": "MX",
      "stateCode": "MX-OAX",
      "latitude": 16.52122,
      "longitude": -96.94347
    },
    {
      "id": 8582622,
      "name": "San Francisco Telixtlahuaca",
      "nativeName": "San Francisco Telixtlahuaca",
      "code": "MX-OAX-8582622",
      "countryId": 3996063,
      "countryCode": "MX",
      "stateCode": "MX-OAX",
      "latitude": 17.37723,
      "longitude": -96.93906
    },
    {
      "id": 8582623,
      "name": "San Francisco Teopan",
      "nativeName": "San Francisco Teopan",
      "code": "MX-OAX-8582623",
      "countryId": 3996063,
      "countryCode": "MX",
      "stateCode": "MX-OAX",
      "latitude": 17.85536,
      "longitude": -97.50937
    },
    {
      "id": 8582624,
      "name": "San Francisco Tlapancingo",
      "nativeName": "San Francisco Tlapancingo",
      "code": "MX-OAX-8582624",
      "countryId": 3996063,
      "countryCode": "MX",
      "stateCode": "MX-OAX",
      "latitude": 17.47829,
      "longitude": -98.28298
    },
    {
      "id": 8582613,
      "name": "San Francisco del Mar",
      "nativeName": "San Francisco del Mar",
      "code": "MX-OAX-8582613",
      "countryId": 3996063,
      "countryCode": "MX",
      "stateCode": "MX-OAX",
      "latitude": 16.207,
      "longitude": -94.55198
    },
    {
      "id": 8582625,
      "name": "San Gabriel Mixtepec",
      "nativeName": "San Gabriel Mixtepec",
      "code": "MX-OAX-8582625",
      "countryId": 3996063,
      "countryCode": "MX",
      "stateCode": "MX-OAX",
      "latitude": 16.06993,
      "longitude": -97.07572
    },
    {
      "id": 8582626,
      "name": "San Ildefonso Amatlán",
      "nativeName": "San Ildefonso Amatlán",
      "code": "MX-OAX-8582626",
      "countryId": 3996063,
      "countryCode": "MX",
      "stateCode": "MX-OAX",
      "latitude": 16.28885,
      "longitude": -96.4524
    },
    {
      "id": 8582627,
      "name": "San Ildefonso Sola",
      "nativeName": "San Ildefonso Sola",
      "code": "MX-OAX-8582627",
      "countryId": 3996063,
      "countryCode": "MX",
      "stateCode": "MX-OAX",
      "latitude": 16.55974,
      "longitude": -96.9706
    },
    {
      "id": 8582628,
      "name": "San Ildefonso Villa Alta",
      "nativeName": "San Ildefonso Villa Alta",
      "code": "MX-OAX-8582628",
      "countryId": 3996063,
      "countryCode": "MX",
      "stateCode": "MX-OAX",
      "latitude": 17.3725,
      "longitude": -96.10688
    },
    {
      "id": 8582629,
      "name": "San Jacinto Amilpas",
      "nativeName": "San Jacinto Amilpas",
      "code": "MX-OAX-8582629",
      "countryId": 3996063,
      "countryCode": "MX",
      "stateCode": "MX-OAX",
      "latitude": 17.10056,
      "longitude": -96.7625
    },
    {
      "id": 8582630,
      "name": "San Jacinto Tlacotepec",
      "nativeName": "San Jacinto Tlacotepec",
      "code": "MX-OAX-8582630",
      "countryId": 3996063,
      "countryCode": "MX",
      "stateCode": "MX-OAX",
      "latitude": 16.51993,
      "longitude": -97.37252
    },
    {
      "id": 8582631,
      "name": "San Jerónimo Coatlán",
      "nativeName": "San Jerónimo Coatlán",
      "code": "MX-OAX-8582631",
      "countryId": 3996063,
      "countryCode": "MX",
      "stateCode": "MX-OAX",
      "latitude": 16.18341,
      "longitude": -96.97806
    },
    {
      "id": 8582632,
      "name": "San Jerónimo Silacayoapilla",
      "nativeName": "San Jerónimo Silacayoapilla",
      "code": "MX-OAX-8582632",
      "countryId": 3996063,
      "countryCode": "MX",
      "stateCode": "MX-OAX",
      "latitude": 17.8125,
      "longitude": -97.84833
    },
    {
      "id": 8582633,
      "name": "San Jerónimo Sosola",
      "nativeName": "San Jerónimo Sosola",
      "code": "MX-OAX-8582633",
      "countryId": 3996063,
      "countryCode": "MX",
      "stateCode": "MX-OAX",
      "latitude": 17.39288,
      "longitude": -97.04291
    },
    {
      "id": 8582634,
      "name": "San Jerónimo Taviche",
      "nativeName": "San Jerónimo Taviche",
      "code": "MX-OAX-8582634",
      "countryId": 3996063,
      "countryCode": "MX",
      "stateCode": "MX-OAX",
      "latitude": 16.70861,
      "longitude": -96.59091
    },
    {
      "id": 8582635,
      "name": "San Jerónimo Tecóatl",
      "nativeName": "San Jerónimo Tecóatl",
      "code": "MX-OAX-8582635",
      "countryId": 3996063,
      "countryCode": "MX",
      "stateCode": "MX-OAX",
      "latitude": 18.15548,
      "longitude": -96.91611
    },
    {
      "id": 8582636,
      "name": "San Jorge Nuchita",
      "nativeName": "San Jorge Nuchita",
      "code": "MX-OAX-8582636",
      "countryId": 3996063,
      "countryCode": "MX",
      "stateCode": "MX-OAX",
      "latitude": 17.65921,
      "longitude": -98.10153
    },
    {
      "id": 8582637,
      "name": "San José Ayuquila",
      "nativeName": "San José Ayuquila",
      "code": "MX-OAX-8582637",
      "countryId": 3996063,
      "countryCode": "MX",
      "stateCode": "MX-OAX",
      "latitude": 17.94282,
      "longitude": -97.96764
    },
    {
      "id": 8582638,
      "name": "San José Chiltepec",
      "nativeName": "San José Chiltepec",
      "code": "MX-OAX-8582638",
      "countryId": 3996063,
      "countryCode": "MX",
      "stateCode": "MX-OAX",
      "latitude": 17.95301,
      "longitude": -96.15507
    },
    {
      "id": 8582640,
      "name": "San José Estancia Grande",
      "nativeName": "San José Estancia Grande",
      "code": "MX-OAX-8582640",
      "countryId": 3996063,
      "countryCode": "MX",
      "stateCode": "MX-OAX",
      "latitude": 16.36912,
      "longitude": -98.25681
    },
    {
      "id": 8582641,
      "name": "San José Independencia",
      "nativeName": "San José Independencia",
      "code": "MX-OAX-8582641",
      "countryId": 3996063,
      "countryCode": "MX",
      "stateCode": "MX-OAX",
      "latitude": 18.24356,
      "longitude": -96.64568
    },
    {
      "id": 8582642,
      "name": "San José Lachiguiri",
      "nativeName": "San José Lachiguiri",
      "code": "MX-OAX-8582642",
      "countryId": 3996063,
      "countryCode": "MX",
      "stateCode": "MX-OAX",
      "latitude": 16.41059,
      "longitude": -96.34009
    },
    {
      "id": 8582643,
      "name": "San José Tenango",
      "nativeName": "San José Tenango",
      "code": "MX-OAX-8582643",
      "countryId": 3996063,
      "countryCode": "MX",
      "stateCode": "MX-OAX",
      "latitude": 18.16332,
      "longitude": -96.67315
    },
    {
      "id": 8582639,
      "name": "San José del Peñasco",
      "nativeName": "San José del Peñasco",
      "code": "MX-OAX-8582639",
      "countryId": 3996063,
      "countryCode": "MX",
      "stateCode": "MX-OAX",
      "latitude": 16.28811,
      "longitude": -96.49517
    },
    {
      "id": 8582543,
      "name": "San José del Progreso",
      "nativeName": "San José del Progreso",
      "code": "MX-OAX-8582543",
      "countryId": 3996063,
      "countryCode": "MX",
      "stateCode": "MX-OAX",
      "latitude": 16.69909,
      "longitude": -96.68148
    },
    {
      "id": 8582644,
      "name": "San Juan Achiutla",
      "nativeName": "San Juan Achiutla",
      "code": "MX-OAX-8582644",
      "countryId": 3996063,
      "countryCode": "MX",
      "stateCode": "MX-OAX",
      "latitude": 17.34225,
      "longitude": -97.50839
    },
    {
      "id": 8582645,
      "name": "San Juan Atepec",
      "nativeName": "San Juan Atepec",
      "code": "MX-OAX-8582645",
      "countryId": 3996063,
      "countryCode": "MX",
      "stateCode": "MX-OAX",
      "latitude": 17.43648,
      "longitude": -96.52843
    },
    {
      "id": 8582647,
      "name": "San Juan Bautista Atatlahuca",
      "nativeName": "San Juan Bautista Atatlahuca",
      "code": "MX-OAX-8582647",
      "countryId": 3996063,
      "countryCode": "MX",
      "stateCode": "MX-OAX",
      "latitude": 17.57906,
      "longitude": -96.80009
    },
    {
      "id": 8582648,
      "name": "San Juan Bautista Coixtlahuaca",
      "nativeName": "San Juan Bautista Coixtlahuaca",
      "code": "MX-OAX-8582648",
      "countryId": 3996063,
      "countryCode": "MX",
      "stateCode": "MX-OAX",
      "latitude": 17.72873,
      "longitude": -97.27017
    },
    {
      "id": 8582649,
      "name": "San Juan Bautista Cuicatlán",
      "nativeName": "San Juan Bautista Cuicatlán",
      "code": "MX-OAX-8582649",
      "countryId": 3996063,
      "countryCode": "MX",
      "stateCode": "MX-OAX",
      "latitude": 17.7255,
      "longitude": -96.92219
    },
    {
      "id": 8582650,
      "name": "San Juan Bautista Guelache",
      "nativeName": "San Juan Bautista Guelache",
      "code": "MX-OAX-8582650",
      "countryId": 3996063,
      "countryCode": "MX",
      "stateCode": "MX-OAX",
      "latitude": 17.22033,
      "longitude": -96.78147
    },
    {
      "id": 8582652,
      "name": "San Juan Bautista Jayacatlán",
      "nativeName": "San Juan Bautista Jayacatlán",
      "code": "MX-OAX-8582652",
      "countryId": 3996063,
      "countryCode": "MX",
      "stateCode": "MX-OAX",
      "latitude": 17.42458,
      "longitude": -96.82639
    },
    {
      "id": 8582653,
      "name": "San Juan Bautista Lo de Soto",
      "nativeName": "San Juan Bautista Lo de Soto",
      "code": "MX-OAX-8582653",
      "countryId": 3996063,
      "countryCode": "MX",
      "stateCode": "MX-OAX",
      "latitude": 16.51144,
      "longitude": -98.3362
    },
    {
      "id": 8582654,
      "name": "San Juan Bautista Suchitepec",
      "nativeName": "San Juan Bautista Suchitepec",
      "code": "MX-OAX-8582654",
      "countryId": 3996063,
      "countryCode": "MX",
      "stateCode": "MX-OAX",
      "latitude": 17.975,
      "longitude": -97.66508
    },
    {
      "id": 8582656,
      "name": "San Juan Bautista Tlachichilco",
      "nativeName": "San Juan Bautista Tlachichilco",
      "code": "MX-OAX-8582656",
      "countryId": 3996063,
      "countryCode": "MX",
      "stateCode": "MX-OAX",
      "latitude": 17.58557,
      "longitude": -98.35128
    },
    {
      "id": 8582655,
      "name": "San Juan Bautista Tlacoatzintepec",
      "nativeName": "San Juan Bautista Tlacoatzintepec",
      "code": "MX-OAX-8582655",
      "countryId": 3996063,
      "countryCode": "MX",
      "stateCode": "MX-OAX",
      "latitude": 17.88046,
      "longitude": -96.58815
    },
    {
      "id": 8582657,
      "name": "San Juan Bautista Tuxtepec",
      "nativeName": "San Juan Bautista Tuxtepec",
      "code": "MX-OAX-8582657",
      "countryId": 3996063,
      "countryCode": "MX",
      "stateCode": "MX-OAX",
      "latitude": 18.04141,
      "longitude": -96.08871
    },
    {
      "id": 8582658,
      "name": "San Juan Cacahuatepec",
      "nativeName": "San Juan Cacahuatepec",
      "code": "MX-OAX-8582658",
      "countryId": 3996063,
      "countryCode": "MX",
      "stateCode": "MX-OAX",
      "latitude": 16.61981,
      "longitude": -98.1639
    },
    {
      "id": 8582664,
      "name": "San Juan Chicomezúchil",
      "nativeName": "San Juan Chicomezúchil",
      "code": "MX-OAX-8582664",
      "countryId": 3996063,
      "countryCode": "MX",
      "stateCode": "MX-OAX",
      "latitude": 17.29792,
      "longitude": -96.51144
    },
    {
      "id": 8582665,
      "name": "San Juan Chilateca",
      "nativeName": "San Juan Chilateca",
      "code": "MX-OAX-8582665",
      "countryId": 3996063,
      "countryCode": "MX",
      "stateCode": "MX-OAX",
      "latitude": 16.82806,
      "longitude": -96.67028
    },
    {
      "id": 8582659,
      "name": "San Juan Cieneguilla",
      "nativeName": "San Juan Cieneguilla",
      "code": "MX-OAX-8582659",
      "countryId": 3996063,
      "countryCode": "MX",
      "stateCode": "MX-OAX",
      "latitude": 17.87496,
      "longitude": -98.31036
    },
    {
      "id": 8582660,
      "name": "San Juan Coatzóspam",
      "nativeName": "San Juan Coatzóspam",
      "code": "MX-OAX-8582660",
      "countryId": 3996063,
      "countryCode": "MX",
      "stateCode": "MX-OAX",
      "latitude": 18.04569,
      "longitude": -96.75281
    },
    {
      "id": 8582661,
      "name": "San Juan Colorado",
      "nativeName": "San Juan Colorado",
      "code": "MX-OAX-8582661",
      "countryId": 3996063,
      "countryCode": "MX",
      "stateCode": "MX-OAX",
      "latitude": 16.47032,
      "longitude": -97.91523
    },
    {
      "id": 8582662,
      "name": "San Juan Comaltepec",
      "nativeName": "San Juan Comaltepec",
      "code": "MX-OAX-8582662",
      "countryId": 3996063,
      "countryCode": "MX",
      "stateCode": "MX-OAX",
      "latitude": 17.31074,
      "longitude": -95.94347
    },
    {
      "id": 8582663,
      "name": "San Juan Cotzocón",
      "nativeName": "San Juan Cotzocón",
      "code": "MX-OAX-8582663",
      "countryId": 3996063,
      "countryCode": "MX",
      "stateCode": "MX-OAX",
      "latitude": 17.43863,
      "longitude": -95.32666
    },
    {
      "id": 8582668,
      "name": "San Juan Diuxi",
      "nativeName": "San Juan Diuxi",
      "code": "MX-OAX-8582668",
      "countryId": 3996063,
      "countryCode": "MX",
      "stateCode": "MX-OAX",
      "latitude": 17.27792,
      "longitude": -97.38514
    },
    {
      "id": 8582669,
      "name": "San Juan Evangelista Analco",
      "nativeName": "San Juan Evangelista Analco",
      "code": "MX-OAX-8582669",
      "countryId": 3996063,
      "countryCode": "MX",
      "stateCode": "MX-OAX",
      "latitude": 17.40481,
      "longitude": -96.53546
    },
    {
      "id": 8582670,
      "name": "San Juan Guelavía",
      "nativeName": "San Juan Guelavía",
      "code": "MX-OAX-8582670",
      "countryId": 3996063,
      "countryCode": "MX",
      "stateCode": "MX-OAX",
      "latitude": 16.95528,
      "longitude": -96.53875
    },
    {
      "id": 8582671,
      "name": "San Juan Guichicovi",
      "nativeName": "San Juan Guichicovi",
      "code": "MX-OAX-8582671",
      "countryId": 3996063,
      "countryCode": "MX",
      "stateCode": "MX-OAX",
      "latitude": 17.07339,
      "longitude": -95.09109
    },
    {
      "id": 8582672,
      "name": "San Juan Ihualtepec",
      "nativeName": "San Juan Ihualtepec",
      "code": "MX-OAX-8582672",
      "countryId": 3996063,
      "countryCode": "MX",
      "stateCode": "MX-OAX",
      "latitude": 17.75656,
      "longitude": -98.28518
    },
    {
      "id": 8582673,
      "name": "San Juan Juquila Mixes",
      "nativeName": "San Juan Juquila Mixes",
      "code": "MX-OAX-8582673",
      "countryId": 3996063,
      "countryCode": "MX",
      "stateCode": "MX-OAX",
      "latitude": 16.88433,
      "longitude": -95.88913
    },
    {
      "id": 8582666,
      "name": "San Juan del Estado",
      "nativeName": "San Juan del Estado",
      "code": "MX-OAX-8582666",
      "countryId": 3996063,
      "countryCode": "MX",
      "stateCode": "MX-OAX",
      "latitude": 17.28883,
      "longitude": -96.79511
    },
    {
      "id": 8582667,
      "name": "San Juan del Río",
      "nativeName": "San Juan del Río",
      "code": "MX-OAX-8582667",
      "countryId": 3996063,
      "countryCode": "MX",
      "stateCode": "MX-OAX",
      "latitude": 16.89139,
      "longitude": -96.16944
    },
    {
      "id": 8582545,
      "name": "Santa Catarina Quioquitani",
      "nativeName": "Santa Catarina Quioquitani",
      "code": "MX-OAX-8582545",
      "countryId": 3996063,
      "countryCode": "MX",
      "stateCode": "MX-OAX",
      "latitude": 16.31472,
      "longitude": -96.28444
    },
    {
      "id": 8582518,
      "name": "Santa Magdalena Jicotlán",
      "nativeName": "Santa Magdalena Jicotlán",
      "code": "MX-OAX-8582518",
      "countryId": 3996063,
      "countryCode": "MX",
      "stateCode": "MX-OAX",
      "latitude": 17.80819,
      "longitude": -97.47389
    },
    {
      "id": 8582537,
      "name": "Santiago Niltepec",
      "nativeName": "Santiago Niltepec",
      "code": "MX-OAX-8582537",
      "countryId": 3996063,
      "countryCode": "MX",
      "stateCode": "MX-OAX",
      "latitude": 16.52438,
      "longitude": -94.59337
    },
    {
      "id": 8582502,
      "name": "Tamazulápam del Espíritu Santo",
      "nativeName": "Tamazulápam del Espíritu Santo",
      "code": "MX-OAX-8582502",
      "countryId": 3996063,
      "countryCode": "MX",
      "stateCode": "MX-OAX",
      "latitude": 17.0377,
      "longitude": -96.03562
    },
    {
      "id": 8582509,
      "name": "Villa Hidalgo",
      "nativeName": "Villa Hidalgo",
      "code": "MX-OAX-8582509",
      "countryId": 3996063,
      "countryCode": "MX",
      "stateCode": "MX-OAX",
      "latitude": 17.18115,
      "longitude": -96.16892
    },
    {
      "id": 8582646,
      "name": "Ánimas Trujano",
      "nativeName": "Ánimas Trujano",
      "code": "MX-OAX-8582646",
      "countryId": 3996063,
      "countryCode": "MX",
      "stateCode": "MX-OAX",
      "latitude": 16.98667,
      "longitude": -96.71424
    }
  ]
}