{
  "stateId": 3985605,
  "stateCode": "MX-SLP",
  "countryCode": "MX",
  "cities": [
    {
      "id": 8583289,
      "name": "Ahualulco",
      "nativeName": "Ahualulco",
      "code": "MX-SLP-8583289",
      "countryId": 3996063,
      "countryCode": "MX",
      "stateCode": "MX-SLP",
      "latitude": 22.45964,
      "longitude": -101.23002
    },
    {
      "id": 8583290,
      "name": "Alaquines",
      "nativeName": "Alaquines",
      "code": "MX-SLP-8583290",
      "countryId": 3996063,
      "countryCode": "MX",
      "stateCode": "MX-SLP",
      "latitude": 22.08654,
      "longitude": -99.55441
    },
    {
      "id": 8583292,
      "name": "Aquismón",
      "nativeName": "Aquismón",
      "code": "MX-SLP-8583292",
      "countryId": 3996063,
      "countryCode": "MX",
      "stateCode": "MX-SLP",
      "latitude": 21.69586,
      "longitude": -99.09993
    },
    {
      "id": 8583293,
      "name": "Armadillo de los Infante",
      "nativeName": "Armadillo de los Infante",
      "code": "MX-SLP-8583293",
      "countryId": 3996063,
      "countryCode": "MX",
      "stateCode": "MX-SLP",
      "latitude": 22.23325,
      "longitude": -100.64228
    },
    {
      "id": 8583342,
      "name": "Axtla de Terrazas",
      "nativeName": "Axtla de Terrazas",
      "code": "MX-SLP-8583342",
      "countryId": 3996063,
      "countryCode": "MX",
      "stateCode": "MX-SLP",
      "latitude": 21.43848,
      "longitude": -98.87054
    },
    {
      "id": 8583295,
      "name": "Catorce",
      "nativeName": "Catorce",
      "code": "MX-SLP-8583295",
      "countryId": 3996063,
      "countryCode": "MX",
      "stateCode": "MX-SLP",
      "latitude": 23.64281,
      "longitude": -101.00293
    },
    {
      "id": 8583296,
      "name": "Cedral",
      "nativeName": "Cedral",
      "code": "MX-SLP-8583296",
      "countryId": 3996063,
      "countryCode": "MX",
      "stateCode": "MX-SLP",
      "latitude": 23.86678,
      "longitude": -100.6802
    },
    {
      "id": 8583297,
      "name": "Cerritos",
      "nativeName": "Cerritos",
      "code": "MX-SLP-8583297",
      "countryId": 3996063,
      "countryCode": "MX",
      "stateCode": "MX-SLP",
      "latitude": 22.44549,
      "longitude": -100.29119
    },
    {
      "id": 8583298,
      "name": "Cerro de San Pedro",
      "nativeName": "Cerro de San Pedro",
      "code": "MX-SLP-8583298",
      "countryId": 3996063,
      "countryCode": "MX",
      "stateCode": "MX-SLP",
      "latitude": 22.17433,
      "longitude": -100.82618
    },
    {
      "id": 8583304,
      "name": "Charcas",
      "nativeName": "Charcas",
      "code": "MX-SLP-8583304",
      "countryId": 3996063,
      "countryCode": "MX",
      "stateCode": "MX-SLP",
      "latitude": 23.19453,
      "longitude": -101.13437
    },
    {
      "id": 8583300,
      "name": "Ciudad Fernández",
      "nativeName": "Ciudad Fernández",
      "code": "MX-SLP-8583300",
      "countryId": 3996063,
      "countryCode": "MX",
      "stateCode": "MX-SLP",
      "latitude": 21.99045,
      "longitude": -100.04808
    },
    {
      "id": 8583302,
      "name": "Ciudad Valles",
      "nativeName": "Ciudad Valles",
      "code": "MX-SLP-8583302",
      "countryId": 3996063,
      "countryCode": "MX",
      "stateCode": "MX-SLP",
      "latitude": 22.0315,
      "longitude": -99.06005
    },
    {
      "id": 8583299,
      "name": "Ciudad del Maíz",
      "nativeName": "Ciudad del Maíz",
      "code": "MX-SLP-8583299",
      "countryId": 3996063,
      "countryCode": "MX",
      "stateCode": "MX-SLP",
      "latitude": 22.43513,
      "longitude": -99.66272
    },
    {
      "id": 8583303,
      "name": "Coxcatlán",
      "nativeName": "Coxcatlán",
      "code": "MX-SLP-8583303",
      "countryId": 3996063,
      "countryCode": "MX",
      "stateCode": "MX-SLP",
      "latitude": 21.52176,
      "longitude": -98.91055
    },
    {
      "id": 8583294,
      "name": "Cárdenas",
      "nativeName": "Cárdenas",
      "code": "MX-SLP-8583294",
      "countryId": 3996063,
      "countryCode": "MX",
      "stateCode": "MX-SLP",
      "latitude": 21.99994,
      "longitude": -99.66078
    },
    {
      "id": 8583305,
      "name": "Ebano",
      "nativeName": "Ebano",
      "code": "MX-SLP-8583305",
      "countryId": 3996063,
      "countryCode": "MX",
      "stateCode": "MX-SLP",
      "latitude": 22.21275,
      "longitude": -98.47678
    },
    {
      "id": 8583347,
      "name": "El Naranjo",
      "nativeName": "El Naranjo",
      "code": "MX-SLP-8583347",
      "countryId": 3996063,
      "countryCode": "MX",
      "stateCode": "MX-SLP",
      "latitude": 22.47241,
      "longitude": -99.34418
    },
    {
      "id": 8583306,
      "name": "Guadalcázar",
      "nativeName": "Guadalcázar",
      "code": "MX-SLP-8583306",
      "countryId": 3996063,
      "countryCode": "MX",
      "stateCode": "MX-SLP",
      "latitude": 22.84762,
      "longitude": -100.34692
    },
    {
      "id": 8583307,
      "name": "Huehuetlán",
      "nativeName": "Huehuetlán",
      "code": "MX-SLP-8583307",
      "countryId": 3996063,
      "countryCode": "MX",
      "stateCode": "MX-SLP",
      "latitude": 21.52195,
      "longitude": -98.98306
    },
    {
      "id": 8583308,
      "name": "Lagunillas",
      "nativeName": "Lagunillas",
      "code": "MX-SLP-8583308",
      "countryId": 3996063,
      "countryCode": "MX",
      "stateCode": "MX-SLP",
      "latitude": 21.61321,
      "longitude": -99.59531
    },
    {
      "id": 8583309,
      "name": "Matehuala",
      "nativeName": "Matehuala",
      "code": "MX-SLP-8583309",
      "countryId": 3996063,
      "countryCode": "MX",
      "stateCode": "MX-SLP",
      "latitude": 23.57826,
      "longitude": -100.62073
    },
    {
      "id": 8583346,
      "name": "Matlapa",
      "nativeName": "Matlapa",
      "code": "MX-SLP-8583346",
      "countryId": 3996063,
      "countryCode": "MX",
      "stateCode": "MX-SLP",
      "latitude": 21.33473,
      "longitude": -98.82779
    },
    {
      "id": 8583310,
      "name": "Mexquitic de Carmona",
      "nativeName": "Mexquitic de Carmona",
      "code": "MX-SLP-8583310",
      "countryId": 3996063,
      "countryCode": "MX",
      "stateCode": "MX-SLP",
      "latitude": 22.28463,
      "longitude": -101.12199
    },
    {
      "id": 8583311,
      "name": "Moctezuma",
      "nativeName": "Moctezuma",
      "code": "MX-SLP-8583311",
      "countryId": 3996063,
      "countryCode": "MX",
      "stateCode": "MX-SLP",
      "latitude": 22.69264,
      "longitude": -101.07581
    },
    {
      "id": 8583312,
      "name": "Rayón",
      "nativeName": "Rayón",
      "code": "MX-SLP-8583312",
      "countryId": 3996063,
      "countryCode": "MX",
      "stateCode": "MX-SLP",
      "latitude": 21.83829,
      "longitude": -99.60735
    },
    {
      "id": 8583313,
      "name": "Rioverde",
      "nativeName": "Rioverde",
      "code": "MX-SLP-8583313",
      "countryId": 3996063,
      "countryCode": "MX",
      "stateCode": "MX-SLP",
      "latitude": 21.98763,
      "longitude": -100.2522
    },
    {
      "id": 8583314,
      "name": "Salinas",
      "nativeName": "Salinas",
      "code": "MX-SLP-8583314",
      "countryId": 3996063,
      "countryCode": "MX",
      "stateCode": "MX-SLP",
      "latitude": 22.70668,
      "longitude": -101.68204
    },
    {
      "id": 8583315,
      "name": "San Antonio",
      "nativeName": "San Antonio",
      "code": "MX-SLP-8583315",
      "countryId": 3996063,
      "countryCode": "MX",
      "stateCode": "MX-SLP",
      "latitude": 21.61802,
      "longitude": -98.87115
    },
    {
      "id": 8583316,
      "name": "San Ciro de Acosta",
      "nativeName": "San Ciro de Acosta",
      "code": "MX-SLP-8583316",
      "countryId": 3996063,
      "countryCode": "MX",
      "stateCode": "MX-SLP",
      "latitude": 21.59995,
      "longitude": -99.88963
    },
    {
      "id": 8583317,
      "name": "San Luis Potosí",
      "nativeName": "San Luis Potosí",
      "code": "MX-SLP-8583317",
      "countryId": 3996063,
      "countryCode": "MX",
      "stateCode": "MX-SLP",
      "latitude": 22.3393,
      "longitude": -100.95842
    },
    {
      "id": 8583318,
      "name": "San Martín Chalchicuautla",
      "nativeName": "San Martín Chalchicuautla",
      "code": "MX-SLP-8583318",
      "countryId": 3996063,
      "countryCode": "MX",
      "stateCode": "MX-SLP",
      "latitude": 21.39884,
      "longitude": -98.62142
    },
    {
      "id": 8583319,
      "name": "San Nicolás Tolentino",
      "nativeName": "San Nicolás Tolentino",
      "code": "MX-SLP-8583319",
      "countryId": 3996063,
      "countryCode": "MX",
      "stateCode": "MX-SLP",
      "latitude": 22.16247,
      "longitude": -100.49914
    },
    {
      "id": 8583323,
      "name": "San Vicente Tancuayalab",
      "nativeName": "San Vicente Tancuayalab",
      "code": "MX-SLP-8583323",
      "countryId": 3996063,
      "countryCode": "MX",
      "stateCode": "MX-SLP",
      "latitude": 21.78595,
      "longitude": -98.58928
    },
    {
      "id": 8583320,
      "name": "Santa Catarina",
      "nativeName": "Santa Catarina",
      "code": "MX-SLP-8583320",
      "countryId": 3996063,
      "countryCode": "MX",
      "stateCode": "MX-SLP",
      "latitude": 21.57326,
      "longitude": -99.42836
    },
    {
      "id": 8583321,
      "name": "Santa María del Río",
      "nativeName": "Santa María del Río",
      "code": "MX-SLP-8583321",
      "countryId": 3996063,
      "countryCode": "MX",
      "stateCode": "MX-SLP",
      "latitude": 21.77058,
      "longitude": -100.57253
    },
    {
      "id": 8583322,
      "name": "Santo Domingo",
      "nativeName": "Santo Domingo",
      "code": "MX-SLP-8583322",
      "countryId": 3996063,
      "countryCode": "MX",
      "stateCode": "MX-SLP",
      "latitude": 23.34777,
      "longitude": -101.67922
    },
    {
      "id": 8583324,
      "name": "Soledad de Graciano Sánchez",
      "nativeName": "Soledad de Graciano Sánchez",
      "code": "MX-SLP-8583324",
      "countryId": 3996063,
      "countryCode": "MX",
      "stateCode": "MX-SLP",
      "latitude": 22.21232,
      "longitude": -100.89089
    },
    {
      "id": 8583325,
      "name": "Tamasopo",
      "nativeName": "Tamasopo",
      "code": "MX-SLP-8583325",
      "countryId": 3996063,
      "countryCode": "MX",
      "stateCode": "MX-SLP",
      "latitude": 21.8909,
      "longitude": -99.35491
    },
    {
      "id": 8583326,
      "name": "Tamazunchale",
      "nativeName": "Tamazunchale",
      "code": "MX-SLP-8583326",
      "countryId": 3996063,
      "countryCode": "MX",
      "stateCode": "MX-SLP",
      "latitude": 21.24287,
      "longitude": -98.78452
    },
    {
      "id": 8583327,
      "name": "Tampacán",
      "nativeName": "Tampacán",
      "code": "MX-SLP-8583327",
      "countryId": 3996063,
      "countryCode": "MX",
      "stateCode": "MX-SLP",
      "latitude": 21.41374,
      "longitude": -98.73765
    },
    {
      "id": 8583328,
      "name": "Tampamolón Corona",
      "nativeName": "Tampamolón Corona",
      "code": "MX-SLP-8583328",
      "countryId": 3996063,
      "countryCode": "MX",
      "stateCode": "MX-SLP",
      "latitude": 21.55751,
      "longitude": -98.77902
    },
    {
      "id": 8583329,
      "name": "Tamuín",
      "nativeName": "Tamuín",
      "code": "MX-SLP-8583329",
      "countryId": 3996063,
      "countryCode": "MX",
      "stateCode": "MX-SLP",
      "latitude": 22.07765,
      "longitude": -98.72575
    },
    {
      "id": 8583301,
      "name": "Tancanhuitz",
      "nativeName": "Tancanhuitz",
      "code": "MX-SLP-8583301",
      "countryId": 3996063,
      "countryCode": "MX",
      "stateCode": "MX-SLP",
      "latitude": 21.5957,
      "longitude": -98.94469
    },
    {
      "id": 8583330,
      "name": "Tanlajás",
      "nativeName": "Tanlajás",
      "code": "MX-SLP-8583330",
      "countryId": 3996063,
      "countryCode": "MX",
      "stateCode": "MX-SLP",
      "latitude": 21.70562,
      "longitude": -98.86207
    },
    {
      "id": 8583331,
      "name": "Tanquián de Escobedo",
      "nativeName": "Tanquián de Escobedo",
      "code": "MX-SLP-8583331",
      "countryId": 3996063,
      "countryCode": "MX",
      "stateCode": "MX-SLP",
      "latitude": 21.59129,
      "longitude": -98.6561
    },
    {
      "id": 8583332,
      "name": "Tierra Nueva",
      "nativeName": "Tierra Nueva",
      "code": "MX-SLP-8583332",
      "countryId": 3996063,
      "countryCode": "MX",
      "stateCode": "MX-SLP",
      "latitude": 21.65971,
      "longitude": -100.50235
    },
    {
      "id": 8583333,
      "name": "Vanegas",
      "nativeName": "Vanegas",
      "code": "MX-SLP-8583333",
      "countryId": 3996063,
      "countryCode": "MX",
      "stateCode": "MX-SLP",
      "latitude": 24.02342,
      "longitude": -100.95469
    },
    {
      "id": 8583334,
      "name": "Venado",
      "nativeName": "Venado",
      "code": "MX-SLP-8583334",
      "countryId": 3996063,
      "countryCode": "MX",
      "stateCode": "MX-SLP",
      "latitude": 22.93655,
      "longitude": -101.11361
    },
    {
      "id": 8583340,
      "name": "Villa Hidalgo",
      "nativeName": "Villa Hidalgo",
      "code": "MX-SLP-8583340",
      "countryId": 3996063,
      "countryCode": "MX",
      "stateCode": "MX-SLP",
      "latitude": 22.53468,
      "longitude": -100.66972
    },
    {
      "id": 8583341,
      "name": "Villa Juárez",
      "nativeName": "Villa Juárez",
      "code": "MX-SLP-8583341",
      "countryId": 3996063,
      "countryCode": "MX",
      "stateCode": "MX-SLP",
      "latitude": 22.28569,
      "longitude": -100.21781
    },
    {
      "id": 8583345,
      "name": "Villa de Arista",
      "nativeName": "Villa de Arista",
      "code": "MX-SLP-8583345",
      "countryId": 3996063,
      "countryCode": "MX",
      "stateCode": "MX-SLP",
      "latitude": 22.66519,
      "longitude": -100.85631
    },
    {
      "id": 8583335,
      "name": "Villa de Arriaga",
      "nativeName": "Villa de Arriaga",
      "code": "MX-SLP-8583335",
      "countryId": 3996063,
      "countryCode": "MX",
      "stateCode": "MX-SLP",
      "latitude": 21.94904,
      "longitude": -101.33738
    },
    {
      "id": 8583336,
      "name": "Villa de Guadalupe",
      "nativeName": "Villa de Guadalupe",
      "code": "MX-SLP-8583336",
      "countryId": 3996063,
      "countryCode": "MX",
      "stateCode": "MX-SLP",
      "latitude": 23.27646,
      "longitude": -100.69564
    },
    {
      "id": 8583338,
      "name": "Villa de Ramos",
      "nativeName": "Villa de Ramos",
      "code": "MX-SLP-8583338",
      "countryId": 3996063,
      "countryCode": "MX",
      "stateCode": "MX-SLP",
      "latitude": 22.92866,
      "longitude": -101.98129
    },
    {
      "id": 8583339,
      "name": "Villa de Reyes",
      "nativeName": "Villa de Reyes",
      "code": "MX-SLP-8583339",
      "countryId": 3996063,
      "countryCode": "MX",
      "stateCode": "MX-SLP",
      "latitude": 21.84096,
      "longitude": -100.94648
    },
    {
      "id": 8583337,
      "name": "Villa de la Paz",
      "nativeName": "Villa de la Paz",
      "code": "MX-SLP-8583337",
      "countryId": 3996063,
      "countryCode": "MX",
      "stateCode": "MX-SLP",
      "latitude": 23.66909,
      "longitude": -100.7249
    },
    {
      "id": 8583343,
      "name": "Xilitla",
      "nativeName": "Xilitla",
      "code": "MX-SLP-8583343",
      "countryId": 3996063,
      "countryCode": "MX",
      "stateCode": "MX-SLP",
      "latitude": 21.37711,
      "longitude": -99.0004
    },
    {
      "id": 8583344,
      "name": "Zaragoza",
      "nativeName": "Zaragoza",
      "code": "MX-SLP-8583344",
      "countryId": 3996063,
      "countryCode": "MX",
      "stateCode": "MX-SLP",
      "latitude": 22.02528,
      "longitude": -100.68907
    }
  ]
}