{
  "stateId": 3514211,
  "stateCode": "MX-YUC",
  "countryCode": "MX",
  "cities": [
    {
      "id": 8583859,
      "name": "Abalá",
      "nativeName": "Abalá",
      "code": "MX-YUC-8583859",
      "countryId": 3996063,
      "countryCode": "MX",
      "stateCode": "MX-YUC",
      "latitude": 20.66493,
      "longitude": -89.65672
    },
    {
      "id": 8583860,
      "name": "Acanceh",
      "nativeName": "Acanceh",
      "code": "MX-YUC-8583860",
      "countryId": 3996063,
      "countryCode": "MX",
      "stateCode": "MX-YUC",
      "latitude": 20.84219,
      "longitude": -89.45344
    },
    {
      "id": 8583861,
      "name": "Akil",
      "nativeName": "Akil",
      "code": "MX-YUC-8583861",
      "countryId": 3996063,
      "countryCode": "MX",
      "stateCode": "MX-YUC",
      "latitude": 20.26401,
      "longitude": -89.34852
    },
    {
      "id": 8583862,
      "name": "Baca",
      "nativeName": "Baca",
      "code": "MX-YUC-8583862",
      "countryId": 3996063,
      "countryCode": "MX",
      "stateCode": "MX-YUC",
      "latitude": 21.11581,
      "longitude": -89.40203
    },
    {
      "id": 8583863,
      "name": "Bokobá",
      "nativeName": "Bokobá",
      "code": "MX-YUC-8583863",
      "countryId": 3996063,
      "countryCode": "MX",
      "stateCode": "MX-YUC",
      "latitude": 21.00641,
      "longitude": -89.17641
    },
    {
      "id": 8583864,
      "name": "Buctzotz",
      "nativeName": "Buctzotz",
      "code": "MX-YUC-8583864",
      "countryId": 3996063,
      "countryCode": "MX",
      "stateCode": "MX-YUC",
      "latitude": 21.22372,
      "longitude": -88.6698
    },
    {
      "id": 8583865,
      "name": "Cacalchén",
      "nativeName": "Cacalchén",
      "code": "MX-YUC-8583865",
      "countryId": 3996063,
      "countryCode": "MX",
      "stateCode": "MX-YUC",
      "latitude": 20.98804,
      "longitude": -89.23802
    },
    {
      "id": 8583866,
      "name": "Calotmul",
      "nativeName": "Calotmul",
      "code": "MX-YUC-8583866",
      "countryId": 3996063,
      "countryCode": "MX",
      "stateCode": "MX-YUC",
      "latitude": 21.02494,
      "longitude": -88.12581
    },
    {
      "id": 8583867,
      "name": "Cansahcab",
      "nativeName": "Cansahcab",
      "code": "MX-YUC-8583867",
      "countryId": 3996063,
      "countryCode": "MX",
      "stateCode": "MX-YUC",
      "latitude": 21.16578,
      "longitude": -89.08882
    },
    {
      "id": 8583868,
      "name": "Cantamayec",
      "nativeName": "Cantamayec",
      "code": "MX-YUC-8583868",
      "countryId": 3996063,
      "countryCode": "MX",
      "stateCode": "MX-YUC",
      "latitude": 20.43186,
      "longitude": -89.07176
    },
    {
      "id": 8583869,
      "name": "Celestún",
      "nativeName": "Celestún",
      "code": "MX-YUC-8583869",
      "countryId": 3996063,
      "countryCode": "MX",
      "stateCode": "MX-YUC",
      "latitude": 20.8871,
      "longitude": -90.30855
    },
    {
      "id": 8583870,
      "name": "Cenotillo",
      "nativeName": "Cenotillo",
      "code": "MX-YUC-8583870",
      "countryId": 3996063,
      "countryCode": "MX",
      "stateCode": "MX-YUC",
      "latitude": 21.06401,
      "longitude": -88.58387
    },
    {
      "id": 8583874,
      "name": "Chacsinkín",
      "nativeName": "Chacsinkín",
      "code": "MX-YUC-8583874",
      "countryId": 3996063,
      "countryCode": "MX",
      "stateCode": "MX-YUC",
      "latitude": 20.18176,
      "longitude": -89.00786
    },
    {
      "id": 8583875,
      "name": "Chankom",
      "nativeName": "Chankom",
      "code": "MX-YUC-8583875",
      "countryId": 3996063,
      "countryCode": "MX",
      "stateCode": "MX-YUC",
      "latitude": 20.49656,
      "longitude": -88.56928
    },
    {
      "id": 8583876,
      "name": "Chapab",
      "nativeName": "Chapab",
      "code": "MX-YUC-8583876",
      "countryId": 3996063,
      "countryCode": "MX",
      "stateCode": "MX-YUC",
      "latitude": 20.48633,
      "longitude": -89.46779
    },
    {
      "id": 8583877,
      "name": "Chemax",
      "nativeName": "Chemax",
      "code": "MX-YUC-8583877",
      "countryId": 3996063,
      "countryCode": "MX",
      "stateCode": "MX-YUC",
      "latitude": 20.72491,
      "longitude": -87.8794
    },
    {
      "id": 8583879,
      "name": "Chichimilá",
      "nativeName": "Chichimilá",
      "code": "MX-YUC-8583879",
      "countryId": 3996063,
      "countryCode": "MX",
      "stateCode": "MX-YUC",
      "latitude": 20.46641,
      "longitude": -88.18044
    },
    {
      "id": 8583878,
      "name": "Chicxulub Pueblo",
      "nativeName": "Chicxulub Pueblo",
      "code": "MX-YUC-8583878",
      "countryId": 3996063,
      "countryCode": "MX",
      "stateCode": "MX-YUC",
      "latitude": 21.14527,
      "longitude": -89.51331
    },
    {
      "id": 8583880,
      "name": "Chikindzonot",
      "nativeName": "Chikindzonot",
      "code": "MX-YUC-8583880",
      "countryId": 3996063,
      "countryCode": "MX",
      "stateCode": "MX-YUC",
      "latitude": 20.26024,
      "longitude": -88.5471
    },
    {
      "id": 8583881,
      "name": "Chocholá",
      "nativeName": "Chocholá",
      "code": "MX-YUC-8583881",
      "countryId": 3996063,
      "countryCode": "MX",
      "stateCode": "MX-YUC",
      "latitude": 20.75112,
      "longitude": -89.84547
    },
    {
      "id": 8583882,
      "name": "Chumayel",
      "nativeName": "Chumayel",
      "code": "MX-YUC-8583882",
      "countryId": 3996063,
      "countryCode": "MX",
      "stateCode": "MX-YUC",
      "latitude": 20.45356,
      "longitude": -89.29321
    },
    {
      "id": 8583871,
      "name": "Conkal",
      "nativeName": "Conkal",
      "code": "MX-YUC-8583871",
      "countryId": 3996063,
      "countryCode": "MX",
      "stateCode": "MX-YUC",
      "latitude": 21.08143,
      "longitude": -89.51683
    },
    {
      "id": 8583872,
      "name": "Cuncunul",
      "nativeName": "Cuncunul",
      "code": "MX-YUC-8583872",
      "countryId": 3996063,
      "countryCode": "MX",
      "stateCode": "MX-YUC",
      "latitude": 20.62333,
      "longitude": -88.34637
    },
    {
      "id": 8583873,
      "name": "Cuzamá",
      "nativeName": "Cuzamá",
      "code": "MX-YUC-8583873",
      "countryId": 3996063,
      "countryCode": "MX",
      "stateCode": "MX-YUC",
      "latitude": 20.72176,
      "longitude": -89.33463
    },
    {
      "id": 8583884,
      "name": "Dzemul",
      "nativeName": "Dzemul",
      "code": "MX-YUC-8583884",
      "countryId": 3996063,
      "countryCode": "MX",
      "stateCode": "MX-YUC",
      "latitude": 21.24856,
      "longitude": -89.3322
    },
    {
      "id": 8583885,
      "name": "Dzidzantún",
      "nativeName": "Dzidzantún",
      "code": "MX-YUC-8583885",
      "countryId": 3996063,
      "countryCode": "MX",
      "stateCode": "MX-YUC",
      "latitude": 21.28932,
      "longitude": -89.02844
    },
    {
      "id": 8583887,
      "name": "Dzilam González",
      "nativeName": "Dzilam González",
      "code": "MX-YUC-8583887",
      "countryId": 3996063,
      "countryCode": "MX",
      "stateCode": "MX-YUC",
      "latitude": 21.33587,
      "longitude": -88.72289
    },
    {
      "id": 8583886,
      "name": "Dzilam de Bravo",
      "nativeName": "Dzilam de Bravo",
      "code": "MX-YUC-8583886",
      "countryId": 3996063,
      "countryCode": "MX",
      "stateCode": "MX-YUC",
      "latitude": 21.43361,
      "longitude": -88.66838
    },
    {
      "id": 8583888,
      "name": "Dzitás",
      "nativeName": "Dzitás",
      "code": "MX-YUC-8583888",
      "countryId": 3996063,
      "countryCode": "MX",
      "stateCode": "MX-YUC",
      "latitude": 20.82771,
      "longitude": -88.52059
    },
    {
      "id": 8583889,
      "name": "Dzoncauich",
      "nativeName": "Dzoncauich",
      "code": "MX-YUC-8583889",
      "countryId": 3996063,
      "countryCode": "MX",
      "stateCode": "MX-YUC",
      "latitude": 21.09826,
      "longitude": -88.85402
    },
    {
      "id": 8583883,
      "name": "Dzán",
      "nativeName": "Dzán",
      "code": "MX-YUC-8583883",
      "countryId": 3996063,
      "countryCode": "MX",
      "stateCode": "MX-YUC",
      "latitude": 20.39036,
      "longitude": -89.46185
    },
    {
      "id": 8583890,
      "name": "Espita",
      "nativeName": "Espita",
      "code": "MX-YUC-8583890",
      "countryId": 3996063,
      "countryCode": "MX",
      "stateCode": "MX-YUC",
      "latitude": 21.03516,
      "longitude": -88.36453
    },
    {
      "id": 8583891,
      "name": "Halachó",
      "nativeName": "Halachó",
      "code": "MX-YUC-8583891",
      "countryId": 3996063,
      "countryCode": "MX",
      "stateCode": "MX-YUC",
      "latitude": 20.50588,
      "longitude": -90.11384
    },
    {
      "id": 8583892,
      "name": "Hocabá",
      "nativeName": "Hocabá",
      "code": "MX-YUC-8583892",
      "countryId": 3996063,
      "countryCode": "MX",
      "stateCode": "MX-YUC",
      "latitude": 20.80841,
      "longitude": -89.2379
    },
    {
      "id": 8583893,
      "name": "Hoctún",
      "nativeName": "Hoctún",
      "code": "MX-YUC-8583893",
      "countryId": 3996063,
      "countryCode": "MX",
      "stateCode": "MX-YUC",
      "latitude": 20.87271,
      "longitude": -89.19647
    },
    {
      "id": 8583894,
      "name": "Homún",
      "nativeName": "Homún",
      "code": "MX-YUC-8583894",
      "countryId": 3996063,
      "countryCode": "MX",
      "stateCode": "MX-YUC",
      "latitude": 20.69058,
      "longitude": -89.24464
    },
    {
      "id": 8583895,
      "name": "Huhí",
      "nativeName": "Huhí",
      "code": "MX-YUC-8583895",
      "countryId": 3996063,
      "countryCode": "MX",
      "stateCode": "MX-YUC",
      "latitude": 20.70776,
      "longitude": -89.15234
    },
    {
      "id": 8583896,
      "name": "Hunucmá",
      "nativeName": "Hunucmá",
      "code": "MX-YUC-8583896",
      "countryId": 3996063,
      "countryCode": "MX",
      "stateCode": "MX-YUC",
      "latitude": 21.03093,
      "longitude": -89.88047
    },
    {
      "id": 8583897,
      "name": "Ixil",
      "nativeName": "Ixil",
      "code": "MX-YUC-8583897",
      "countryId": 3996063,
      "countryCode": "MX",
      "stateCode": "MX-YUC",
      "latitude": 21.17804,
      "longitude": -89.47924
    },
    {
      "id": 8583898,
      "name": "Izamal",
      "nativeName": "Izamal",
      "code": "MX-YUC-8583898",
      "countryId": 3996063,
      "countryCode": "MX",
      "stateCode": "MX-YUC",
      "latitude": 20.93137,
      "longitude": -88.99658
    },
    {
      "id": 8583899,
      "name": "Kanasín",
      "nativeName": "Kanasín",
      "code": "MX-YUC-8583899",
      "countryId": 3996063,
      "countryCode": "MX",
      "stateCode": "MX-YUC",
      "latitude": 20.92563,
      "longitude": -89.53277
    },
    {
      "id": 8583900,
      "name": "Kantunil",
      "nativeName": "Kantunil",
      "code": "MX-YUC-8583900",
      "countryId": 3996063,
      "countryCode": "MX",
      "stateCode": "MX-YUC",
      "latitude": 20.78056,
      "longitude": -88.99986
    },
    {
      "id": 8583901,
      "name": "Kaua",
      "nativeName": "Kaua",
      "code": "MX-YUC-8583901",
      "countryId": 3996063,
      "countryCode": "MX",
      "stateCode": "MX-YUC",
      "latitude": 20.62476,
      "longitude": -88.4244
    },
    {
      "id": 8583902,
      "name": "Kinchil",
      "nativeName": "Kinchil",
      "code": "MX-YUC-8583902",
      "countryId": 3996063,
      "countryCode": "MX",
      "stateCode": "MX-YUC",
      "latitude": 20.88263,
      "longitude": -90.00967
    },
    {
      "id": 8583903,
      "name": "Kopomá",
      "nativeName": "Kopomá",
      "code": "MX-YUC-8583903",
      "countryId": 3996063,
      "countryCode": "MX",
      "stateCode": "MX-YUC",
      "latitude": 20.64258,
      "longitude": -89.90765
    },
    {
      "id": 8583904,
      "name": "Mama",
      "nativeName": "Mama",
      "code": "MX-YUC-8583904",
      "countryId": 3996063,
      "countryCode": "MX",
      "stateCode": "MX-YUC",
      "latitude": 20.49667,
      "longitude": -89.37694
    },
    {
      "id": 8583905,
      "name": "Maní",
      "nativeName": "Maní",
      "code": "MX-YUC-8583905",
      "countryId": 3996063,
      "countryCode": "MX",
      "stateCode": "MX-YUC",
      "latitude": 20.37097,
      "longitude": -89.3776
    },
    {
      "id": 8583906,
      "name": "Maxcanú",
      "nativeName": "Maxcanú",
      "code": "MX-YUC-8583906",
      "countryId": 3996063,
      "countryCode": "MX",
      "stateCode": "MX-YUC",
      "latitude": 20.62478,
      "longitude": -90.04978
    },
    {
      "id": 8583907,
      "name": "Mayapán",
      "nativeName": "Mayapán",
      "code": "MX-YUC-8583907",
      "countryId": 3996063,
      "countryCode": "MX",
      "stateCode": "MX-YUC",
      "latitude": 20.49482,
      "longitude": -89.19105
    },
    {
      "id": 8583909,
      "name": "Mocochá",
      "nativeName": "Mocochá",
      "code": "MX-YUC-8583909",
      "countryId": 3996063,
      "countryCode": "MX",
      "stateCode": "MX-YUC",
      "latitude": 21.111,
      "longitude": -89.45403
    },
    {
      "id": 8583910,
      "name": "Motul",
      "nativeName": "Motul",
      "code": "MX-YUC-8583910",
      "countryId": 3996063,
      "countryCode": "MX",
      "stateCode": "MX-YUC",
      "latitude": 21.12101,
      "longitude": -89.28499
    },
    {
      "id": 8583911,
      "name": "Muna",
      "nativeName": "Muna",
      "code": "MX-YUC-8583911",
      "countryId": 3996063,
      "countryCode": "MX",
      "stateCode": "MX-YUC",
      "latitude": 20.48149,
      "longitude": -89.72276
    },
    {
      "id": 8583912,
      "name": "Muxupip",
      "nativeName": "Muxupip",
      "code": "MX-YUC-8583912",
      "countryId": 3996063,
      "countryCode": "MX",
      "stateCode": "MX-YUC",
      "latitude": 21.04728,
      "longitude": -89.3281
    },
    {
      "id": 8583908,
      "name": "Mérida",
      "nativeName": "Mérida",
      "code": "MX-YUC-8583908",
      "countryId": 3996063,
      "countryCode": "MX",
      "stateCode": "MX-YUC",
      "latitude": 20.99521,
      "longitude": -89.61615
    },
    {
      "id": 8583913,
      "name": "Opichén",
      "nativeName": "Opichén",
      "code": "MX-YUC-8583913",
      "countryId": 3996063,
      "countryCode": "MX",
      "stateCode": "MX-YUC",
      "latitude": 20.55769,
      "longitude": -89.8724
    },
    {
      "id": 8583914,
      "name": "Oxkutzcab",
      "nativeName": "Oxkutzcab",
      "code": "MX-YUC-8583914",
      "countryId": 3996063,
      "countryCode": "MX",
      "stateCode": "MX-YUC",
      "latitude": 20.24086,
      "longitude": -89.446
    },
    {
      "id": 8583915,
      "name": "Panabá",
      "nativeName": "Panabá",
      "code": "MX-YUC-8583915",
      "countryId": 3996063,
      "countryCode": "MX",
      "stateCode": "MX-YUC",
      "latitude": 21.3465,
      "longitude": -88.29604
    },
    {
      "id": 8583916,
      "name": "Peto",
      "nativeName": "Peto",
      "code": "MX-YUC-8583916",
      "countryId": 3996063,
      "countryCode": "MX",
      "stateCode": "MX-YUC",
      "latitude": 20.07423,
      "longitude": -88.84425
    },
    {
      "id": 8583917,
      "name": "Progreso Municipality",
      "nativeName": "Progreso",
      "code": "MX-YUC-8583917",
      "countryId": 3996063,
      "countryCode": "MX",
      "stateCode": "MX-YUC",
      "latitude": 21.23521,
      "longitude": -89.62047
    },
    {
      "id": 8583918,
      "name": "Quintana Roo",
      "nativeName": "Quintana Roo",
      "code": "MX-YUC-8583918",
      "countryId": 3996063,
      "countryCode": "MX",
      "stateCode": "MX-YUC",
      "latitude": 20.84464,
      "longitude": -88.65081
    },
    {
      "id": 8583919,
      "name": "Río Lagartos",
      "nativeName": "Río Lagartos",
      "code": "MX-YUC-8583919",
      "countryId": 3996063,
      "countryCode": "MX",
      "stateCode": "MX-YUC",
      "latitude": 21.50241,
      "longitude": -88.12443
    },
    {
      "id": 8583920,
      "name": "Sacalum",
      "nativeName": "Sacalum",
      "code": "MX-YUC-8583920",
      "countryId": 3996063,
      "countryCode": "MX",
      "stateCode": "MX-YUC",
      "latitude": 20.51975,
      "longitude": -89.60895
    },
    {
      "id": 8583921,
      "name": "Samahil",
      "nativeName": "Samahil",
      "code": "MX-YUC-8583921",
      "countryId": 3996063,
      "countryCode": "MX",
      "stateCode": "MX-YUC",
      "latitude": 20.86433,
      "longitude": -89.91398
    },
    {
      "id": 8583923,
      "name": "San Felipe",
      "nativeName": "San Felipe",
      "code": "MX-YUC-8583923",
      "countryId": 3996063,
      "countryCode": "MX",
      "stateCode": "MX-YUC",
      "latitude": 21.4616,
      "longitude": -88.2667
    },
    {
      "id": 8583922,
      "name": "Sanahcat",
      "nativeName": "Sanahcat",
      "code": "MX-YUC-8583922",
      "countryId": 3996063,
      "countryCode": "MX",
      "stateCode": "MX-YUC",
      "latitude": 20.77587,
      "longitude": -89.21091
    },
    {
      "id": 8583924,
      "name": "Santa Elena",
      "nativeName": "Santa Elena",
      "code": "MX-YUC-8583924",
      "countryId": 3996063,
      "countryCode": "MX",
      "stateCode": "MX-YUC",
      "latitude": 20.30981,
      "longitude": -89.71265
    },
    {
      "id": 8583925,
      "name": "Seyé",
      "nativeName": "Seyé",
      "code": "MX-YUC-8583925",
      "countryId": 3996063,
      "countryCode": "MX",
      "stateCode": "MX-YUC",
      "latitude": 20.85171,
      "longitude": -89.37289
    },
    {
      "id": 8583926,
      "name": "Sinanché",
      "nativeName": "Sinanché",
      "code": "MX-YUC-8583926",
      "countryId": 3996063,
      "countryCode": "MX",
      "stateCode": "MX-YUC",
      "latitude": 21.27623,
      "longitude": -89.20096
    },
    {
      "id": 8583927,
      "name": "Sotuta",
      "nativeName": "Sotuta",
      "code": "MX-YUC-8583927",
      "countryId": 3996063,
      "countryCode": "MX",
      "stateCode": "MX-YUC",
      "latitude": 20.59803,
      "longitude": -89.00441
    },
    {
      "id": 8583928,
      "name": "Sucilá",
      "nativeName": "Sucilá",
      "code": "MX-YUC-8583928",
      "countryId": 3996063,
      "countryCode": "MX",
      "stateCode": "MX-YUC",
      "latitude": 21.21247,
      "longitude": -88.37851
    },
    {
      "id": 8583929,
      "name": "Sudzal",
      "nativeName": "Sudzal",
      "code": "MX-YUC-8583929",
      "countryId": 3996063,
      "countryCode": "MX",
      "stateCode": "MX-YUC",
      "latitude": 20.81427,
      "longitude": -88.9003
    },
    {
      "id": 8583186,
      "name": "Suma",
      "nativeName": "Suma",
      "code": "MX-YUC-8583186",
      "countryId": 3996063,
      "countryCode": "MX",
      "stateCode": "MX-YUC",
      "latitude": 21.10591,
      "longitude": -89.15487
    },
    {
      "id": 8583291,
      "name": "Tahdziú",
      "nativeName": "Tahdziú",
      "code": "MX-YUC-8583291",
      "countryId": 3996063,
      "countryCode": "MX",
      "stateCode": "MX-YUC",
      "latitude": 20.24217,
      "longitude": -88.90977
    },
    {
      "id": 8583930,
      "name": "Tahmek",
      "nativeName": "Tahmek",
      "code": "MX-YUC-8583930",
      "countryId": 3996063,
      "countryCode": "MX",
      "stateCode": "MX-YUC",
      "latitude": 20.88158,
      "longitude": -89.28249
    },
    {
      "id": 8583931,
      "name": "Teabo",
      "nativeName": "Teabo",
      "code": "MX-YUC-8583931",
      "countryId": 3996063,
      "countryCode": "MX",
      "stateCode": "MX-YUC",
      "latitude": 20.38771,
      "longitude": -89.24207
    },
    {
      "id": 8583932,
      "name": "Tecoh",
      "nativeName": "Tecoh",
      "code": "MX-YUC-8583932",
      "countryId": 3996063,
      "countryCode": "MX",
      "stateCode": "MX-YUC",
      "latitude": 20.6964,
      "longitude": -89.45174
    },
    {
      "id": 8583933,
      "name": "Tekal de Venegas",
      "nativeName": "Tekal de Venegas",
      "code": "MX-YUC-8583933",
      "countryId": 3996063,
      "countryCode": "MX",
      "stateCode": "MX-YUC",
      "latitude": 21.01672,
      "longitude": -88.86104
    },
    {
      "id": 8583934,
      "name": "Tekantó",
      "nativeName": "Tekantó",
      "code": "MX-YUC-8583934",
      "countryId": 3996063,
      "countryCode": "MX",
      "stateCode": "MX-YUC",
      "latitude": 21.00585,
      "longitude": -89.10552
    },
    {
      "id": 8583935,
      "name": "Tekax",
      "nativeName": "Tekax",
      "code": "MX-YUC-8583935",
      "countryId": 3996063,
      "countryCode": "MX",
      "stateCode": "MX-YUC",
      "latitude": 20.04039,
      "longitude": -89.26448
    },
    {
      "id": 8583936,
      "name": "Tekit",
      "nativeName": "Tekit",
      "code": "MX-YUC-8583936",
      "countryId": 3996063,
      "countryCode": "MX",
      "stateCode": "MX-YUC",
      "latitude": 20.55055,
      "longitude": -89.28731
    },
    {
      "id": 8583937,
      "name": "Tekom",
      "nativeName": "Tekom",
      "code": "MX-YUC-8583937",
      "countryId": 3996063,
      "countryCode": "MX",
      "stateCode": "MX-YUC",
      "latitude": 20.5302,
      "longitude": -88.34591
    },
    {
      "id": 8583938,
      "name": "Telchac Pueblo",
      "nativeName": "Telchac Pueblo",
      "code": "MX-YUC-8583938",
      "countryId": 3996063,
      "countryCode": "MX",
      "stateCode": "MX-YUC",
      "latitude": 21.19578,
      "longitude": -89.26957
    },
    {
      "id": 8583939,
      "name": "Telchac Puerto",
      "nativeName": "Telchac Puerto",
      "code": "MX-YUC-8583939",
      "countryId": 3996063,
      "countryCode": "MX",
      "stateCode": "MX-YUC",
      "latitude": 21.31359,
      "longitude": -89.26463
    },
    {
      "id": 8583940,
      "name": "Temax",
      "nativeName": "Temax",
      "code": "MX-YUC-8583940",
      "countryId": 3996063,
      "countryCode": "MX",
      "stateCode": "MX-YUC",
      "latitude": 21.16136,
      "longitude": -88.90675
    },
    {
      "id": 8583941,
      "name": "Temozón",
      "nativeName": "Temozón",
      "code": "MX-YUC-8583941",
      "countryId": 3996063,
      "countryCode": "MX",
      "stateCode": "MX-YUC",
      "latitude": 20.86318,
      "longitude": -88.12128
    },
    {
      "id": 8583942,
      "name": "Tepakán",
      "nativeName": "Tepakán",
      "code": "MX-YUC-8583942",
      "countryId": 3996063,
      "countryCode": "MX",
      "stateCode": "MX-YUC",
      "latitude": 21.06185,
      "longitude": -89.0224
    },
    {
      "id": 8583943,
      "name": "Tetiz",
      "nativeName": "Tetiz",
      "code": "MX-YUC-8583943",
      "countryId": 3996063,
      "countryCode": "MX",
      "stateCode": "MX-YUC",
      "latitude": 20.97038,
      "longitude": -89.95657
    },
    {
      "id": 8583944,
      "name": "Teya",
      "nativeName": "Teya",
      "code": "MX-YUC-8583944",
      "countryId": 3996063,
      "countryCode": "MX",
      "stateCode": "MX-YUC",
      "latitude": 21.06848,
      "longitude": -89.07142
    },
    {
      "id": 8583945,
      "name": "Ticul",
      "nativeName": "Ticul",
      "code": "MX-YUC-8583945",
      "countryId": 3996063,
      "countryCode": "MX",
      "stateCode": "MX-YUC",
      "latitude": 20.38016,
      "longitude": -89.52709
    },
    {
      "id": 8583946,
      "name": "Timucuy",
      "nativeName": "Timucuy",
      "code": "MX-YUC-8583946",
      "countryId": 3996063,
      "countryCode": "MX",
      "stateCode": "MX-YUC",
      "latitude": 20.83178,
      "longitude": -89.52744
    },
    {
      "id": 8583947,
      "name": "Tinum",
      "nativeName": "Tinum",
      "code": "MX-YUC-8583947",
      "countryId": 3996063,
      "countryCode": "MX",
      "stateCode": "MX-YUC",
      "latitude": 20.70004,
      "longitude": -88.51631
    },
    {
      "id": 8583948,
      "name": "Tixcacalcupul",
      "nativeName": "Tixcacalcupul",
      "code": "MX-YUC-8583948",
      "countryId": 3996063,
      "countryCode": "MX",
      "stateCode": "MX-YUC",
      "latitude": 20.43929,
      "longitude": -88.30028
    },
    {
      "id": 8583949,
      "name": "Tixkokob",
      "nativeName": "Tixkokob",
      "code": "MX-YUC-8583949",
      "countryId": 3996063,
      "countryCode": "MX",
      "stateCode": "MX-YUC",
      "latitude": 20.9811,
      "longitude": -89.38062
    },
    {
      "id": 8583950,
      "name": "Tixmehuac",
      "nativeName": "Tixmehuac",
      "code": "MX-YUC-8583950",
      "countryId": 3996063,
      "countryCode": "MX",
      "stateCode": "MX-YUC",
      "latitude": 20.24682,
      "longitude": -89.08695
    },
    {
      "id": 8583951,
      "name": "Tixpéhual",
      "nativeName": "Tixpéhual",
      "code": "MX-YUC-8583951",
      "countryId": 3996063,
      "countryCode": "MX",
      "stateCode": "MX-YUC",
      "latitude": 20.96761,
      "longitude": -89.46744
    },
    {
      "id": 8583952,
      "name": "Tizimín",
      "nativeName": "Tizimín",
      "code": "MX-YUC-8583952",
      "countryId": 3996063,
      "countryCode": "MX",
      "stateCode": "MX-YUC",
      "latitude": 21.23622,
      "longitude": -87.95756
    },
    {
      "id": 8583953,
      "name": "Tunkás",
      "nativeName": "Tunkás",
      "code": "MX-YUC-8583953",
      "countryId": 3996063,
      "countryCode": "MX",
      "stateCode": "MX-YUC",
      "latitude": 20.89032,
      "longitude": -88.75337
    },
    {
      "id": 8583954,
      "name": "Tzucacab",
      "nativeName": "Tzucacab",
      "code": "MX-YUC-8583954",
      "countryId": 3996063,
      "countryCode": "MX",
      "stateCode": "MX-YUC",
      "latitude": 19.96002,
      "longitude": -89.03651
    },
    {
      "id": 8583955,
      "name": "Uayma",
      "nativeName": "Uayma",
      "code": "MX-YUC-8583955",
      "countryId": 3996063,
      "countryCode": "MX",
      "stateCode": "MX-YUC",
      "latitude": 20.74392,
      "longitude": -88.35224
    },
    {
      "id": 8583956,
      "name": "Ucú",
      "nativeName": "Ucú",
      "code": "MX-YUC-8583956",
      "countryId": 3996063,
      "countryCode": "MX",
      "stateCode": "MX-YUC",
      "latitude": 21.0261,
      "longitude": -89.73921
    },
    {
      "id": 8583957,
      "name": "Umán",
      "nativeName": "Umán",
      "code": "MX-YUC-8583957",
      "countryId": 3996063,
      "countryCode": "MX",
      "stateCode": "MX-YUC",
      "latitude": 20.86575,
      "longitude": -89.76093
    },
    {
      "id": 8583958,
      "name": "Valladolid",
      "nativeName": "Valladolid",
      "code": "MX-YUC-8583958",
      "countryId": 3996063,
      "countryCode": "MX",
      "stateCode": "MX-YUC",
      "latitude": 20.68604,
      "longitude": -88.12406
    },
    {
      "id": 8583959,
      "name": "Xocchel",
      "nativeName": "Xocchel",
      "code": "MX-YUC-8583959",
      "countryId": 3996063,
      "countryCode": "MX",
      "stateCode": "MX-YUC",
      "latitude": 20.8199,
      "longitude": -89.15064
    },
    {
      "id": 8583960,
      "name": "Yaxcabá",
      "nativeName": "Yaxcabá",
      "code": "MX-YUC-8583960",
      "countryId": 3996063,
      "countryCode": "MX",
      "stateCode": "MX-YUC",
      "latitude": 20.47252,
      "longitude": -88.78048
    },
    {
      "id": 8583961,
      "name": "Yaxkukul",
      "nativeName": "Yaxkukul",
      "code": "MX-YUC-8583961",
      "countryId": 3996063,
      "countryCode": "MX",
      "stateCode": "MX-YUC",
      "latitude": 21.05623,
      "longitude": -89.43443
    },
    {
      "id": 8583962,
      "name": "Yobaín",
      "nativeName": "Yobaín",
      "code": "MX-YUC-8583962",
      "countryId": 3996063,
      "countryCode": "MX",
      "stateCode": "MX-YUC",
      "latitude": 21.28304,
      "longitude": -89.11893
    }
  ]
}