{
  "stateId": 7667666,
  "stateCode": "KE-02",
  "countryCode": "KE",
  "cities": [
    {
      "id": 200308,
      "name": "Bomet",
      "nativeName": "Bomet",
      "code": "KE-02-200308",
      "countryId": 192950,
      "countryCode": "KE",
      "stateCode": "KE-02",
      "latitude": -0.78129,
      "longitude": 35.34156
    },
    {
      "id": 201202,
      "name": "Aisaik",
      "nativeName": "Aisaik",
      "code": "KE-02-201202",
      "countryId": 192950,
      "countryCode": "KE",
      "stateCode": "KE-02",
      "latitude": -0.72061,
      "longitude": 35.34081
    },
    {
      "id": 200682,
      "name": "Balek",
      "nativeName": "Balek",
      "code": "KE-02-200682",
      "countryId": 192950,
      "countryCode": "KE",
      "stateCode": "KE-02",
      "latitude": -0.67512,
      "longitude": 35.19638
    },
    {
      "id": 200348,
      "name": "Boito",
      "nativeName": "Boito",
      "code": "KE-02-200348",
      "countryId": 192950,
      "countryCode": "KE",
      "stateCode": "KE-02",
      "latitude": -0.59569,
      "longitude": 35.23746
    },
    {
      "id": 200349,
      "name": "Boito",
      "nativeName": "Boito",
      "code": "KE-02-200349",
      "countryId": 192950,
      "countryCode": "KE",
      "stateCode": "KE-02",
      "latitude": -0.69736,
      "longitude": 35.29514
    },
    {
      "id": 199785,
      "name": "Chebangang",
      "nativeName": "Chebangang",
      "code": "KE-02-199785",
      "countryId": 192950,
      "countryCode": "KE",
      "stateCode": "KE-02",
      "latitude": -0.53732,
      "longitude": 35.28987
    },
    {
      "id": 199767,
      "name": "Chebilat",
      "nativeName": "Chebilat",
      "code": "KE-02-199767",
      "countryId": 192950,
      "countryCode": "KE",
      "stateCode": "KE-02",
      "latitude": -0.61787,
      "longitude": 35.23975
    },
    {
      "id": 11964431,
      "name": "Chebilat",
      "nativeName": "Chebilat",
      "code": "KE-02-11964431",
      "countryId": 192950,
      "countryCode": "KE",
      "stateCode": "KE-02",
      "latitude": -0.60442,
      "longitude": 35.25426
    },
    {
      "id": 199761,
      "name": "Chebirbelek",
      "nativeName": "Chebirbelek",
      "code": "KE-02-199761",
      "countryId": 192950,
      "countryCode": "KE",
      "stateCode": "KE-02",
      "latitude": -0.65426,
      "longitude": 35.24285
    },
    {
      "id": 199751,
      "name": "Cheboin",
      "nativeName": "Cheboin",
      "code": "KE-02-199751",
      "countryId": 192950,
      "countryCode": "KE",
      "stateCode": "KE-02",
      "latitude": -0.80667,
      "longitude": 35.37714
    },
    {
      "id": 199745,
      "name": "Chebole",
      "nativeName": "Chebole",
      "code": "KE-02-199745",
      "countryId": 192950,
      "countryCode": "KE",
      "stateCode": "KE-02",
      "latitude": -0.7171,
      "longitude": 35.21659
    },
    {
      "id": 11964437,
      "name": "Chebole",
      "nativeName": "Chebole",
      "code": "KE-02-11964437",
      "countryId": 192950,
      "countryCode": "KE",
      "stateCode": "KE-02",
      "latitude": -0.74603,
      "longitude": 35.21472
    },
    {
      "id": 199744,
      "name": "Chebongei",
      "nativeName": "Chebongei",
      "code": "KE-02-199744",
      "countryId": 192950,
      "countryCode": "KE",
      "stateCode": "KE-02",
      "latitude": -0.66562,
      "longitude": 35.10146
    },
    {
      "id": 199720,
      "name": "Chebunyo",
      "nativeName": "Chebunyo",
      "code": "KE-02-199720",
      "countryId": 192950,
      "countryCode": "KE",
      "stateCode": "KE-02",
      "latitude": -0.96664,
      "longitude": 35.1909
    },
    {
      "id": 199686,
      "name": "Chemalal",
      "nativeName": "Chemalal",
      "code": "KE-02-199686",
      "countryId": 192950,
      "countryCode": "KE",
      "stateCode": "KE-02",
      "latitude": -0.52201,
      "longitude": 35.20937
    },
    {
      "id": 199682,
      "name": "Chemaner",
      "nativeName": "Chemaner",
      "code": "KE-02-199682",
      "countryId": 192950,
      "countryCode": "KE",
      "stateCode": "KE-02",
      "latitude": -0.80263,
      "longitude": 35.48508
    },
    {
      "id": 199674,
      "name": "Chemelet",
      "nativeName": "Chemelet",
      "code": "KE-02-199674",
      "countryId": 192950,
      "countryCode": "KE",
      "stateCode": "KE-02",
      "latitude": -0.56444,
      "longitude": 35.21521
    },
    {
      "id": 199816,
      "name": "Cheptalal",
      "nativeName": "Cheptalal",
      "code": "KE-02-199816",
      "countryId": 192950,
      "countryCode": "KE",
      "stateCode": "KE-02",
      "latitude": -0.61684,
      "longitude": 35.37531
    },
    {
      "id": 199433,
      "name": "Chesilyot",
      "nativeName": "Chesilyot",
      "code": "KE-02-199433",
      "countryId": 192950,
      "countryCode": "KE",
      "stateCode": "KE-02",
      "latitude": -0.66242,
      "longitude": 35.2049
    },
    {
      "id": 199427,
      "name": "Chesoen",
      "nativeName": "Chesoen",
      "code": "KE-02-199427",
      "countryId": 192950,
      "countryCode": "KE",
      "stateCode": "KE-02",
      "latitude": -0.70204,
      "longitude": 35.28526
    },
    {
      "id": 11964467,
      "name": "Embomos",
      "nativeName": "Embomos",
      "code": "KE-02-11964467",
      "countryId": 192950,
      "countryCode": "KE",
      "stateCode": "KE-02",
      "latitude": -0.53791,
      "longitude": 35.3613
    },
    {
      "id": 197482,
      "name": "Gelegele",
      "nativeName": "Gelegele",
      "code": "KE-02-197482",
      "countryId": 192950,
      "countryCode": "KE",
      "stateCode": "KE-02",
      "latitude": -0.87587,
      "longitude": 35.03545
    },
    {
      "id": 197065,
      "name": "Gorgor",
      "nativeName": "Gorgor",
      "code": "KE-02-197065",
      "countryId": 192950,
      "countryCode": "KE",
      "stateCode": "KE-02",
      "latitude": -0.8991,
      "longitude": 35.08301
    },
    {
      "id": 196191,
      "name": "Itare",
      "nativeName": "Itare",
      "code": "KE-02-196191",
      "countryId": 192950,
      "countryCode": "KE",
      "stateCode": "KE-02",
      "latitude": -0.58301,
      "longitude": 35.25743
    },
    {
      "id": 195713,
      "name": "Kaboson",
      "nativeName": "Kaboson",
      "code": "KE-02-195713",
      "countryId": 192950,
      "countryCode": "KE",
      "stateCode": "KE-02",
      "latitude": -1.00203,
      "longitude": 35.25346
    },
    {
      "id": 195674,
      "name": "Kabungut",
      "nativeName": "Kabungut",
      "code": "KE-02-195674",
      "countryId": 192950,
      "countryCode": "KE",
      "stateCode": "KE-02",
      "latitude": -0.72947,
      "longitude": 35.31842
    },
    {
      "id": 11964463,
      "name": "Kainirai",
      "nativeName": "Kainirai",
      "code": "KE-02-11964463",
      "countryId": 192950,
      "countryCode": "KE",
      "stateCode": "KE-02",
      "latitude": -0.84647,
      "longitude": 35.4624
    },
    {
      "id": 194651,
      "name": "Kamugeno",
      "nativeName": "Kamugeno",
      "code": "KE-02-194651",
      "countryId": 192950,
      "countryCode": "KE",
      "stateCode": "KE-02",
      "latitude": -0.81667,
      "longitude": 35.11667
    },
    {
      "id": 194627,
      "name": "Kamungei",
      "nativeName": "Kamungei",
      "code": "KE-02-194627",
      "countryId": 192950,
      "countryCode": "KE",
      "stateCode": "KE-02",
      "latitude": -0.68164,
      "longitude": 35.22106
    },
    {
      "id": 194325,
      "name": "Kanusin",
      "nativeName": "Kanusin",
      "code": "KE-02-194325",
      "countryId": 192950,
      "countryCode": "KE",
      "stateCode": "KE-02",
      "latitude": -0.7709,
      "longitude": 35.21356
    },
    {
      "id": 194105,
      "name": "Kapkimolwa",
      "nativeName": "Kapkimolwa",
      "code": "KE-02-194105",
      "countryId": 192950,
      "countryCode": "KE",
      "stateCode": "KE-02",
      "latitude": -0.89351,
      "longitude": 35.43653
    },
    {
      "id": 194082,
      "name": "Kapkoros",
      "nativeName": "Kapkoros",
      "code": "KE-02-194082",
      "countryId": 192950,
      "countryCode": "KE",
      "stateCode": "KE-02",
      "latitude": -0.66202,
      "longitude": 35.31215
    },
    {
      "id": 11964436,
      "name": "Kapkwen",
      "nativeName": "Kapkwen",
      "code": "KE-02-11964436",
      "countryId": 192950,
      "countryCode": "KE",
      "stateCode": "KE-02",
      "latitude": -0.78702,
      "longitude": 35.3002
    },
    {
      "id": 194061,
      "name": "Kaplong",
      "nativeName": "Kaplong",
      "code": "KE-02-194061",
      "countryId": 192950,
      "countryCode": "KE",
      "stateCode": "KE-02",
      "latitude": -0.67816,
      "longitude": 35.13915
    },
    {
      "id": 194008,
      "name": "Kapsimotwa",
      "nativeName": "Kapsimotwa",
      "code": "KE-02-194008",
      "countryId": 192950,
      "countryCode": "KE",
      "stateCode": "KE-02",
      "latitude": -0.7569,
      "longitude": 35.32185
    },
    {
      "id": 193958,
      "name": "Kaptebengwet",
      "nativeName": "Kaptebengwet",
      "code": "KE-02-193958",
      "countryId": 192950,
      "countryCode": "KE",
      "stateCode": "KE-02",
      "latitude": -0.57683,
      "longitude": 35.31243
    },
    {
      "id": 11964429,
      "name": "Kaptien",
      "nativeName": "Kaptien",
      "code": "KE-02-11964429",
      "countryId": 192950,
      "countryCode": "KE",
      "stateCode": "KE-02",
      "latitude": -0.56336,
      "longitude": 35.28269
    },
    {
      "id": 193460,
      "name": "Kataret",
      "nativeName": "Kataret",
      "code": "KE-02-193460",
      "countryId": 192950,
      "countryCode": "KE",
      "stateCode": "KE-02",
      "latitude": -0.93053,
      "longitude": 35.18383
    },
    {
      "id": 192990,
      "name": "Kembu",
      "nativeName": "Kembu",
      "code": "KE-02-192990",
      "countryId": 192950,
      "countryCode": "KE",
      "stateCode": "KE-02",
      "latitude": -0.83259,
      "longitude": 35.43951
    },
    {
      "id": 192868,
      "name": "Keroncho",
      "nativeName": "Keroncho",
      "code": "KE-02-192868",
      "countryId": 192950,
      "countryCode": "KE",
      "stateCode": "KE-02",
      "latitude": -0.72079,
      "longitude": 35.16353
    },
    {
      "id": 11964364,
      "name": "Kibajit",
      "nativeName": "Kibajit",
      "code": "KE-02-11964364",
      "countryId": 192950,
      "countryCode": "KE",
      "stateCode": "KE-02",
      "latitude": -0.72759,
      "longitude": 35.15739
    },
    {
      "id": 192460,
      "name": "Kiblosi",
      "nativeName": "Kiblosi",
      "code": "KE-02-192460",
      "countryId": 192950,
      "countryCode": "KE",
      "stateCode": "KE-02",
      "latitude": -0.77587,
      "longitude": 35.48579
    },
    {
      "id": 11981354,
      "name": "Kibosek",
      "nativeName": "Kibosek",
      "code": "KE-02-11981354",
      "countryId": 192950,
      "countryCode": "KE",
      "stateCode": "KE-02",
      "latitude": -1.00456,
      "longitude": 35.24872
    },
    {
      "id": 191949,
      "name": "Kimargis",
      "nativeName": "Kimargis",
      "code": "KE-02-191949",
      "countryId": 192950,
      "countryCode": "KE",
      "stateCode": "KE-02",
      "latitude": -0.68093,
      "longitude": 35.29138
    },
    {
      "id": 191894,
      "name": "Kimolwet",
      "nativeName": "Kimolwet",
      "code": "KE-02-191894",
      "countryId": 192950,
      "countryCode": "KE",
      "stateCode": "KE-02",
      "latitude": -0.69427,
      "longitude": 35.18034
    },
    {
      "id": 191871,
      "name": "Kimulot",
      "nativeName": "Kimulot",
      "code": "KE-02-191871",
      "countryId": 192950,
      "countryCode": "KE",
      "stateCode": "KE-02",
      "latitude": -0.51471,
      "longitude": 35.23023
    },
    {
      "id": 191650,
      "name": "Kipkelat",
      "nativeName": "Kipkelat",
      "code": "KE-02-191650",
      "countryId": 192950,
      "countryCode": "KE",
      "stateCode": "KE-02",
      "latitude": -0.94727,
      "longitude": 35.13849
    },
    {
      "id": 191646,
      "name": "Kipkiyen",
      "nativeName": "Kipkiyen",
      "code": "KE-02-191646",
      "countryId": 192950,
      "countryCode": "KE",
      "stateCode": "KE-02",
      "latitude": -0.55181,
      "longitude": 35.38491
    },
    {
      "id": 191625,
      "name": "Kiplelji",
      "nativeName": "Kiplelji",
      "code": "KE-02-191625",
      "countryId": 192950,
      "countryCode": "KE",
      "stateCode": "KE-02",
      "latitude": -0.73856,
      "longitude": 35.25117
    },
    {
      "id": 191620,
      "name": "Kiplokji",
      "nativeName": "Kiplokji",
      "code": "KE-02-191620",
      "countryId": 192950,
      "countryCode": "KE",
      "stateCode": "KE-02",
      "latitude": -0.67897,
      "longitude": 35.32634
    },
    {
      "id": 11964347,
      "name": "Kipsimbo",
      "nativeName": "Kipsimbo",
      "code": "KE-02-11964347",
      "countryId": 192950,
      "countryCode": "KE",
      "stateCode": "KE-02",
      "latitude": -0.85501,
      "longitude": 35.05082
    },
    {
      "id": 191570,
      "name": "Kipsonoi",
      "nativeName": "Kipsonoi",
      "code": "KE-02-191570",
      "countryId": 192950,
      "countryCode": "KE",
      "stateCode": "KE-02",
      "latitude": -0.69163,
      "longitude": 35.2166
    },
    {
      "id": 191554,
      "name": "Kiptenden",
      "nativeName": "Kiptenden",
      "code": "KE-02-191554",
      "countryId": 192950,
      "countryCode": "KE",
      "stateCode": "KE-02",
      "latitude": -0.9899,
      "longitude": 35.25447
    },
    {
      "id": 11964432,
      "name": "Kiptenden",
      "nativeName": "Kiptenden",
      "code": "KE-02-11964432",
      "countryId": 192950,
      "countryCode": "KE",
      "stateCode": "KE-02",
      "latitude": -0.63218,
      "longitude": 35.32536
    },
    {
      "id": 11428650,
      "name": "Koitasilibwet",
      "nativeName": "Koitasilibwet",
      "code": "KE-02-11428650",
      "countryId": 192950,
      "countryCode": "KE",
      "stateCode": "KE-02",
      "latitude": -0.84714,
      "longitude": 35.33855
    },
    {
      "id": 190757,
      "name": "Koiwa",
      "nativeName": "Koiwa",
      "code": "KE-02-190757",
      "countryId": 192950,
      "countryCode": "KE",
      "stateCode": "KE-02",
      "latitude": -0.6132,
      "longitude": 35.32287
    },
    {
      "id": 190566,
      "name": "Kon’gotik",
      "nativeName": "Kon’gotik",
      "code": "KE-02-190566",
      "countryId": 192950,
      "countryCode": "KE",
      "stateCode": "KE-02",
      "latitude": -0.82655,
      "longitude": 35.39702
    },
    {
      "id": 11964346,
      "name": "Koyet",
      "nativeName": "Koyet",
      "code": "KE-02-11964346",
      "countryId": 192950,
      "countryCode": "KE",
      "stateCode": "KE-02",
      "latitude": -0.87039,
      "longitude": 35.03663
    },
    {
      "id": 11964450,
      "name": "Labotiet",
      "nativeName": "Labotiet",
      "code": "KE-02-11964450",
      "countryId": 192950,
      "countryCode": "KE",
      "stateCode": "KE-02",
      "latitude": -0.94697,
      "longitude": 35.16928
    },
    {
      "id": 188959,
      "name": "Longisa",
      "nativeName": "Longisa",
      "code": "KE-02-188959",
      "countryId": 192950,
      "countryCode": "KE",
      "stateCode": "KE-02",
      "latitude": -0.85931,
      "longitude": 35.39331
    },
    {
      "id": 188661,
      "name": "Lugumek",
      "nativeName": "Lugumek",
      "code": "KE-02-188661",
      "countryId": 192950,
      "countryCode": "KE",
      "stateCode": "KE-02",
      "latitude": -0.98443,
      "longitude": 35.30841
    },
    {
      "id": 188128,
      "name": "Makimenyi",
      "nativeName": "Makimenyi",
      "code": "KE-02-188128",
      "countryId": 192950,
      "countryCode": "KE",
      "stateCode": "KE-02",
      "latitude": -0.84231,
      "longitude": 35.1993
    },
    {
      "id": 187621,
      "name": "Marinyin",
      "nativeName": "Marinyin",
      "code": "KE-02-187621",
      "countryId": 192950,
      "countryCode": "KE",
      "stateCode": "KE-02",
      "latitude": -0.6823,
      "longitude": 35.35188
    },
    {
      "id": 186866,
      "name": "Mengit",
      "nativeName": "Mengit",
      "code": "KE-02-186866",
      "countryId": 192950,
      "countryCode": "KE",
      "stateCode": "KE-02",
      "latitude": -0.96102,
      "longitude": 35.372
    },
    {
      "id": 186843,
      "name": "Merigi",
      "nativeName": "Merigi",
      "code": "KE-02-186843",
      "countryId": 192950,
      "countryCode": "KE",
      "stateCode": "KE-02",
      "latitude": -0.78406,
      "longitude": 35.40226
    },
    {
      "id": 186375,
      "name": "Mogogosiek",
      "nativeName": "Mogogosiek",
      "code": "KE-02-186375",
      "countryId": 192950,
      "countryCode": "KE",
      "stateCode": "KE-02",
      "latitude": -0.6186,
      "longitude": 35.27217
    },
    {
      "id": 186373,
      "name": "Mogonjiet",
      "nativeName": "Mogonjiet",
      "code": "KE-02-186373",
      "countryId": 192950,
      "countryCode": "KE",
      "stateCode": "KE-02",
      "latitude": -0.64973,
      "longitude": 35.25829
    },
    {
      "id": 186014,
      "name": "Mugango",
      "nativeName": "Mugango",
      "code": "KE-02-186014",
      "countryId": 192950,
      "countryCode": "KE",
      "stateCode": "KE-02",
      "latitude": -0.71452,
      "longitude": 35.39267
    },
    {
      "id": 185745,
      "name": "Mulot",
      "nativeName": "Mulot",
      "code": "KE-02-185745",
      "countryId": 192950,
      "countryCode": "KE",
      "stateCode": "KE-02",
      "latitude": -0.93752,
      "longitude": 35.42162
    },
    {
      "id": 184230,
      "name": "Ndamichoni",
      "nativeName": "Ndamichoni",
      "code": "KE-02-184230",
      "countryId": 192950,
      "countryCode": "KE",
      "stateCode": "KE-02",
      "latitude": -0.8,
      "longitude": 35.18333
    },
    {
      "id": 184228,
      "name": "Ndanai",
      "nativeName": "Ndanai",
      "code": "KE-02-184228",
      "countryId": 192950,
      "countryCode": "KE",
      "stateCode": "KE-02",
      "latitude": -0.83951,
      "longitude": 35.09536
    },
    {
      "id": 184210,
      "name": "Ndarawetta",
      "nativeName": "Ndarawetta",
      "code": "KE-02-184210",
      "countryId": 192950,
      "countryCode": "KE",
      "stateCode": "KE-02",
      "latitude": -0.68683,
      "longitude": 35.38008
    },
    {
      "id": 183746,
      "name": "Ngenenet",
      "nativeName": "Ngenenet",
      "code": "KE-02-183746",
      "countryId": 192950,
      "countryCode": "KE",
      "stateCode": "KE-02",
      "latitude": -0.92388,
      "longitude": 35.24189
    },
    {
      "id": 11964446,
      "name": "Olbutyo",
      "nativeName": "Olbutyo",
      "code": "KE-02-11964446",
      "countryId": 192950,
      "countryCode": "KE",
      "stateCode": "KE-02",
      "latitude": -0.85392,
      "longitude": 35.27247
    },
    {
      "id": 11964356,
      "name": "Oldebesi",
      "nativeName": "Oldebesi",
      "code": "KE-02-11964356",
      "countryId": 192950,
      "countryCode": "KE",
      "stateCode": "KE-02",
      "latitude": -0.83317,
      "longitude": 35.1389
    },
    {
      "id": 11964447,
      "name": "Oleso",
      "nativeName": "Oleso",
      "code": "KE-02-11964447",
      "countryId": 192950,
      "countryCode": "KE",
      "stateCode": "KE-02",
      "latitude": -0.89436,
      "longitude": 35.29127
    },
    {
      "id": 182121,
      "name": "Olokyin",
      "nativeName": "Olokyin",
      "code": "KE-02-182121",
      "countryId": 192950,
      "countryCode": "KE",
      "stateCode": "KE-02",
      "latitude": -0.95304,
      "longitude": 35.38441
    },
    {
      "id": 181809,
      "name": "Orokiet",
      "nativeName": "Orokiet",
      "code": "KE-02-181809",
      "countryId": 192950,
      "countryCode": "KE",
      "stateCode": "KE-02",
      "latitude": -0.61268,
      "longitude": 35.07426
    },
    {
      "id": 180960,
      "name": "Ruseya",
      "nativeName": "Ruseya",
      "code": "KE-02-180960",
      "countryId": 192950,
      "countryCode": "KE",
      "stateCode": "KE-02",
      "latitude": -0.65217,
      "longitude": 35.28799
    },
    {
      "id": 11964592,
      "name": "Saint Francis",
      "nativeName": "Saint Francis",
      "code": "KE-02-11964592",
      "countryId": 192950,
      "countryCode": "KE",
      "stateCode": "KE-02",
      "latitude": -0.69461,
      "longitude": 35.09283
    },
    {
      "id": 180661,
      "name": "Saseta",
      "nativeName": "Saseta",
      "code": "KE-02-180661",
      "countryId": 192950,
      "countryCode": "KE",
      "stateCode": "KE-02",
      "latitude": -0.62639,
      "longitude": 35.28048
    },
    {
      "id": 180654,
      "name": "Satiet",
      "nativeName": "Satiet",
      "code": "KE-02-180654",
      "countryId": 192950,
      "countryCode": "KE",
      "stateCode": "KE-02",
      "latitude": -0.62867,
      "longitude": 35.3674
    },
    {
      "id": 180625,
      "name": "Segemik",
      "nativeName": "Segemik",
      "code": "KE-02-180625",
      "countryId": 192950,
      "countryCode": "KE",
      "stateCode": "KE-02",
      "latitude": -0.84993,
      "longitude": 35.27307
    },
    {
      "id": 180605,
      "name": "Sekutiet",
      "nativeName": "Sekutiet",
      "code": "KE-02-180605",
      "countryId": 192950,
      "countryCode": "KE",
      "stateCode": "KE-02",
      "latitude": -0.69148,
      "longitude": 35.26499
    },
    {
      "id": 180262,
      "name": "Sigor",
      "nativeName": "Sigor",
      "code": "KE-02-180262",
      "countryId": 192950,
      "countryCode": "KE",
      "stateCode": "KE-02",
      "latitude": -0.91907,
      "longitude": 35.29931
    },
    {
      "id": 180229,
      "name": "Sikutek",
      "nativeName": "Sikutek",
      "code": "KE-02-180229",
      "countryId": 192950,
      "countryCode": "KE",
      "stateCode": "KE-02",
      "latitude": -0.66494,
      "longitude": 35.1591
    },
    {
      "id": 180220,
      "name": "Silibwet",
      "nativeName": "Silibwet",
      "code": "KE-02-180220",
      "countryId": 192950,
      "countryCode": "KE",
      "stateCode": "KE-02",
      "latitude": -0.73034,
      "longitude": 35.34609
    },
    {
      "id": 180126,
      "name": "Siongiroi",
      "nativeName": "Siongiroi",
      "code": "KE-02-180126",
      "countryId": 192950,
      "countryCode": "KE",
      "stateCode": "KE-02",
      "latitude": -0.89532,
      "longitude": 35.21134
    },
    {
      "id": 180043,
      "name": "Siwot",
      "nativeName": "Siwot",
      "code": "KE-02-180043",
      "countryId": 192950,
      "countryCode": "KE",
      "stateCode": "KE-02",
      "latitude": -0.87149,
      "longitude": 35.3658
    },
    {
      "id": 179967,
      "name": "Solyot",
      "nativeName": "Solyot",
      "code": "KE-02-179967",
      "countryId": 192950,
      "countryCode": "KE",
      "stateCode": "KE-02",
      "latitude": -0.7965,
      "longitude": 35.24681
    },
    {
      "id": 179888,
      "name": "Sotik",
      "nativeName": "Sotik",
      "code": "KE-02-179888",
      "countryId": 192950,
      "countryCode": "KE",
      "stateCode": "KE-02",
      "latitude": -0.69069,
      "longitude": 35.11102
    },
    {
      "id": 179887,
      "name": "Sotik",
      "nativeName": "Sotik",
      "code": "KE-02-179887",
      "countryId": 192950,
      "countryCode": "KE",
      "stateCode": "KE-02",
      "latitude": -0.57795,
      "longitude": 35.36583
    },
    {
      "id": 179505,
      "name": "Tegat",
      "nativeName": "Tegat",
      "code": "KE-02-179505",
      "countryId": 192950,
      "countryCode": "KE",
      "stateCode": "KE-02",
      "latitude": -0.78327,
      "longitude": 35.46419
    },
    {
      "id": 179469,
      "name": "Tenwek",
      "nativeName": "Tenwek",
      "code": "KE-02-179469",
      "countryId": 192950,
      "countryCode": "KE",
      "stateCode": "KE-02",
      "latitude": -0.74543,
      "longitude": 35.36173
    },
    {
      "id": 178954,
      "name": "Tumoi",
      "nativeName": "Tumoi",
      "code": "KE-02-178954",
      "countryId": 192950,
      "countryCode": "KE",
      "stateCode": "KE-02",
      "latitude": -0.88014,
      "longitude": 35.2756
    },
    {
      "id": 178053,
      "name": "Yaganek",
      "nativeName": "Yaganek",
      "code": "KE-02-178053",
      "countryId": 192950,
      "countryCode": "KE",
      "stateCode": "KE-02",
      "latitude": -0.70966,
      "longitude": 35.15228
    }
  ]
}