{
  "stateId": 200066,
  "stateCode": "KE-03",
  "countryCode": "KE",
  "cities": [
    {
      "id": 200067,
      "name": "Bungoma",
      "nativeName": "Bungoma",
      "code": "KE-03-200067",
      "countryId": 192950,
      "countryCode": "KE",
      "stateCode": "KE-03",
      "latitude": 0.5635,
      "longitude": 34.56055
    },
    {
      "id": 11871494,
      "name": "Bisunu",
      "nativeName": "Bisunu",
      "code": "KE-03-11871494",
      "countryId": 192950,
      "countryCode": "KE",
      "stateCode": "KE-03",
      "latitude": 0.70698,
      "longitude": 34.50474
    },
    {
      "id": 200334,
      "name": "Bokoli",
      "nativeName": "Bokoli",
      "code": "KE-03-200334",
      "countryId": 192950,
      "countryCode": "KE",
      "stateCode": "KE-03",
      "latitude": 0.7101,
      "longitude": 34.6626
    },
    {
      "id": 200174,
      "name": "Bukembe",
      "nativeName": "Bukembe",
      "code": "KE-03-200174",
      "countryId": 192950,
      "countryCode": "KE",
      "stateCode": "KE-03",
      "latitude": 0.61201,
      "longitude": 34.65608
    },
    {
      "id": 200160,
      "name": "Bukokholo",
      "nativeName": "Bukokholo",
      "code": "KE-03-200160",
      "countryId": 192950,
      "countryCode": "KE",
      "stateCode": "KE-03",
      "latitude": 0.68828,
      "longitude": 34.47421
    },
    {
      "id": 200101,
      "name": "Bulondo",
      "nativeName": "Bulondo",
      "code": "KE-03-200101",
      "countryId": 192950,
      "countryCode": "KE",
      "stateCode": "KE-03",
      "latitude": 0.46537,
      "longitude": 34.57594
    },
    {
      "id": 199999,
      "name": "Busakala",
      "nativeName": "Busakala",
      "code": "KE-03-199999",
      "countryId": 192950,
      "countryCode": "KE",
      "stateCode": "KE-03",
      "latitude": 0.7381,
      "longitude": 34.57117
    },
    {
      "id": 199732,
      "name": "Chebosi",
      "nativeName": "Chebosi",
      "code": "KE-03-199732",
      "countryId": 192950,
      "countryCode": "KE",
      "stateCode": "KE-03",
      "latitude": 0.64723,
      "longitude": 34.69002
    },
    {
      "id": 199726,
      "name": "Chebukaka",
      "nativeName": "Chebukaka",
      "code": "KE-03-199726",
      "countryId": 192950,
      "countryCode": "KE",
      "stateCode": "KE-03",
      "latitude": 0.75008,
      "longitude": 34.61244
    },
    {
      "id": 199725,
      "name": "Chebukwa",
      "nativeName": "Chebukwa",
      "code": "KE-03-199725",
      "countryId": 192950,
      "countryCode": "KE",
      "stateCode": "KE-03",
      "latitude": 0.62635,
      "longitude": 34.57924
    },
    {
      "id": 199697,
      "name": "Chekulo",
      "nativeName": "Chekulo",
      "code": "KE-03-199697",
      "countryId": 192950,
      "countryCode": "KE",
      "stateCode": "KE-03",
      "latitude": 0.6466,
      "longitude": 34.65869
    },
    {
      "id": 199694,
      "name": "Chelebei",
      "nativeName": "Chelebei",
      "code": "KE-03-199694",
      "countryId": 192950,
      "countryCode": "KE",
      "stateCode": "KE-03",
      "latitude": 0.82007,
      "longitude": 34.56849
    },
    {
      "id": 199542,
      "name": "Chemukwabi",
      "nativeName": "Chemukwabi",
      "code": "KE-03-199542",
      "countryId": 192950,
      "countryCode": "KE",
      "stateCode": "KE-03",
      "latitude": 0.79583,
      "longitude": 34.66673
    },
    {
      "id": 11871490,
      "name": "Chenjeni",
      "nativeName": "Chenjeni",
      "code": "KE-03-11871490",
      "countryId": 192950,
      "countryCode": "KE",
      "stateCode": "KE-03",
      "latitude": 0.73507,
      "longitude": 34.61101
    },
    {
      "id": 199555,
      "name": "Chepkube",
      "nativeName": "Chepkube",
      "code": "KE-03-199555",
      "countryId": 192950,
      "countryCode": "KE",
      "stateCode": "KE-03",
      "latitude": 0.81776,
      "longitude": 34.44196
    },
    {
      "id": 199515,
      "name": "Cheptai",
      "nativeName": "Cheptai",
      "code": "KE-03-199515",
      "countryId": 192950,
      "countryCode": "KE",
      "stateCode": "KE-03",
      "latitude": 0.79975,
      "longitude": 34.4778
    },
    {
      "id": 199446,
      "name": "Chesakaki",
      "nativeName": "Chesikaki",
      "code": "KE-03-199446",
      "countryId": 192950,
      "countryCode": "KE",
      "stateCode": "KE-03",
      "latitude": 0.8012,
      "longitude": 34.50672
    },
    {
      "id": 199445,
      "name": "Chesamisi",
      "nativeName": "Chesamisi",
      "code": "KE-03-199445",
      "countryId": 192950,
      "countryCode": "KE",
      "stateCode": "KE-03",
      "latitude": 0.8371,
      "longitude": 34.79154
    },
    {
      "id": 199376,
      "name": "Chiliba",
      "nativeName": "Chiliba",
      "code": "KE-03-199376",
      "countryId": 192950,
      "countryCode": "KE",
      "stateCode": "KE-03",
      "latitude": 0.53037,
      "longitude": 34.43042
    },
    {
      "id": 11871476,
      "name": "Chomoge",
      "nativeName": "Chomoge",
      "code": "KE-03-11871476",
      "countryId": 192950,
      "countryCode": "KE",
      "stateCode": "KE-03",
      "latitude": 0.8777,
      "longitude": 34.73235
    },
    {
      "id": 199263,
      "name": "Chwele",
      "nativeName": "Chwele",
      "code": "KE-03-199263",
      "countryId": 192950,
      "countryCode": "KE",
      "stateCode": "KE-03",
      "latitude": 0.76239,
      "longitude": 34.54852
    },
    {
      "id": 199264,
      "name": "Chwele",
      "nativeName": "Chwele",
      "code": "KE-03-199264",
      "countryId": 192950,
      "countryCode": "KE",
      "stateCode": "KE-03",
      "latitude": 0.73693,
      "longitude": 34.57932
    },
    {
      "id": 11497785,
      "name": "Kabuchai",
      "nativeName": "Kabuchai",
      "code": "KE-03-11497785",
      "countryId": 192950,
      "countryCode": "KE",
      "stateCode": "KE-03",
      "latitude": 0.65011,
      "longitude": 34.56261
    },
    {
      "id": 195690,
      "name": "Kabukara",
      "nativeName": "Kabukara",
      "code": "KE-03-195690",
      "countryId": 192950,
      "countryCode": "KE",
      "stateCode": "KE-03",
      "latitude": 0.77171,
      "longitude": 34.41102
    },
    {
      "id": 195679,
      "name": "Kabula",
      "nativeName": "Kabula",
      "code": "KE-03-195679",
      "countryId": 192950,
      "countryCode": "KE",
      "stateCode": "KE-03",
      "latitude": 0.45415,
      "longitude": 34.51915
    },
    {
      "id": 195678,
      "name": "Kabula",
      "nativeName": "Kabula",
      "code": "KE-03-195678",
      "countryId": 192950,
      "countryCode": "KE",
      "stateCode": "KE-03",
      "latitude": 0.48335,
      "longitude": 34.52847
    },
    {
      "id": 195239,
      "name": "Kakimanyi",
      "nativeName": "Kakimanyi",
      "code": "KE-03-195239",
      "countryId": 192950,
      "countryCode": "KE",
      "stateCode": "KE-03",
      "latitude": 0.55366,
      "longitude": 34.74176
    },
    {
      "id": 194875,
      "name": "Kamakoiwa",
      "nativeName": "Kamakoiwa",
      "code": "KE-03-194875",
      "countryId": 192950,
      "countryCode": "KE",
      "stateCode": "KE-03",
      "latitude": 0.77788,
      "longitude": 34.78961
    },
    {
      "id": 194839,
      "name": "Kamasielo",
      "nativeName": "Kamasielo",
      "code": "KE-03-194839",
      "countryId": 192950,
      "countryCode": "KE",
      "stateCode": "KE-03",
      "latitude": 0.81137,
      "longitude": 34.72827
    },
    {
      "id": 194605,
      "name": "Kamisinga",
      "nativeName": "Kamusinga",
      "code": "KE-03-194605",
      "countryId": 192950,
      "countryCode": "KE",
      "stateCode": "KE-03",
      "latitude": 0.7938,
      "longitude": 34.70654
    },
    {
      "id": 194603,
      "name": "Kamusukiet",
      "nativeName": "Kamusukiet",
      "code": "KE-03-194603",
      "countryId": 192950,
      "countryCode": "KE",
      "stateCode": "KE-03",
      "latitude": 1.06892,
      "longitude": 34.63471
    },
    {
      "id": 11871565,
      "name": "Kamutiong",
      "nativeName": "Kamutiong",
      "code": "KE-03-11871565",
      "countryId": 192950,
      "countryCode": "KE",
      "stateCode": "KE-03",
      "latitude": 0.80646,
      "longitude": 34.6911
    },
    {
      "id": 11871502,
      "name": "Kanduyi",
      "nativeName": "Kanduyi",
      "code": "KE-03-11871502",
      "countryId": 192950,
      "countryCode": "KE",
      "stateCode": "KE-03",
      "latitude": 0.59344,
      "longitude": 34.55263
    },
    {
      "id": 194129,
      "name": "Kapkateny",
      "nativeName": "Kapkateny",
      "code": "KE-03-194129",
      "countryId": 192950,
      "countryCode": "KE",
      "stateCode": "KE-03",
      "latitude": 0.80116,
      "longitude": 34.6243
    },
    {
      "id": 194033,
      "name": "Kapsakwony",
      "nativeName": "Kapsakwony",
      "code": "KE-03-194033",
      "countryId": 192950,
      "countryCode": "KE",
      "stateCode": "KE-03",
      "latitude": 0.84033,
      "longitude": 34.71489
    },
    {
      "id": 11871566,
      "name": "Kapsokisio",
      "nativeName": "Kapsokisio",
      "code": "KE-03-11871566",
      "countryId": 192950,
      "countryCode": "KE",
      "stateCode": "KE-03",
      "latitude": 0.85906,
      "longitude": 34.69212
    },
    {
      "id": 10400164,
      "name": "Kapsokwony",
      "nativeName": "Kapsokwony",
      "code": "KE-03-10400164",
      "countryId": 192950,
      "countryCode": "KE",
      "stateCode": "KE-03",
      "latitude": 0.85222,
      "longitude": 34.70194
    },
    {
      "id": 193971,
      "name": "Kaptalelia",
      "nativeName": "Kaptalelia",
      "code": "KE-03-193971",
      "countryId": 192950,
      "countryCode": "KE",
      "stateCode": "KE-03",
      "latitude": 0.88233,
      "longitude": 34.75299
    },
    {
      "id": 193970,
      "name": "Kaptama",
      "nativeName": "Kaptama",
      "code": "KE-03-193970",
      "countryId": 192950,
      "countryCode": "KE",
      "stateCode": "KE-03",
      "latitude": 0.88683,
      "longitude": 34.76857
    },
    {
      "id": 193967,
      "name": "Kaptanai",
      "nativeName": "Kaptanai",
      "code": "KE-03-193967",
      "countryId": 192950,
      "countryCode": "KE",
      "stateCode": "KE-03",
      "latitude": 0.7862,
      "longitude": 34.53776
    },
    {
      "id": 193156,
      "name": "Kavujai",
      "nativeName": "Kavujai",
      "code": "KE-03-193156",
      "countryId": 192950,
      "countryCode": "KE",
      "stateCode": "KE-03",
      "latitude": 0.64847,
      "longitude": 34.56162
    },
    {
      "id": 192820,
      "name": "Khachonge",
      "nativeName": "Khachonge",
      "code": "KE-03-192820",
      "countryId": 192950,
      "countryCode": "KE",
      "stateCode": "KE-03",
      "latitude": 0.68413,
      "longitude": 34.62773
    },
    {
      "id": 11871512,
      "name": "Khalala",
      "nativeName": "Khalala",
      "code": "KE-03-11871512",
      "countryId": 192950,
      "countryCode": "KE",
      "stateCode": "KE-03",
      "latitude": 0.46175,
      "longitude": 34.64284
    },
    {
      "id": 192813,
      "name": "Khalumuli",
      "nativeName": "Khalumuli",
      "code": "KE-03-192813",
      "countryId": 192950,
      "countryCode": "KE",
      "stateCode": "KE-03",
      "latitude": 0.57896,
      "longitude": 34.71347
    },
    {
      "id": 192808,
      "name": "Khasoko",
      "nativeName": "Khasoko",
      "code": "KE-03-192808",
      "countryId": 192950,
      "countryCode": "KE",
      "stateCode": "KE-03",
      "latitude": 0.48161,
      "longitude": 34.41927
    },
    {
      "id": 11871507,
      "name": "Khaweli",
      "nativeName": "Khaweli",
      "code": "KE-03-11871507",
      "countryId": 192950,
      "countryCode": "KE",
      "stateCode": "KE-03",
      "latitude": 0.5147,
      "longitude": 34.63717
    },
    {
      "id": 192533,
      "name": "Kibabii",
      "nativeName": "Kibabii",
      "code": "KE-03-192533",
      "countryId": 192950,
      "countryCode": "KE",
      "stateCode": "KE-03",
      "latitude": 0.61842,
      "longitude": 34.52779
    },
    {
      "id": 11871305,
      "name": "Kibichori",
      "nativeName": "Kibichori",
      "code": "KE-03-11871305",
      "countryId": 192950,
      "countryCode": "KE",
      "stateCode": "KE-03",
      "latitude": 0.77973,
      "longitude": 34.58585
    },
    {
      "id": 11871306,
      "name": "Kibichori",
      "nativeName": "Kibichori",
      "code": "KE-03-11871306",
      "countryId": 192950,
      "countryCode": "KE",
      "stateCode": "KE-03",
      "latitude": 0.75852,
      "longitude": 34.57081
    },
    {
      "id": 192472,
      "name": "Kibingai",
      "nativeName": "Kibingai",
      "code": "KE-03-192472",
      "countryId": 192950,
      "countryCode": "KE",
      "stateCode": "KE-03",
      "latitude": 0.772,
      "longitude": 34.69361
    },
    {
      "id": 192473,
      "name": "Kibingei",
      "nativeName": "Kibingei",
      "code": "KE-03-192473",
      "countryId": 192950,
      "countryCode": "KE",
      "stateCode": "KE-03",
      "latitude": 0.73289,
      "longitude": 34.67281
    },
    {
      "id": 11871497,
      "name": "Kibochi",
      "nativeName": "Kibochi",
      "code": "KE-03-11871497",
      "countryId": 192950,
      "countryCode": "KE",
      "stateCode": "KE-03",
      "latitude": 0.62749,
      "longitude": 34.64093
    },
    {
      "id": 192403,
      "name": "Kiboywa",
      "nativeName": "Kiboywa",
      "code": "KE-03-192403",
      "countryId": 192950,
      "countryCode": "KE",
      "stateCode": "KE-03",
      "latitude": 0.92341,
      "longitude": 34.74951
    },
    {
      "id": 192395,
      "name": "Kibuk",
      "nativeName": "Kibuk",
      "code": "KE-03-192395",
      "countryId": 192950,
      "countryCode": "KE",
      "stateCode": "KE-03",
      "latitude": 0.84341,
      "longitude": 34.69755
    },
    {
      "id": 192306,
      "name": "Kigai",
      "nativeName": "Kigai",
      "code": "KE-03-192306",
      "countryId": 192950,
      "countryCode": "KE",
      "stateCode": "KE-03",
      "latitude": 0.78577,
      "longitude": 34.56712
    },
    {
      "id": 191978,
      "name": "Kimaeti",
      "nativeName": "Kimaeti",
      "code": "KE-03-191978",
      "countryId": 192950,
      "countryCode": "KE",
      "stateCode": "KE-03",
      "latitude": 0.60388,
      "longitude": 34.40805
    },
    {
      "id": 191964,
      "name": "Kimalewa",
      "nativeName": "Kimalewa",
      "code": "KE-03-191964",
      "countryId": 192950,
      "countryCode": "KE",
      "stateCode": "KE-03",
      "latitude": 0.78776,
      "longitude": 34.63902
    },
    {
      "id": 191936,
      "name": "Kimatuni",
      "nativeName": "Kimatuni",
      "code": "KE-03-191936",
      "countryId": 192950,
      "countryCode": "KE",
      "stateCode": "KE-03",
      "latitude": 0.50877,
      "longitude": 34.45032
    },
    {
      "id": 191919,
      "name": "Kimilili",
      "nativeName": "Kimilili",
      "code": "KE-03-191919",
      "countryId": 192950,
      "countryCode": "KE",
      "stateCode": "KE-03",
      "latitude": 0.78775,
      "longitude": 34.71562
    },
    {
      "id": 191909,
      "name": "Kiminini",
      "nativeName": "Kiminini",
      "code": "KE-03-191909",
      "countryId": 192950,
      "countryCode": "KE",
      "stateCode": "KE-03",
      "latitude": 0.85813,
      "longitude": 34.97499
    },
    {
      "id": 191900,
      "name": "Kimobo",
      "nativeName": "Kimobo",
      "code": "KE-03-191900",
      "countryId": 192950,
      "countryCode": "KE",
      "stateCode": "KE-03",
      "latitude": 0.839,
      "longitude": 34.68615
    },
    {
      "id": 191876,
      "name": "Kimugui",
      "nativeName": "Kimugui",
      "code": "KE-03-191876",
      "countryId": 192950,
      "countryCode": "KE",
      "stateCode": "KE-03",
      "latitude": 0.49205,
      "longitude": 34.63231
    },
    {
      "id": 191872,
      "name": "Kimukungi",
      "nativeName": "Kimukungi",
      "code": "KE-03-191872",
      "countryId": 192950,
      "countryCode": "KE",
      "stateCode": "KE-03",
      "latitude": 0.67714,
      "longitude": 34.54719
    },
    {
      "id": 191221,
      "name": "Kitale",
      "nativeName": "Kitale",
      "code": "KE-03-191221",
      "countryId": 192950,
      "countryCode": "KE",
      "stateCode": "KE-03",
      "latitude": 0.55529,
      "longitude": 34.61261
    },
    {
      "id": 11871505,
      "name": "Kitinda",
      "nativeName": "Kitinda",
      "code": "KE-03-11871505",
      "countryId": 192950,
      "countryCode": "KE",
      "stateCode": "KE-03",
      "latitude": 0.53892,
      "longitude": 34.56816
    },
    {
      "id": 190999,
      "name": "Kituni",
      "nativeName": "Kituni",
      "code": "KE-03-190999",
      "countryId": 192950,
      "countryCode": "KE",
      "stateCode": "KE-03",
      "latitude": 0.66362,
      "longitude": 34.72842
    },
    {
      "id": 11871569,
      "name": "Kongit",
      "nativeName": "Kongit",
      "code": "KE-03-11871569",
      "countryId": 192950,
      "countryCode": "KE",
      "stateCode": "KE-03",
      "latitude": 0.89097,
      "longitude": 34.72939
    },
    {
      "id": 190572,
      "name": "Kongoli",
      "nativeName": "Kongoli",
      "code": "KE-03-190572",
      "countryId": 192950,
      "countryCode": "KE",
      "stateCode": "KE-03",
      "latitude": 0.5507,
      "longitude": 34.65381
    },
    {
      "id": 190170,
      "name": "Kuyua",
      "nativeName": "Kuyua",
      "code": "KE-03-190170",
      "countryId": 192950,
      "countryCode": "KE",
      "stateCode": "KE-03",
      "latitude": 0.78044,
      "longitude": 34.64061
    },
    {
      "id": 190171,
      "name": "Kuywa",
      "nativeName": "Kuywa",
      "code": "KE-03-190171",
      "countryId": 192950,
      "countryCode": "KE",
      "stateCode": "KE-03",
      "latitude": 0.50523,
      "longitude": 34.68512
    },
    {
      "id": 190172,
      "name": "Kuywa",
      "nativeName": "Kuywa",
      "code": "KE-03-190172",
      "countryId": 192950,
      "countryCode": "KE",
      "stateCode": "KE-03",
      "latitude": 0.74992,
      "longitude": 34.6421
    },
    {
      "id": 189815,
      "name": "Laboot",
      "nativeName": "Laboot",
      "code": "KE-03-189815",
      "countryId": 192950,
      "countryCode": "KE",
      "stateCode": "KE-03",
      "latitude": 1.00185,
      "longitude": 34.62444
    },
    {
      "id": 188669,
      "name": "Lugari",
      "nativeName": "Lugari",
      "code": "KE-03-188669",
      "countryId": 192950,
      "countryCode": "KE",
      "stateCode": "KE-03",
      "latitude": 0.68708,
      "longitude": 34.90672
    },
    {
      "id": 188658,
      "name": "Lugulu",
      "nativeName": "Lugulu",
      "code": "KE-03-188658",
      "countryId": 192950,
      "countryCode": "KE",
      "stateCode": "KE-03",
      "latitude": 0.66126,
      "longitude": 34.75434
    },
    {
      "id": 188654,
      "name": "Lugusi",
      "nativeName": "Lugusi",
      "code": "KE-03-188654",
      "countryId": 192950,
      "countryCode": "KE",
      "stateCode": "KE-03",
      "latitude": 0.64829,
      "longitude": 34.80662
    },
    {
      "id": 188635,
      "name": "Lukhome",
      "nativeName": "Lukhome",
      "code": "KE-03-188635",
      "countryId": 192950,
      "countryCode": "KE",
      "stateCode": "KE-03",
      "latitude": 0.77504,
      "longitude": 34.60334
    },
    {
      "id": 188624,
      "name": "Lukusi",
      "nativeName": "Lukusi",
      "code": "KE-03-188624",
      "countryId": 192950,
      "countryCode": "KE",
      "stateCode": "KE-03",
      "latitude": 0.65593,
      "longitude": 34.81486
    },
    {
      "id": 188572,
      "name": "Lutacho",
      "nativeName": "Lutacho",
      "code": "KE-03-188572",
      "countryId": 192950,
      "countryCode": "KE",
      "stateCode": "KE-03",
      "latitude": 0.67283,
      "longitude": 34.81573
    },
    {
      "id": 188563,
      "name": "Lutungu",
      "nativeName": "Lutungu",
      "code": "KE-03-188563",
      "countryId": 192950,
      "countryCode": "KE",
      "stateCode": "KE-03",
      "latitude": 0.53824,
      "longitude": 34.63217
    },
    {
      "id": 188554,
      "name": "Luuyia",
      "nativeName": "Luuyia",
      "code": "KE-03-188554",
      "countryId": 192950,
      "countryCode": "KE",
      "stateCode": "KE-03",
      "latitude": 0.65211,
      "longitude": 34.63869
    },
    {
      "id": 188540,
      "name": "Lwanda",
      "nativeName": "Lwanda",
      "code": "KE-03-188540",
      "countryId": 192950,
      "countryCode": "KE",
      "stateCode": "KE-03",
      "latitude": 0.54419,
      "longitude": 34.60295
    },
    {
      "id": 11871563,
      "name": "Lwanda",
      "nativeName": "Lwanda",
      "code": "KE-03-11871563",
      "countryId": 192950,
      "countryCode": "KE",
      "stateCode": "KE-03",
      "latitude": 0.74953,
      "longitude": 34.70544
    },
    {
      "id": 188518,
      "name": "Mabanga",
      "nativeName": "Mabanga",
      "code": "KE-03-188518",
      "countryId": 192950,
      "countryCode": "KE",
      "stateCode": "KE-03",
      "latitude": 0.6235,
      "longitude": 34.61451
    },
    {
      "id": 188495,
      "name": "Machakha",
      "nativeName": "Machakha",
      "code": "KE-03-188495",
      "countryId": 192950,
      "countryCode": "KE",
      "stateCode": "KE-03",
      "latitude": 0.75553,
      "longitude": 34.441
    },
    {
      "id": 11871564,
      "name": "Maeni",
      "nativeName": "Maeni",
      "code": "KE-03-11871564",
      "countryId": 192950,
      "countryCode": "KE",
      "stateCode": "KE-03",
      "latitude": 0.79446,
      "longitude": 34.74109
    },
    {
      "id": 188383,
      "name": "Magemo",
      "nativeName": "Magemo",
      "code": "KE-03-188383",
      "countryId": 192950,
      "countryCode": "KE",
      "stateCode": "KE-03",
      "latitude": 0.6885,
      "longitude": 34.77312
    },
    {
      "id": 188312,
      "name": "Mahanga",
      "nativeName": "Mahanga",
      "code": "KE-03-188312",
      "countryId": 192950,
      "countryCode": "KE",
      "stateCode": "KE-03",
      "latitude": 0.68462,
      "longitude": 34.6546
    },
    {
      "id": 11871562,
      "name": "Majaha",
      "nativeName": "Majaha",
      "code": "KE-03-11871562",
      "countryId": 192950,
      "countryCode": "KE",
      "stateCode": "KE-03",
      "latitude": 0.67963,
      "longitude": 34.70143
    },
    {
      "id": 188158,
      "name": "Makatelo",
      "nativeName": "Makatelo",
      "code": "KE-03-188158",
      "countryId": 192950,
      "countryCode": "KE",
      "stateCode": "KE-03",
      "latitude": 0.59999,
      "longitude": 34.62153
    },
    {
      "id": 188141,
      "name": "Makhonge",
      "nativeName": "Makhonge",
      "code": "KE-03-188141",
      "countryId": 192950,
      "countryCode": "KE",
      "stateCode": "KE-03",
      "latitude": 0.76259,
      "longitude": 34.57714
    },
    {
      "id": 188020,
      "name": "Malaha",
      "nativeName": "Malaha",
      "code": "KE-03-188020",
      "countryId": 192950,
      "countryCode": "KE",
      "stateCode": "KE-03",
      "latitude": 0.63416,
      "longitude": 34.74146
    },
    {
      "id": 187977,
      "name": "Malikisi",
      "nativeName": "Malikisi",
      "code": "KE-03-187977",
      "countryId": 192950,
      "countryCode": "KE",
      "stateCode": "KE-03",
      "latitude": 0.67694,
      "longitude": 34.42167
    },
    {
      "id": 187976,
      "name": "Malikisi",
      "nativeName": "Malikisi",
      "code": "KE-03-187976",
      "countryId": 192950,
      "countryCode": "KE",
      "stateCode": "KE-03",
      "latitude": 0.67643,
      "longitude": 34.42278
    },
    {
      "id": 187949,
      "name": "Malomonye",
      "nativeName": "Malomonye",
      "code": "KE-03-187949",
      "countryId": 192950,
      "countryCode": "KE",
      "stateCode": "KE-03",
      "latitude": 0.69021,
      "longitude": 34.80168
    },
    {
      "id": 187878,
      "name": "Mangana",
      "nativeName": "Mangana",
      "code": "KE-03-187878",
      "countryId": 192950,
      "countryCode": "KE",
      "stateCode": "KE-03",
      "latitude": 0.52054,
      "longitude": 34.69006
    },
    {
      "id": 187599,
      "name": "Marobo",
      "nativeName": "Marobo",
      "code": "KE-03-187599",
      "countryId": 192950,
      "countryCode": "KE",
      "stateCode": "KE-03",
      "latitude": 0.64162,
      "longitude": 34.61598
    },
    {
      "id": 11871485,
      "name": "Masaba",
      "nativeName": "Masaba",
      "code": "KE-03-11871485",
      "countryId": 192950,
      "countryCode": "KE",
      "stateCode": "KE-03",
      "latitude": 0.80539,
      "longitude": 34.53048
    },
    {
      "id": 187475,
      "name": "Masindu",
      "nativeName": "Masindu",
      "code": "KE-03-187475",
      "countryId": 192950,
      "countryCode": "KE",
      "stateCode": "KE-03",
      "latitude": 0.62896,
      "longitude": 34.81769
    },
    {
      "id": 187401,
      "name": "Mateka",
      "nativeName": "Mateka",
      "code": "KE-03-187401",
      "countryId": 192950,
      "countryCode": "KE",
      "stateCode": "KE-03",
      "latitude": 0.53517,
      "longitude": 34.50173
    },
    {
      "id": 187318,
      "name": "Matili",
      "nativeName": "Matili",
      "code": "KE-03-187318",
      "countryId": 192950,
      "countryCode": "KE",
      "stateCode": "KE-03",
      "latitude": 0.74794,
      "longitude": 34.74011
    },
    {
      "id": 187305,
      "name": "Matisi",
      "nativeName": "Matisi",
      "code": "KE-03-187305",
      "countryId": 192950,
      "countryCode": "KE",
      "stateCode": "KE-03",
      "latitude": 0.6227,
      "longitude": 34.69309
    },
    {
      "id": 187264,
      "name": "Matulo",
      "nativeName": "Matulo",
      "code": "KE-03-187264",
      "countryId": 192950,
      "countryCode": "KE",
      "stateCode": "KE-03",
      "latitude": 0.60357,
      "longitude": 34.72725
    },
    {
      "id": 187162,
      "name": "Mayanja",
      "nativeName": "Mayanja",
      "code": "KE-03-187162",
      "countryId": 192950,
      "countryCode": "KE",
      "stateCode": "KE-03",
      "latitude": 0.6021,
      "longitude": 34.48633
    },
    {
      "id": 187163,
      "name": "Mayanja",
      "nativeName": "Mayanja",
      "code": "KE-03-187163",
      "countryId": 192950,
      "countryCode": "KE",
      "stateCode": "KE-03",
      "latitude": 0.64992,
      "longitude": 34.51738
    },
    {
      "id": 186908,
      "name": "Mechimeru",
      "nativeName": "Mechimeru",
      "code": "KE-03-186908",
      "countryId": 192950,
      "countryCode": "KE",
      "stateCode": "KE-03",
      "latitude": 0.50232,
      "longitude": 34.64953
    },
    {
      "id": 186744,
      "name": "Miendo",
      "nativeName": "Miendo",
      "code": "KE-03-186744",
      "countryId": 192950,
      "countryCode": "KE",
      "stateCode": "KE-03",
      "latitude": 0.66405,
      "longitude": 34.6878
    },
    {
      "id": 186714,
      "name": "Mihuu",
      "nativeName": "Mihuu",
      "code": "KE-03-186714",
      "countryId": 192950,
      "countryCode": "KE",
      "stateCode": "KE-03",
      "latitude": 0.62705,
      "longitude": 34.79142
    },
    {
      "id": 186673,
      "name": "Milani",
      "nativeName": "Milani",
      "code": "KE-03-186673",
      "countryId": 192950,
      "countryCode": "KE",
      "stateCode": "KE-03",
      "latitude": 0.72494,
      "longitude": 34.64531
    },
    {
      "id": 186663,
      "name": "Milo",
      "nativeName": "Milo",
      "code": "KE-03-186663",
      "countryId": 192950,
      "countryCode": "KE",
      "stateCode": "KE-03",
      "latitude": 0.53304,
      "longitude": 34.72367
    },
    {
      "id": 186589,
      "name": "Misemwa",
      "nativeName": "Misemwa",
      "code": "KE-03-186589",
      "countryId": 192950,
      "countryCode": "KE",
      "stateCode": "KE-03",
      "latitude": 0.74377,
      "longitude": 34.80549
    },
    {
      "id": 186584,
      "name": "Misikhu",
      "nativeName": "Misikhu",
      "code": "KE-03-186584",
      "countryId": 192950,
      "countryCode": "KE",
      "stateCode": "KE-03",
      "latitude": 0.71665,
      "longitude": 34.75597
    },
    {
      "id": 186583,
      "name": "Misikhu",
      "nativeName": "Misikhu",
      "code": "KE-03-186583",
      "countryId": 192950,
      "countryCode": "KE",
      "stateCode": "KE-03",
      "latitude": 0.6968,
      "longitude": 34.71298
    },
    {
      "id": 186576,
      "name": "Misimo",
      "nativeName": "Misimo",
      "code": "KE-03-186576",
      "countryId": 192950,
      "countryCode": "KE",
      "stateCode": "KE-03",
      "latitude": 0.66709,
      "longitude": 34.83226
    },
    {
      "id": 186044,
      "name": "Muchi",
      "nativeName": "Muchi",
      "code": "KE-03-186044",
      "countryId": 192950,
      "countryCode": "KE",
      "stateCode": "KE-03",
      "latitude": 0.58497,
      "longitude": 34.7468
    },
    {
      "id": 185950,
      "name": "Muhanda",
      "nativeName": "Muhanda",
      "code": "KE-03-185950",
      "countryId": 192950,
      "countryCode": "KE",
      "stateCode": "KE-03",
      "latitude": 0.784,
      "longitude": 34.47666
    },
    {
      "id": 11871492,
      "name": "Muhanda",
      "nativeName": "Muhanda",
      "code": "KE-03-11871492",
      "countryId": 192950,
      "countryCode": "KE",
      "stateCode": "KE-03",
      "latitude": 0.73679,
      "longitude": 34.53642
    },
    {
      "id": 11871510,
      "name": "Mukhuma",
      "nativeName": "Mukhuma",
      "code": "KE-03-11871510",
      "countryId": 192950,
      "countryCode": "KE",
      "stateCode": "KE-03",
      "latitude": 0.46303,
      "longitude": 34.52059
    },
    {
      "id": 185875,
      "name": "Mukhweya",
      "nativeName": "Mukhweya",
      "code": "KE-03-185875",
      "countryId": 192950,
      "countryCode": "KE",
      "stateCode": "KE-03",
      "latitude": 0.65979,
      "longitude": 34.57099
    },
    {
      "id": 11871304,
      "name": "Mukuyuni",
      "nativeName": "Mukuyuni",
      "code": "KE-03-11871304",
      "countryId": 192950,
      "countryCode": "KE",
      "stateCode": "KE-03",
      "latitude": 0.75869,
      "longitude": 34.60858
    },
    {
      "id": 185769,
      "name": "Mulatiwa",
      "nativeName": "Mulatiwa",
      "code": "KE-03-185769",
      "countryId": 192950,
      "countryCode": "KE",
      "stateCode": "KE-03",
      "latitude": 0.80727,
      "longitude": 34.50415
    },
    {
      "id": 185462,
      "name": "Musikoma",
      "nativeName": "Musikoma",
      "code": "KE-03-185462",
      "countryId": 192950,
      "countryCode": "KE",
      "stateCode": "KE-03",
      "latitude": 0.53423,
      "longitude": 34.54937
    },
    {
      "id": 184972,
      "name": "Mwembula",
      "nativeName": "Mwembula",
      "code": "KE-03-184972",
      "countryId": 192950,
      "countryCode": "KE",
      "stateCode": "KE-03",
      "latitude": 0.48159,
      "longitude": 34.67201
    },
    {
      "id": 184942,
      "name": "Mwibale",
      "nativeName": "Mwibale",
      "code": "KE-03-184942",
      "countryId": 192950,
      "countryCode": "KE",
      "stateCode": "KE-03",
      "latitude": 0.4894,
      "longitude": 34.61099
    },
    {
      "id": 184884,
      "name": "Myanga",
      "nativeName": "Myanga",
      "code": "KE-03-184884",
      "countryId": 192950,
      "countryCode": "KE",
      "stateCode": "KE-03",
      "latitude": 0.56526,
      "longitude": 34.39021
    },
    {
      "id": 11871487,
      "name": "Nakoyonjo Lukhome",
      "nativeName": "Nakoyonjo Lukhome",
      "code": "KE-03-11871487",
      "countryId": 192950,
      "countryCode": "KE",
      "stateCode": "KE-03",
      "latitude": 0.78268,
      "longitude": 34.60166
    },
    {
      "id": 184593,
      "name": "Nalianda",
      "nativeName": "Nalianda",
      "code": "KE-03-184593",
      "countryId": 192950,
      "countryCode": "KE",
      "stateCode": "KE-03",
      "latitude": 0.49259,
      "longitude": 34.46336
    },
    {
      "id": 184587,
      "name": "Nalondo",
      "nativeName": "Nalondo",
      "code": "KE-03-184587",
      "countryId": 192950,
      "countryCode": "KE",
      "stateCode": "KE-03",
      "latitude": 0.6567,
      "longitude": 34.59125
    },
    {
      "id": 184569,
      "name": "Namangofulo",
      "nativeName": "Namangofulo",
      "code": "KE-03-184569",
      "countryId": 192950,
      "countryCode": "KE",
      "stateCode": "KE-03",
      "latitude": 0.7598,
      "longitude": 34.48131
    },
    {
      "id": 184565,
      "name": "Namarambi",
      "nativeName": "Namarambi",
      "code": "KE-03-184565",
      "countryId": 192950,
      "countryCode": "KE",
      "stateCode": "KE-03",
      "latitude": 0.72726,
      "longitude": 34.76725
    },
    {
      "id": 11871488,
      "name": "Namawanga",
      "nativeName": "Namawanga",
      "code": "KE-03-11871488",
      "countryId": 192950,
      "countryCode": "KE",
      "stateCode": "KE-03",
      "latitude": 0.75936,
      "longitude": 34.67008
    },
    {
      "id": 184541,
      "name": "Nambami",
      "nativeName": "Nambami",
      "code": "KE-03-184541",
      "countryId": 192950,
      "countryCode": "KE",
      "stateCode": "KE-03",
      "latitude": 0.69487,
      "longitude": 34.73704
    },
    {
      "id": 184523,
      "name": "Namilama",
      "nativeName": "Namilama",
      "code": "KE-03-184523",
      "countryId": 192950,
      "countryCode": "KE",
      "stateCode": "KE-03",
      "latitude": 0.67815,
      "longitude": 34.5765
    },
    {
      "id": 184510,
      "name": "Namorio",
      "nativeName": "Namorio",
      "code": "KE-03-184510",
      "countryId": 192950,
      "countryCode": "KE",
      "stateCode": "KE-03",
      "latitude": 0.83175,
      "longitude": 34.67705
    },
    {
      "id": 184489,
      "name": "Namwacha",
      "nativeName": "Namwacha",
      "code": "KE-03-184489",
      "countryId": 192950,
      "countryCode": "KE",
      "stateCode": "KE-03",
      "latitude": 0.47118,
      "longitude": 34.56279
    },
    {
      "id": 184488,
      "name": "Namwela",
      "nativeName": "Namwela",
      "code": "KE-03-184488",
      "countryId": 192950,
      "countryCode": "KE",
      "stateCode": "KE-03",
      "latitude": 0.77736,
      "longitude": 34.5387
    },
    {
      "id": 184456,
      "name": "Nangeni",
      "nativeName": "Nangeni",
      "code": "KE-03-184456",
      "countryId": 192950,
      "countryCode": "KE",
      "stateCode": "KE-03",
      "latitude": 0.59219,
      "longitude": 34.46544
    },
    {
      "id": 184414,
      "name": "Napara",
      "nativeName": "Napara",
      "code": "KE-03-184414",
      "countryId": 192950,
      "countryCode": "KE",
      "stateCode": "KE-03",
      "latitude": 0.63098,
      "longitude": 34.42221
    },
    {
      "id": 184299,
      "name": "Natiri Corner",
      "nativeName": "Natiri Corner",
      "code": "KE-03-184299",
      "countryId": 192950,
      "countryCode": "KE",
      "stateCode": "KE-03",
      "latitude": 0.75732,
      "longitude": 34.88911
    },
    {
      "id": 184246,
      "name": "Ndakaru",
      "nativeName": "Ndakaru",
      "code": "KE-03-184246",
      "countryId": 192950,
      "countryCode": "KE",
      "stateCode": "KE-03",
      "latitude": 0.72617,
      "longitude": 34.46105
    },
    {
      "id": 184168,
      "name": "Ndengelwa",
      "nativeName": "Ndengelwa",
      "code": "KE-03-184168",
      "countryId": 192950,
      "countryCode": "KE",
      "stateCode": "KE-03",
      "latitude": 0.59044,
      "longitude": 34.60049
    },
    {
      "id": 184077,
      "name": "Ndivisi",
      "nativeName": "Ndivisi",
      "code": "KE-03-184077",
      "countryId": 192950,
      "countryCode": "KE",
      "stateCode": "KE-03",
      "latitude": 0.71221,
      "longitude": 34.81354
    },
    {
      "id": 183894,
      "name": "Netima",
      "nativeName": "Netima",
      "code": "KE-03-183894",
      "countryId": 192950,
      "countryCode": "KE",
      "stateCode": "KE-03",
      "latitude": 0.65114,
      "longitude": 34.47904
    },
    {
      "id": 11871561,
      "name": "Ngwelo",
      "nativeName": "Ngwelo",
      "code": "KE-03-11871561",
      "countryId": 192950,
      "countryCode": "KE",
      "stateCode": "KE-03",
      "latitude": 0.58836,
      "longitude": 34.72046
    },
    {
      "id": 182601,
      "name": "Nzoia",
      "nativeName": "Nzoia",
      "code": "KE-03-182601",
      "countryId": 192950,
      "countryCode": "KE",
      "stateCode": "KE-03",
      "latitude": 0.45287,
      "longitude": 34.61345
    },
    {
      "id": 181917,
      "name": "Omura",
      "nativeName": "Omura",
      "code": "KE-03-181917",
      "countryId": 192950,
      "countryCode": "KE",
      "stateCode": "KE-03",
      "latitude": 0.55397,
      "longitude": 34.44738
    },
    {
      "id": 11871503,
      "name": "Raje",
      "nativeName": "Raje",
      "code": "KE-03-11871503",
      "countryId": 192950,
      "countryCode": "KE",
      "stateCode": "KE-03",
      "latitude": 0.54649,
      "longitude": 34.56693
    },
    {
      "id": 181231,
      "name": "Richmond‘s Corner",
      "nativeName": "Richmond‘s Corner",
      "code": "KE-03-181231",
      "countryId": 192950,
      "countryCode": "KE",
      "stateCode": "KE-03",
      "latitude": 0.84154,
      "longitude": 34.99259
    },
    {
      "id": 180734,
      "name": "Sangalo",
      "nativeName": "Sangalo",
      "code": "KE-03-180734",
      "countryId": 192950,
      "countryCode": "KE",
      "stateCode": "KE-03",
      "latitude": 0.51903,
      "longitude": 34.59372
    },
    {
      "id": 11467909,
      "name": "Sasuri",
      "nativeName": "Sasuri",
      "code": "KE-03-11467909",
      "countryId": 192950,
      "countryCode": "KE",
      "stateCode": "KE-03",
      "latitude": 0.82044,
      "longitude": 34.48748
    },
    {
      "id": 180318,
      "name": "Sibembe",
      "nativeName": "Sibembe",
      "code": "KE-03-180318",
      "countryId": 192950,
      "countryCode": "KE",
      "stateCode": "KE-03",
      "latitude": 0.50834,
      "longitude": 34.54757
    },
    {
      "id": 180305,
      "name": "Sichei",
      "nativeName": "Sichei",
      "code": "KE-03-180305",
      "countryId": 192950,
      "countryCode": "KE",
      "stateCode": "KE-03",
      "latitude": 0.71563,
      "longitude": 34.60604
    },
    {
      "id": 180057,
      "name": "Sidikho",
      "nativeName": "Sidikho",
      "code": "KE-03-180057",
      "countryId": 192950,
      "countryCode": "KE",
      "stateCode": "KE-03",
      "latitude": 0.47803,
      "longitude": 34.66483
    },
    {
      "id": 180230,
      "name": "Sikusi",
      "nativeName": "Sikusi",
      "code": "KE-03-180230",
      "countryId": 192950,
      "countryCode": "KE",
      "stateCode": "KE-03",
      "latitude": 0.69854,
      "longitude": 34.56148
    },
    {
      "id": 180123,
      "name": "Sipala",
      "nativeName": "Sipala",
      "code": "KE-03-180123",
      "countryId": 192950,
      "countryCode": "KE",
      "stateCode": "KE-03",
      "latitude": 0.64269,
      "longitude": 34.76543
    },
    {
      "id": 180114,
      "name": "Sirende",
      "nativeName": "Sirende",
      "code": "KE-03-180114",
      "countryId": 192950,
      "countryCode": "KE",
      "stateCode": "KE-03",
      "latitude": 0.72173,
      "longitude": 34.70053
    },
    {
      "id": 180085,
      "name": "Sirisia",
      "nativeName": "Sirisia",
      "code": "KE-03-180085",
      "countryId": 192950,
      "countryCode": "KE",
      "stateCode": "KE-03",
      "latitude": 0.75471,
      "longitude": 34.50351
    },
    {
      "id": 180086,
      "name": "Sirisia",
      "nativeName": "Sirisia",
      "code": "KE-03-180086",
      "countryId": 192950,
      "countryCode": "KE",
      "stateCode": "KE-03",
      "latitude": 0.67847,
      "longitude": 34.72221
    },
    {
      "id": 11428704,
      "name": "Sirisia",
      "nativeName": "Sirisia",
      "code": "KE-03-11428704",
      "countryId": 192950,
      "countryCode": "KE",
      "stateCode": "KE-03",
      "latitude": 0.75434,
      "longitude": 34.49428
    },
    {
      "id": 180529,
      "name": "Siritany",
      "nativeName": "Siritany",
      "code": "KE-03-180529",
      "countryId": 192950,
      "countryCode": "KE",
      "stateCode": "KE-03",
      "latitude": 0.58589,
      "longitude": 34.5359
    },
    {
      "id": 179459,
      "name": "Teremi",
      "nativeName": "Teremi",
      "code": "KE-03-179459",
      "countryId": 192950,
      "countryCode": "KE",
      "stateCode": "KE-03",
      "latitude": 0.75339,
      "longitude": 34.62965
    },
    {
      "id": 11871310,
      "name": "Teremi",
      "nativeName": "Teremi",
      "code": "KE-03-11871310",
      "countryId": 192950,
      "countryCode": "KE",
      "stateCode": "KE-03",
      "latitude": 0.80209,
      "longitude": 34.5944
    },
    {
      "id": 179113,
      "name": "Toloso",
      "nativeName": "Toloso",
      "code": "KE-03-179113",
      "countryId": 192950,
      "countryCode": "KE",
      "stateCode": "KE-03",
      "latitude": 0.81821,
      "longitude": 34.48393
    },
    {
      "id": 11871491,
      "name": "Toloso",
      "nativeName": "Toloso",
      "code": "KE-03-11871491",
      "countryId": 192950,
      "countryCode": "KE",
      "stateCode": "KE-03",
      "latitude": 0.73008,
      "longitude": 34.54285
    },
    {
      "id": 178419,
      "name": "Walanga",
      "nativeName": "Walanga",
      "code": "KE-03-178419",
      "countryId": 192950,
      "countryCode": "KE",
      "stateCode": "KE-03",
      "latitude": 0.84855,
      "longitude": 34.42892
    },
    {
      "id": 178376,
      "name": "Wamono",
      "nativeName": "Wamono",
      "code": "KE-03-178376",
      "countryId": 192950,
      "countryCode": "KE",
      "stateCode": "KE-03",
      "latitude": 0.79062,
      "longitude": 34.43408
    },
    {
      "id": 178326,
      "name": "Wangoma",
      "nativeName": "Wangoma",
      "code": "KE-03-178326",
      "countryId": 192950,
      "countryCode": "KE",
      "stateCode": "KE-03",
      "latitude": 0.76667,
      "longitude": 34.45
    },
    {
      "id": 178267,
      "name": "Wariva",
      "nativeName": "Wariva",
      "code": "KE-03-178267",
      "countryId": 192950,
      "countryCode": "KE",
      "stateCode": "KE-03",
      "latitude": 1.03333,
      "longitude": 34.56667
    },
    {
      "id": 178487,
      "name": "Watheka",
      "nativeName": "Watheka",
      "code": "KE-03-178487",
      "countryId": 192950,
      "countryCode": "KE",
      "stateCode": "KE-03",
      "latitude": 0.46626,
      "longitude": 34.6055
    },
    {
      "id": 178202,
      "name": "Webuye",
      "nativeName": "Webuye",
      "code": "KE-03-178202",
      "countryId": 192950,
      "countryCode": "KE",
      "stateCode": "KE-03",
      "latitude": 0.6004,
      "longitude": 34.77119
    },
    {
      "id": 11871559,
      "name": "Yalusi",
      "nativeName": "Yalusi",
      "code": "KE-03-11871559",
      "countryId": 192950,
      "countryCode": "KE",
      "stateCode": "KE-03",
      "latitude": 0.53877,
      "longitude": 34.70257
    },
    {
      "id": 8629608,
      "name": "Bungoma",
      "nativeName": "Bungoma",
      "code": "KE-03-8629608",
      "countryId": 192950,
      "countryCode": "KE",
      "stateCode": "KE-03",
      "latitude": 0.58333,
      "longitude": 34.58333
    }
  ]
}