{
  "stateId": 186298,
  "stateCode": "KE-28",
  "countryCode": "KE",
  "cities": [
    {
      "id": 186301,
      "name": "Mombasa",
      "nativeName": "Mombasa",
      "code": "KE-28-186301",
      "countryId": 192950,
      "countryCode": "KE",
      "stateCode": "KE-28",
      "latitude": -4.05466,
      "longitude": 39.66359
    },
    {
      "id": 200656,
      "name": "Bamburi",
      "nativeName": "Bamburi",
      "code": "KE-28-200656",
      "countryId": 192950,
      "countryCode": "KE",
      "stateCode": "KE-28",
      "latitude": -4,
      "longitude": 39.71667
    },
    {
      "id": 8126046,
      "name": "Bamburi Beach",
      "nativeName": "Bamburi Beach",
      "code": "KE-28-8126046",
      "countryId": 192950,
      "countryCode": "KE",
      "stateCode": "KE-28",
      "latitude": -3.98822,
      "longitude": 39.73678
    },
    {
      "id": 200495,
      "name": "Belewa",
      "nativeName": "Belewa",
      "code": "KE-28-200495",
      "countryId": 192950,
      "countryCode": "KE",
      "stateCode": "KE-28",
      "latitude": -3.95,
      "longitude": 39.63333
    },
    {
      "id": 199952,
      "name": "Bwagamoyo",
      "nativeName": "Bwagamoyo",
      "code": "KE-28-199952",
      "countryId": 192950,
      "countryCode": "KE",
      "stateCode": "KE-28",
      "latitude": -3.95,
      "longitude": 39.63333
    },
    {
      "id": 199850,
      "name": "Changamwe",
      "nativeName": "Changamwe",
      "code": "KE-28-199850",
      "countryId": 192950,
      "countryCode": "KE",
      "stateCode": "KE-28",
      "latitude": -4.01659,
      "longitude": 39.62893
    },
    {
      "id": 198026,
      "name": "Frere Town",
      "nativeName": "Frere Town",
      "code": "KE-28-198026",
      "countryId": 192950,
      "countryCode": "KE",
      "stateCode": "KE-28",
      "latitude": -4.02479,
      "longitude": 39.6936
    },
    {
      "id": 197099,
      "name": "Golo",
      "nativeName": "Golo",
      "code": "KE-28-197099",
      "countryId": 192950,
      "countryCode": "KE",
      "stateCode": "KE-28",
      "latitude": -3.93333,
      "longitude": 39.61667
    },
    {
      "id": 195915,
      "name": "Jomvu",
      "nativeName": "Jomvu",
      "code": "KE-28-195915",
      "countryId": 192950,
      "countryCode": "KE",
      "stateCode": "KE-28",
      "latitude": -3.98623,
      "longitude": 39.6082
    },
    {
      "id": 11427341,
      "name": "Jomvu Kuu",
      "nativeName": "Jomvu Kuu",
      "code": "KE-28-11427341",
      "countryId": 192950,
      "countryCode": "KE",
      "stateCode": "KE-28",
      "latitude": -3.97811,
      "longitude": 39.58844
    },
    {
      "id": 195896,
      "name": "Jumba la Mtwana",
      "nativeName": "Jumba la Mtwana",
      "code": "KE-28-195896",
      "countryId": 192950,
      "countryCode": "KE",
      "stateCode": "KE-28",
      "latitude": -3.95,
      "longitude": 39.76667
    },
    {
      "id": 193560,
      "name": "Kashani",
      "nativeName": "Kashani",
      "code": "KE-28-193560",
      "countryId": 192950,
      "countryCode": "KE",
      "stateCode": "KE-28",
      "latitude": -3.95448,
      "longitude": 39.69462
    },
    {
      "id": 191332,
      "name": "Kisauni",
      "nativeName": "Kisauni",
      "code": "KE-28-191332",
      "countryId": 192950,
      "countryCode": "KE",
      "stateCode": "KE-28",
      "latitude": -4.03287,
      "longitude": 39.68574
    },
    {
      "id": 190164,
      "name": "Kwa Bechombo",
      "nativeName": "Kwa Bechombo",
      "code": "KE-28-190164",
      "countryId": 192950,
      "countryCode": "KE",
      "stateCode": "KE-28",
      "latitude": -3.93333,
      "longitude": 39.61667
    },
    {
      "id": 190147,
      "name": "Kwa Jomvu",
      "nativeName": "Kwa Jomvu",
      "code": "KE-28-190147",
      "countryId": 192950,
      "countryCode": "KE",
      "stateCode": "KE-28",
      "latitude": -4.01045,
      "longitude": 39.60401
    },
    {
      "id": 189400,
      "name": "Likoni",
      "nativeName": "Likoni",
      "code": "KE-28-189400",
      "countryId": 192950,
      "countryCode": "KE",
      "stateCode": "KE-28",
      "latitude": -4.08394,
      "longitude": 39.66161
    },
    {
      "id": 187219,
      "name": "Maunguja",
      "nativeName": "Maunguja",
      "code": "KE-28-187219",
      "countryId": 192950,
      "countryCode": "KE",
      "stateCode": "KE-28",
      "latitude": -3.97555,
      "longitude": 39.65517
    },
    {
      "id": 186628,
      "name": "Mirarani",
      "nativeName": "Mirarani",
      "code": "KE-28-186628",
      "countryId": 192950,
      "countryCode": "KE",
      "stateCode": "KE-28",
      "latitude": -3.98263,
      "longitude": 39.65679
    },
    {
      "id": 177896,
      "name": "Miritini",
      "nativeName": "Miritini",
      "code": "KE-28-177896",
      "countryId": 192950,
      "countryCode": "KE",
      "stateCode": "KE-28",
      "latitude": -4.00961,
      "longitude": 39.58457
    },
    {
      "id": 186527,
      "name": "Mitsolokani",
      "nativeName": "Mitsolokani",
      "code": "KE-28-186527",
      "countryId": 192950,
      "countryCode": "KE",
      "stateCode": "KE-28",
      "latitude": -3.96667,
      "longitude": 39.63333
    },
    {
      "id": 186438,
      "name": "Mkunguni",
      "nativeName": "Mkunguni",
      "code": "KE-28-186438",
      "countryId": 192950,
      "countryCode": "KE",
      "stateCode": "KE-28",
      "latitude": -4.06146,
      "longitude": 39.62354
    },
    {
      "id": 186088,
      "name": "Mto Panga",
      "nativeName": "Mto Panga",
      "code": "KE-28-186088",
      "countryId": 192950,
      "countryCode": "KE",
      "stateCode": "KE-28",
      "latitude": -3.99991,
      "longitude": 39.69884
    },
    {
      "id": 185146,
      "name": "Mwachirunje ya Pwani",
      "nativeName": "Mwakirunge ya Pwani",
      "code": "KE-28-185146",
      "countryId": 192950,
      "countryCode": "KE",
      "stateCode": "KE-28",
      "latitude": -3.95,
      "longitude": 39.65
    },
    {
      "id": 185148,
      "name": "Mwakirunge",
      "nativeName": "Mwakirunge",
      "code": "KE-28-185148",
      "countryId": 192950,
      "countryCode": "KE",
      "stateCode": "KE-28",
      "latitude": -3.95252,
      "longitude": 39.66812
    },
    {
      "id": 185068,
      "name": "Mwandoni",
      "nativeName": "Mwandoni",
      "code": "KE-28-185068",
      "countryId": 192950,
      "countryCode": "KE",
      "stateCode": "KE-28",
      "latitude": -4.01999,
      "longitude": 39.69473
    },
    {
      "id": 185069,
      "name": "Mwandoni",
      "nativeName": "Mwandoni",
      "code": "KE-28-185069",
      "countryId": 192950,
      "countryCode": "KE",
      "stateCode": "KE-28",
      "latitude": -3.98333,
      "longitude": 39.63333
    },
    {
      "id": 181612,
      "name": "Pendeza",
      "nativeName": "Pendeza",
      "code": "KE-28-181612",
      "countryId": 192950,
      "countryCode": "KE",
      "stateCode": "KE-28",
      "latitude": -3.96123,
      "longitude": 39.63334
    },
    {
      "id": 180463,
      "name": "Shanzu",
      "nativeName": "Shanzu",
      "code": "KE-28-180463",
      "countryId": 192950,
      "countryCode": "KE",
      "stateCode": "KE-28",
      "latitude": -3.96667,
      "longitude": 39.75
    },
    {
      "id": 180391,
      "name": "Shimo la Tewa",
      "nativeName": "Shimo la Tewa",
      "code": "KE-28-180391",
      "countryId": 192950,
      "countryCode": "KE",
      "stateCode": "KE-28",
      "latitude": -3.96044,
      "longitude": 39.74088
    },
    {
      "id": 178646,
      "name": "Utange",
      "nativeName": "Utange",
      "code": "KE-28-178646",
      "countryId": 192950,
      "countryCode": "KE",
      "stateCode": "KE-28",
      "latitude": -3.97398,
      "longitude": 39.72763
    },
    {
      "id": 11913080,
      "name": "Kinang‘una",
      "nativeName": "Kinang‘una",
      "code": "KE-28-11913080",
      "countryId": 192950,
      "countryCode": "KE",
      "stateCode": "KE-28",
      "latitude": -3.93152,
      "longitude": 39.64943
    }
  ]
}