{
  "stateId": 7667652,
  "stateCode": "KE-39",
  "countryCode": "KE",
  "cities": [
    {
      "id": 185014,
      "name": "Mwatate",
      "nativeName": "Mwatate",
      "code": "KE-39-185014",
      "countryId": 192950,
      "countryCode": "KE",
      "stateCode": "KE-39",
      "latitude": -3.505,
      "longitude": 38.37722
    },
    {
      "id": 200065,
      "name": "Bungule",
      "nativeName": "Bungule",
      "code": "KE-39-200065",
      "countryId": 192950,
      "countryCode": "KE",
      "stateCode": "KE-39",
      "latitude": -3.84699,
      "longitude": 38.66774
    },
    {
      "id": 200048,
      "name": "Bura",
      "nativeName": "Bura",
      "code": "KE-39-200048",
      "countryId": 192950,
      "countryCode": "KE",
      "stateCode": "KE-39",
      "latitude": -3.49974,
      "longitude": 38.32177
    },
    {
      "id": 199889,
      "name": "Chala",
      "nativeName": "Chala",
      "code": "KE-39-199889",
      "countryId": 192950,
      "countryCode": "KE",
      "stateCode": "KE-39",
      "latitude": -3.30893,
      "longitude": 37.71775
    },
    {
      "id": 199791,
      "name": "Chawia",
      "nativeName": "Chawia",
      "code": "KE-39-199791",
      "countryId": 192950,
      "countryCode": "KE",
      "stateCode": "KE-39",
      "latitude": -3.48093,
      "longitude": 38.35259
    },
    {
      "id": 199330,
      "name": "Choke",
      "nativeName": "Choke",
      "code": "KE-39-199330",
      "countryId": 192950,
      "countryCode": "KE",
      "stateCode": "KE-39",
      "latitude": -3.35844,
      "longitude": 38.38809
    },
    {
      "id": 10400170,
      "name": "Chukia",
      "nativeName": "Chukia",
      "code": "KE-39-10400170",
      "countryId": 192950,
      "countryCode": "KE",
      "stateCode": "KE-39",
      "latitude": -3.49194,
      "longitude": 38.60137
    },
    {
      "id": 199213,
      "name": "Dabida",
      "nativeName": "Dabida",
      "code": "KE-39-199213",
      "countryId": 192950,
      "countryCode": "KE",
      "stateCode": "KE-39",
      "latitude": -3.41542,
      "longitude": 38.29232
    },
    {
      "id": 199043,
      "name": "Dembwa",
      "nativeName": "Dembwa",
      "code": "KE-39-199043",
      "countryId": 192950,
      "countryCode": "KE",
      "stateCode": "KE-39",
      "latitude": -3.4487,
      "longitude": 38.36376
    },
    {
      "id": 198050,
      "name": "Figini",
      "nativeName": "Figini",
      "code": "KE-39-198050",
      "countryId": 192950,
      "countryCode": "KE",
      "stateCode": "KE-39",
      "latitude": -3.37459,
      "longitude": 38.38847
    },
    {
      "id": 197435,
      "name": "Ghazi",
      "nativeName": "Ghazi",
      "code": "KE-39-197435",
      "countryId": 192950,
      "countryCode": "KE",
      "stateCode": "KE-39",
      "latitude": -3.28376,
      "longitude": 38.44935
    },
    {
      "id": 196601,
      "name": "Ikanga",
      "nativeName": "Ikanga",
      "code": "KE-39-196601",
      "countryId": 192950,
      "countryCode": "KE",
      "stateCode": "KE-39",
      "latitude": -3.36768,
      "longitude": 38.51167
    },
    {
      "id": 11886492,
      "name": "Jipe",
      "nativeName": "Jipe",
      "code": "KE-39-11886492",
      "countryId": 192950,
      "countryCode": "KE",
      "stateCode": "KE-39",
      "latitude": -3.45603,
      "longitude": 37.76433
    },
    {
      "id": 195908,
      "name": "Jora",
      "nativeName": "Jora",
      "code": "KE-39-195908",
      "countryId": 192950,
      "countryCode": "KE",
      "stateCode": "KE-39",
      "latitude": -3.83963,
      "longitude": 38.6461
    },
    {
      "id": 11886494,
      "name": "Kacheru",
      "nativeName": "Kacheru",
      "code": "KE-39-11886494",
      "countryId": 192950,
      "countryCode": "KE",
      "stateCode": "KE-39",
      "latitude": -3.56918,
      "longitude": 37.7692
    },
    {
      "id": 195287,
      "name": "Kajire",
      "nativeName": "Kajire",
      "code": "KE-39-195287",
      "countryId": 192950,
      "countryCode": "KE",
      "stateCode": "KE-39",
      "latitude": -3.51757,
      "longitude": 38.6077
    },
    {
      "id": 194799,
      "name": "Kamboyo",
      "nativeName": "Kamboyo",
      "code": "KE-39-194799",
      "countryId": 192950,
      "countryCode": "KE",
      "stateCode": "KE-39",
      "latitude": -2.74649,
      "longitude": 38.13118
    },
    {
      "id": 194742,
      "name": "Kamleza",
      "nativeName": "Kamleza",
      "code": "KE-39-194742",
      "countryId": 192950,
      "countryCode": "KE",
      "stateCode": "KE-39",
      "latitude": -3.4607,
      "longitude": 37.69258
    },
    {
      "id": 194693,
      "name": "Kampi ya Bibi",
      "nativeName": "Kampi ya Bibi",
      "code": "KE-39-194693",
      "countryId": 192950,
      "countryCode": "KE",
      "stateCode": "KE-39",
      "latitude": -3.41182,
      "longitude": 38.03182
    },
    {
      "id": 193043,
      "name": "Kedai",
      "nativeName": "Kedai",
      "code": "KE-39-193043",
      "countryId": 192950,
      "countryCode": "KE",
      "stateCode": "KE-39",
      "latitude": -3.27297,
      "longitude": 38.3563
    },
    {
      "id": 192365,
      "name": "Kidaya",
      "nativeName": "Kidaya",
      "code": "KE-39-192365",
      "countryId": 192950,
      "countryCode": "KE",
      "stateCode": "KE-39",
      "latitude": -3.43539,
      "longitude": 38.33961
    },
    {
      "id": 192310,
      "name": "Kifumbu",
      "nativeName": "Kifumbu",
      "code": "KE-39-192310",
      "countryId": 192950,
      "countryCode": "KE",
      "stateCode": "KE-39",
      "latitude": -3.81667,
      "longitude": 38.65
    },
    {
      "id": 192304,
      "name": "Kigala",
      "nativeName": "Kigala",
      "code": "KE-39-192304",
      "countryId": 192950,
      "countryCode": "KE",
      "stateCode": "KE-39",
      "latitude": -3.36915,
      "longitude": 38.48828
    },
    {
      "id": 192276,
      "name": "Kigombo",
      "nativeName": "Kigombo",
      "code": "KE-39-192276",
      "countryId": 192950,
      "countryCode": "KE",
      "stateCode": "KE-39",
      "latitude": -3.38274,
      "longitude": 38.45395
    },
    {
      "id": 191968,
      "name": "Kimala",
      "nativeName": "Kimala",
      "code": "KE-39-191968",
      "countryId": 192950,
      "countryCode": "KE",
      "stateCode": "KE-39",
      "latitude": -3.40964,
      "longitude": 37.69407
    },
    {
      "id": 191524,
      "name": "Kipusi",
      "nativeName": "Kipusi",
      "code": "KE-39-191524",
      "countryId": 192950,
      "countryCode": "KE",
      "stateCode": "KE-39",
      "latitude": -3.44066,
      "longitude": 38.38552
    },
    {
      "id": 11886584,
      "name": "Kisaghun",
      "nativeName": "Kisaghun",
      "code": "KE-39-11886584",
      "countryId": 192950,
      "countryCode": "KE",
      "stateCode": "KE-39",
      "latitude": -3.4136,
      "longitude": 37.98328
    },
    {
      "id": 11886476,
      "name": "Kishota",
      "nativeName": "Kishota",
      "code": "KE-39-11886476",
      "countryId": 192950,
      "countryCode": "KE",
      "stateCode": "KE-39",
      "latitude": -3.43201,
      "longitude": 37.72876
    },
    {
      "id": 11886503,
      "name": "Kisorini",
      "nativeName": "Kisorini",
      "code": "KE-39-11886503",
      "countryId": 192950,
      "countryCode": "KE",
      "stateCode": "KE-39",
      "latitude": -3.40718,
      "longitude": 38.08859
    },
    {
      "id": 11886558,
      "name": "Kitege",
      "nativeName": "Kitege",
      "code": "KE-39-11886558",
      "countryId": 192950,
      "countryCode": "KE",
      "stateCode": "KE-39",
      "latitude": -3.78428,
      "longitude": 38.64862
    },
    {
      "id": 11886594,
      "name": "Kithogoto",
      "nativeName": "Kithogoto",
      "code": "KE-39-11886594",
      "countryId": 192950,
      "countryCode": "KE",
      "stateCode": "KE-39",
      "latitude": -3.4958,
      "longitude": 37.68078
    },
    {
      "id": 11886542,
      "name": "Kitibu",
      "nativeName": "Kitibu",
      "code": "KE-39-11886542",
      "countryId": 192950,
      "countryCode": "KE",
      "stateCode": "KE-39",
      "latitude": -3.55627,
      "longitude": 38.57861
    },
    {
      "id": 190257,
      "name": "Kungu",
      "nativeName": "Kungu",
      "code": "KE-39-190257",
      "countryId": 192950,
      "countryCode": "KE",
      "stateCode": "KE-39",
      "latitude": -3.42212,
      "longitude": 38.34653
    },
    {
      "id": 190013,
      "name": "Kwaringoi",
      "nativeName": "Kwaringoi",
      "code": "KE-39-190013",
      "countryId": 192950,
      "countryCode": "KE",
      "stateCode": "KE-39",
      "latitude": -3.79893,
      "longitude": 38.655
    },
    {
      "id": 11886474,
      "name": "Landhi a Mtoni",
      "nativeName": "Landhi a Mtoni",
      "code": "KE-39-11886474",
      "countryId": 192950,
      "countryCode": "KE",
      "stateCode": "KE-39",
      "latitude": -3.37044,
      "longitude": 37.71605
    },
    {
      "id": 11886509,
      "name": "Latika",
      "nativeName": "Latika",
      "code": "KE-39-11886509",
      "countryId": 192950,
      "countryCode": "KE",
      "stateCode": "KE-39",
      "latitude": -3.45042,
      "longitude": 38.19467
    },
    {
      "id": 11886511,
      "name": "Lualeni",
      "nativeName": "Lualeni",
      "code": "KE-39-11886511",
      "countryId": 192950,
      "countryCode": "KE",
      "stateCode": "KE-39",
      "latitude": -3.58801,
      "longitude": 38.21155
    },
    {
      "id": 188584,
      "name": "Lushangonyi",
      "nativeName": "Lushangonyi",
      "code": "KE-39-188584",
      "countryId": 192950,
      "countryCode": "KE",
      "stateCode": "KE-39",
      "latitude": -3.4,
      "longitude": 38.31667
    },
    {
      "id": 188465,
      "name": "Madabogo",
      "nativeName": "Madabogo",
      "code": "KE-39-188465",
      "countryId": 192950,
      "countryCode": "KE",
      "stateCode": "KE-39",
      "latitude": -3.43333,
      "longitude": 38.38333
    },
    {
      "id": 188222,
      "name": "Majego",
      "nativeName": "Majego",
      "code": "KE-39-188222",
      "countryId": 192950,
      "countryCode": "KE",
      "stateCode": "KE-39",
      "latitude": -3.46385,
      "longitude": 38.41431
    },
    {
      "id": 188121,
      "name": "Makinyambu",
      "nativeName": "Makinyambu",
      "code": "KE-39-188121",
      "countryId": 192950,
      "countryCode": "KE",
      "stateCode": "KE-39",
      "latitude": -3.32671,
      "longitude": 38.30934
    },
    {
      "id": 188085,
      "name": "Maktau",
      "nativeName": "Maktau",
      "code": "KE-39-188085",
      "countryId": 192950,
      "countryCode": "KE",
      "stateCode": "KE-39",
      "latitude": -3.40834,
      "longitude": 38.13683
    },
    {
      "id": 188033,
      "name": "Makwasinyi",
      "nativeName": "Makwasinyi",
      "code": "KE-39-188033",
      "countryId": 192950,
      "countryCode": "KE",
      "stateCode": "KE-39",
      "latitude": -3.81104,
      "longitude": 38.67611
    },
    {
      "id": 11886563,
      "name": "Manjuga",
      "nativeName": "Manjuga",
      "code": "KE-39-11886563",
      "countryId": 192950,
      "countryCode": "KE",
      "stateCode": "KE-39",
      "latitude": -3.87559,
      "longitude": 38.76696
    },
    {
      "id": 187704,
      "name": "Maranu",
      "nativeName": "Maranu",
      "code": "KE-39-187704",
      "countryId": 192950,
      "countryCode": "KE",
      "stateCode": "KE-39",
      "latitude": -3.39096,
      "longitude": 37.69229
    },
    {
      "id": 187668,
      "name": "Margasa",
      "nativeName": "Margasa",
      "code": "KE-39-187668",
      "countryId": 192950,
      "countryCode": "KE",
      "stateCode": "KE-39",
      "latitude": -3.43498,
      "longitude": 37.69997
    },
    {
      "id": 187612,
      "name": "Mariwenyi",
      "nativeName": "Mariwenyi",
      "code": "KE-39-187612",
      "countryId": 192950,
      "countryCode": "KE",
      "stateCode": "KE-39",
      "latitude": -3.44263,
      "longitude": 38.50863
    },
    {
      "id": 11886602,
      "name": "Masengoni",
      "nativeName": "Masengoni",
      "code": "KE-39-11886602",
      "countryId": 192950,
      "countryCode": "KE",
      "stateCode": "KE-39",
      "latitude": -3.38887,
      "longitude": 37.70486
    },
    {
      "id": 187500,
      "name": "Mashanda",
      "nativeName": "Mashanda",
      "code": "KE-39-187500",
      "countryId": 192950,
      "countryCode": "KE",
      "stateCode": "KE-39",
      "latitude": -3.47803,
      "longitude": 38.57854
    },
    {
      "id": 187443,
      "name": "Mata",
      "nativeName": "Mata",
      "code": "KE-39-187443",
      "countryId": 192950,
      "countryCode": "KE",
      "stateCode": "KE-39",
      "latitude": -3.49649,
      "longitude": 37.741
    },
    {
      "id": 11886567,
      "name": "Maungu",
      "nativeName": "Maungu",
      "code": "KE-39-11886567",
      "countryId": 192950,
      "countryCode": "KE",
      "stateCode": "KE-39",
      "latitude": -3.55813,
      "longitude": 38.74908
    },
    {
      "id": 187076,
      "name": "Mbauro",
      "nativeName": "Mbauro",
      "code": "KE-39-187076",
      "countryId": 192950,
      "countryCode": "KE",
      "stateCode": "KE-39",
      "latitude": -3.41667,
      "longitude": 38.36667
    },
    {
      "id": 186916,
      "name": "Mdundonyi",
      "nativeName": "Mdundonyi",
      "code": "KE-39-186916",
      "countryId": 192950,
      "countryCode": "KE",
      "stateCode": "KE-39",
      "latitude": -3.38333,
      "longitude": 38.31667
    },
    {
      "id": 186787,
      "name": "Mgambonyi",
      "nativeName": "Mgambonyi",
      "code": "KE-39-186787",
      "countryId": 192950,
      "countryCode": "KE",
      "stateCode": "KE-39",
      "latitude": -3.34421,
      "longitude": 38.36115
    },
    {
      "id": 186784,
      "name": "Mgange",
      "nativeName": "Mgenge",
      "code": "KE-39-186784",
      "countryId": 192950,
      "countryCode": "KE",
      "stateCode": "KE-39",
      "latitude": -3.40107,
      "longitude": 38.31295
    },
    {
      "id": 186742,
      "name": "Miereni",
      "nativeName": "Miereni",
      "code": "KE-39-186742",
      "countryId": 192950,
      "countryCode": "KE",
      "stateCode": "KE-39",
      "latitude": -3.424,
      "longitude": 37.70323
    },
    {
      "id": 11886513,
      "name": "Mkameni",
      "nativeName": "Mkameni",
      "code": "KE-39-11886513",
      "countryId": 192950,
      "countryCode": "KE",
      "stateCode": "KE-39",
      "latitude": -3.50705,
      "longitude": 38.26628
    },
    {
      "id": 186420,
      "name": "Mlegwa",
      "nativeName": "Mlegwa",
      "code": "KE-39-186420",
      "countryId": 192950,
      "countryCode": "KE",
      "stateCode": "KE-39",
      "latitude": -3.47572,
      "longitude": 38.31685
    },
    {
      "id": 186155,
      "name": "Mrangi",
      "nativeName": "Mrangi",
      "code": "KE-39-186155",
      "countryId": 192950,
      "countryCode": "KE",
      "stateCode": "KE-39",
      "latitude": -3.3,
      "longitude": 38.45
    },
    {
      "id": 186145,
      "name": "Mrugua",
      "nativeName": "Mragua",
      "code": "KE-39-186145",
      "countryId": 192950,
      "countryCode": "KE",
      "stateCode": "KE-39",
      "latitude": -3.43192,
      "longitude": 38.29403
    },
    {
      "id": 186132,
      "name": "Msau",
      "nativeName": "Msau",
      "code": "KE-39-186132",
      "countryId": 192950,
      "countryCode": "KE",
      "stateCode": "KE-39",
      "latitude": -3.41099,
      "longitude": 38.40216
    },
    {
      "id": 186075,
      "name": "Mtungi",
      "nativeName": "Mtungi",
      "code": "KE-39-186075",
      "countryId": 192950,
      "countryCode": "KE",
      "stateCode": "KE-39",
      "latitude": -3.48353,
      "longitude": 38.38869
    },
    {
      "id": 185764,
      "name": "Mulemwa",
      "nativeName": "Mulemwa",
      "code": "KE-39-185764",
      "countryId": 192950,
      "countryCode": "KE",
      "stateCode": "KE-39",
      "latitude": -3.81997,
      "longitude": 38.64189
    },
    {
      "id": 185179,
      "name": "Mwachawaza",
      "nativeName": "Mwachawaza",
      "code": "KE-39-185179",
      "countryId": 192950,
      "countryCode": "KE",
      "stateCode": "KE-39",
      "latitude": -3.4362,
      "longitude": 38.38978
    },
    {
      "id": 185153,
      "name": "Mwaketutu",
      "nativeName": "Mwaketutu",
      "code": "KE-39-185153",
      "countryId": 192950,
      "countryCode": "KE",
      "stateCode": "KE-39",
      "latitude": -3.49352,
      "longitude": 38.35311
    },
    {
      "id": 11886531,
      "name": "Mwakiki",
      "nativeName": "Mwakiki",
      "code": "KE-39-11886531",
      "countryId": 192950,
      "countryCode": "KE",
      "stateCode": "KE-39",
      "latitude": -3.34681,
      "longitude": 38.46971
    },
    {
      "id": 185149,
      "name": "Mwakinyungu",
      "nativeName": "Mwakinyungu",
      "code": "KE-39-185149",
      "countryId": 192950,
      "countryCode": "KE",
      "stateCode": "KE-39",
      "latitude": -3.4332,
      "longitude": 38.42638
    },
    {
      "id": 11886534,
      "name": "Mwambirwu",
      "nativeName": "Mwambirwu",
      "code": "KE-39-11886534",
      "countryId": 192950,
      "countryCode": "KE",
      "stateCode": "KE-39",
      "latitude": -3.36646,
      "longitude": 38.45921
    },
    {
      "id": 185078,
      "name": "Mwanda",
      "nativeName": "Mwanda",
      "code": "KE-39-185078",
      "countryId": 192950,
      "countryCode": "KE",
      "stateCode": "KE-39",
      "latitude": -3.41287,
      "longitude": 38.29177
    },
    {
      "id": 11886590,
      "name": "Mwandanga",
      "nativeName": "Mwandanga",
      "code": "KE-39-11886590",
      "countryId": 192950,
      "countryCode": "KE",
      "stateCode": "KE-39",
      "latitude": -3.37877,
      "longitude": 38.39083
    },
    {
      "id": 185018,
      "name": "Mwarungu",
      "nativeName": "Mwarungu",
      "code": "KE-39-185018",
      "countryId": 192950,
      "countryCode": "KE",
      "stateCode": "KE-39",
      "latitude": -3.28094,
      "longitude": 38.30277
    },
    {
      "id": 11886547,
      "name": "Mweani",
      "nativeName": "Mweani",
      "code": "KE-39-11886547",
      "countryId": 192950,
      "countryCode": "KE",
      "stateCode": "KE-39",
      "latitude": -3.31505,
      "longitude": 38.48816
    },
    {
      "id": 11886577,
      "name": "Mwembeni Landhi",
      "nativeName": "Mwembeni Landhi",
      "code": "KE-39-11886577",
      "countryId": 192950,
      "countryCode": "KE",
      "stateCode": "KE-39",
      "latitude": -3.61681,
      "longitude": 38.84798
    },
    {
      "id": 184111,
      "name": "Ndile",
      "nativeName": "Ndile",
      "code": "KE-39-184111",
      "countryId": 192950,
      "countryCode": "KE",
      "stateCode": "KE-39",
      "latitude": -3.32008,
      "longitude": 38.48405
    },
    {
      "id": 11886553,
      "name": "Ndololo",
      "nativeName": "Ndololo",
      "code": "KE-39-11886553",
      "countryId": 192950,
      "countryCode": "KE",
      "stateCode": "KE-39",
      "latitude": -3.3611,
      "longitude": 38.59636
    },
    {
      "id": 184057,
      "name": "Ndome",
      "nativeName": "Ndome",
      "code": "KE-39-184057",
      "countryId": 192950,
      "countryCode": "KE",
      "stateCode": "KE-39",
      "latitude": -3.30299,
      "longitude": 38.47888
    },
    {
      "id": 183848,
      "name": "Ngambinyi",
      "nativeName": "Ngambinyi",
      "code": "KE-39-183848",
      "countryId": 192950,
      "countryCode": "KE",
      "stateCode": "KE-39",
      "latitude": -3.41667,
      "longitude": 38.33333
    },
    {
      "id": 183732,
      "name": "Ngerenyi",
      "nativeName": "Ngerenyi",
      "code": "KE-39-183732",
      "countryId": 192950,
      "countryCode": "KE",
      "stateCode": "KE-39",
      "latitude": -3.41877,
      "longitude": 38.33108
    },
    {
      "id": 183714,
      "name": "Nghonji",
      "nativeName": "Nghonji",
      "code": "KE-39-183714",
      "countryId": 192950,
      "countryCode": "KE",
      "stateCode": "KE-39",
      "latitude": -3.45002,
      "longitude": 37.73787
    },
    {
      "id": 11886089,
      "name": "Ngulia",
      "nativeName": "Ngulia",
      "code": "KE-39-11886089",
      "countryId": 192950,
      "countryCode": "KE",
      "stateCode": "KE-39",
      "latitude": -2.99383,
      "longitude": 38.17067
    },
    {
      "id": 196945,
      "name": "Ngutuni",
      "nativeName": "Ngutuni",
      "code": "KE-39-196945",
      "countryId": 192950,
      "countryCode": "KE",
      "stateCode": "KE-39",
      "latitude": -3.42213,
      "longitude": 38.62798
    },
    {
      "id": 181018,
      "name": "Rukanga",
      "nativeName": "Rukanga",
      "code": "KE-39-181018",
      "countryId": 192950,
      "countryCode": "KE",
      "stateCode": "KE-39",
      "latitude": -3.81251,
      "longitude": 38.63892
    },
    {
      "id": 180874,
      "name": "Sagala",
      "nativeName": "Sagala",
      "code": "KE-39-180874",
      "countryId": 192950,
      "countryCode": "KE",
      "stateCode": "KE-39",
      "latitude": -3.50957,
      "longitude": 38.57623
    },
    {
      "id": 180636,
      "name": "Secho",
      "nativeName": "Secho",
      "code": "KE-39-180636",
      "countryId": 192950,
      "countryCode": "KE",
      "stateCode": "KE-39",
      "latitude": -3.49118,
      "longitude": 38.33571
    },
    {
      "id": 180604,
      "name": "Sela Mbaha",
      "nativeName": "Sela Mbaha",
      "code": "KE-39-180604",
      "countryId": 192950,
      "countryCode": "KE",
      "stateCode": "KE-39",
      "latitude": -3.41997,
      "longitude": 37.6836
    },
    {
      "id": 180443,
      "name": "Shelemba",
      "nativeName": "Shelemba",
      "code": "KE-39-180443",
      "countryId": 192950,
      "countryCode": "KE",
      "stateCode": "KE-39",
      "latitude": -3.43734,
      "longitude": 38.4611
    },
    {
      "id": 180422,
      "name": "Shigaro",
      "nativeName": "Shigaro",
      "code": "KE-39-180422",
      "countryId": 192950,
      "countryCode": "KE",
      "stateCode": "KE-39",
      "latitude": -3.40452,
      "longitude": 38.36608
    },
    {
      "id": 179735,
      "name": "Sungululu",
      "nativeName": "Sungululu",
      "code": "KE-39-179735",
      "countryId": 192950,
      "countryCode": "KE",
      "stateCode": "KE-39",
      "latitude": -3.38882,
      "longitude": 38.35774
    },
    {
      "id": 179613,
      "name": "Talio",
      "nativeName": "Talio",
      "code": "KE-39-179613",
      "countryId": 192950,
      "countryCode": "KE",
      "stateCode": "KE-39",
      "latitude": -3.53333,
      "longitude": 38.58333
    },
    {
      "id": 11886530,
      "name": "Tausa",
      "nativeName": "Tausa",
      "code": "KE-39-11886530",
      "countryId": 192950,
      "countryCode": "KE",
      "stateCode": "KE-39",
      "latitude": -3.32749,
      "longitude": 38.47881
    },
    {
      "id": 179525,
      "name": "Taveta",
      "nativeName": "Taveta",
      "code": "KE-39-179525",
      "countryId": 192950,
      "countryCode": "KE",
      "stateCode": "KE-39",
      "latitude": -3.39879,
      "longitude": 37.68336
    },
    {
      "id": 11886500,
      "name": "The Kopie",
      "nativeName": "The Kopie",
      "code": "KE-39-11886500",
      "countryId": 192950,
      "countryCode": "KE",
      "stateCode": "KE-39",
      "latitude": -3.32171,
      "longitude": 37.91326
    },
    {
      "id": 179200,
      "name": "Timbila",
      "nativeName": "Timbila",
      "code": "KE-39-179200",
      "countryId": 192950,
      "countryCode": "KE",
      "stateCode": "KE-39",
      "latitude": -3.37061,
      "longitude": 37.71116
    },
    {
      "id": 179052,
      "name": "Tsavo",
      "nativeName": "Tsavo",
      "code": "KE-39-179052",
      "countryId": 192950,
      "countryCode": "KE",
      "stateCode": "KE-39",
      "latitude": -2.99783,
      "longitude": 38.45846
    },
    {
      "id": 11886524,
      "name": "Tsavo T.C.",
      "nativeName": "Tsavo T.C.",
      "code": "KE-39-11886524",
      "countryId": 192950,
      "countryCode": "KE",
      "stateCode": "KE-39",
      "latitude": -3.00552,
      "longitude": 38.46874
    },
    {
      "id": 178522,
      "name": "Voi",
      "nativeName": "Voi",
      "code": "KE-39-178522",
      "countryId": 192950,
      "countryCode": "KE",
      "stateCode": "KE-39",
      "latitude": -3.39605,
      "longitude": 38.55609
    },
    {
      "id": 178168,
      "name": "Weruga",
      "nativeName": "Weruga",
      "code": "KE-39-178168",
      "countryId": 192950,
      "countryCode": "KE",
      "stateCode": "KE-39",
      "latitude": -3.38537,
      "longitude": 38.33671
    },
    {
      "id": 178137,
      "name": "Wesu",
      "nativeName": "Wesu",
      "code": "KE-39-178137",
      "countryId": 192950,
      "countryCode": "KE",
      "stateCode": "KE-39",
      "latitude": -3.40831,
      "longitude": 38.34044
    },
    {
      "id": 178087,
      "name": "Wmingo",
      "nativeName": "Wmingo",
      "code": "KE-39-178087",
      "countryId": 192950,
      "countryCode": "KE",
      "stateCode": "KE-39",
      "latitude": -3.36667,
      "longitude": 38.33333
    },
    {
      "id": 178083,
      "name": "Wongonyi",
      "nativeName": "Wongonyi",
      "code": "KE-39-178083",
      "countryId": 192950,
      "countryCode": "KE",
      "stateCode": "KE-39",
      "latitude": -3.31637,
      "longitude": 38.43355
    },
    {
      "id": 178074,
      "name": "Wumari",
      "nativeName": "Wumari",
      "code": "KE-39-178074",
      "countryId": 192950,
      "countryCode": "KE",
      "stateCode": "KE-39",
      "latitude": -3.47774,
      "longitude": 38.32538
    },
    {
      "id": 178746,
      "name": "Wumingu",
      "nativeName": "Wumingu",
      "code": "KE-39-178746",
      "countryId": 192950,
      "countryCode": "KE",
      "stateCode": "KE-39",
      "latitude": -3.35604,
      "longitude": 38.32517
    },
    {
      "id": 178073,
      "name": "Wundanyi",
      "nativeName": "Wundanyi",
      "code": "KE-39-178073",
      "countryId": 192950,
      "countryCode": "KE",
      "stateCode": "KE-39",
      "latitude": -3.39642,
      "longitude": 38.35729
    },
    {
      "id": 178068,
      "name": "Wusi",
      "nativeName": "Wusi",
      "code": "KE-39-178068",
      "countryId": 192950,
      "countryCode": "KE",
      "stateCode": "KE-39",
      "latitude": -3.45577,
      "longitude": 38.34888
    },
    {
      "id": 178035,
      "name": "Yale",
      "nativeName": "Yale",
      "code": "KE-39-178035",
      "countryId": 192950,
      "countryCode": "KE",
      "stateCode": "KE-39",
      "latitude": -3.40591,
      "longitude": 38.32399
    },
    {
      "id": 177928,
      "name": "Zare",
      "nativeName": "Zare",
      "code": "KE-39-177928",
      "countryId": 192950,
      "countryCode": "KE",
      "stateCode": "KE-39",
      "latitude": -3.49261,
      "longitude": 38.32502
    },
    {
      "id": 177915,
      "name": "Ziwani",
      "nativeName": "Ziwani",
      "code": "KE-39-177915",
      "countryId": 192950,
      "countryCode": "KE",
      "stateCode": "KE-39",
      "latitude": -3.38267,
      "longitude": 37.79346
    },
    {
      "id": 11886486,
      "name": "Ziwani Camp",
      "nativeName": "Ziwani Camp",
      "code": "KE-39-11886486",
      "countryId": 192950,
      "countryCode": "KE",
      "stateCode": "KE-39",
      "latitude": -3.21721,
      "longitude": 37.79971
    },
    {
      "id": 192111,
      "name": "Kilaguni",
      "nativeName": "Kilaguni",
      "code": "KE-39-192111",
      "countryId": 192950,
      "countryCode": "KE",
      "stateCode": "KE-39",
      "latitude": -2.90548,
      "longitude": 38.04548
    }
  ]
}