{
  "stateId": 7806857,
  "stateCode": "KE-34",
  "countryCode": "KE",
  "cities": [
    {
      "id": 182880,
      "name": "Nyamira",
      "nativeName": "Nyamira",
      "code": "KE-34-182880",
      "countryId": 192950,
      "countryCode": "KE",
      "stateCode": "KE-34",
      "latitude": -0.56333,
      "longitude": 34.93583
    },
    {
      "id": 200410,
      "name": "Birongo",
      "nativeName": "Birongo",
      "code": "KE-34-200410",
      "countryId": 192950,
      "countryCode": "KE",
      "stateCode": "KE-34",
      "latitude": -0.7473,
      "longitude": 34.88864
    },
    {
      "id": 200340,
      "name": "Bogeche",
      "nativeName": "Bogeche",
      "code": "KE-34-200340",
      "countryId": 192950,
      "countryCode": "KE",
      "stateCode": "KE-34",
      "latitude": -0.76608,
      "longitude": 34.93034
    },
    {
      "id": 11964312,
      "name": "Bomondo",
      "nativeName": "Bomondo",
      "code": "KE-34-11964312",
      "countryId": 192950,
      "countryCode": "KE",
      "stateCode": "KE-34",
      "latitude": -0.5634,
      "longitude": 34.95907
    },
    {
      "id": 200291,
      "name": "Bonyaiguba",
      "nativeName": "Bonyaiguba",
      "code": "KE-34-200291",
      "countryId": 192950,
      "countryCode": "KE",
      "stateCode": "KE-34",
      "latitude": -0.51431,
      "longitude": 34.89261
    },
    {
      "id": 200287,
      "name": "Bonyunyu",
      "nativeName": "Bonyunyu",
      "code": "KE-34-200287",
      "countryId": 192950,
      "countryCode": "KE",
      "stateCode": "KE-34",
      "latitude": -0.52705,
      "longitude": 34.88894
    },
    {
      "id": 200071,
      "name": "Bundo",
      "nativeName": "Bundo",
      "code": "KE-34-200071",
      "countryId": 192950,
      "countryCode": "KE",
      "stateCode": "KE-34",
      "latitude": -0.58339,
      "longitude": 34.93001
    },
    {
      "id": 11280828,
      "name": "Ekerenyo",
      "nativeName": "Ekerenyo",
      "code": "KE-34-11280828",
      "countryId": 192950,
      "countryCode": "KE",
      "stateCode": "KE-34",
      "latitude": -0.52955,
      "longitude": 34.98983
    },
    {
      "id": 198164,
      "name": "Esani",
      "nativeName": "Esani",
      "code": "KE-34-198164",
      "countryId": 192950,
      "countryCode": "KE",
      "stateCode": "KE-34",
      "latitude": -0.68375,
      "longitude": 34.94572
    },
    {
      "id": 197449,
      "name": "Gekano",
      "nativeName": "Gekano",
      "code": "KE-34-197449",
      "countryId": 192950,
      "countryCode": "KE",
      "stateCode": "KE-34",
      "latitude": -0.69914,
      "longitude": 34.90262
    },
    {
      "id": 197489,
      "name": "Gekendo",
      "nativeName": "Gekendo",
      "code": "KE-34-197489",
      "countryId": 192950,
      "countryCode": "KE",
      "stateCode": "KE-34",
      "latitude": -0.51474,
      "longitude": 34.96758
    },
    {
      "id": 197458,
      "name": "Gesiaga",
      "nativeName": "Gesiaga",
      "code": "KE-34-197458",
      "countryId": 192950,
      "countryCode": "KE",
      "stateCode": "KE-34",
      "latitude": -0.6142,
      "longitude": 34.91048
    },
    {
      "id": 197456,
      "name": "Gesima",
      "nativeName": "Gesima",
      "code": "KE-34-197456",
      "countryId": 192950,
      "countryCode": "KE",
      "stateCode": "KE-34",
      "latitude": -0.71072,
      "longitude": 34.9889
    },
    {
      "id": 11964311,
      "name": "Gesore",
      "nativeName": "Gesore",
      "code": "KE-34-11964311",
      "countryId": 192950,
      "countryCode": "KE",
      "stateCode": "KE-34",
      "latitude": -0.58334,
      "longitude": 34.94283
    },
    {
      "id": 197317,
      "name": "Girango",
      "nativeName": "Girango",
      "code": "KE-34-197317",
      "countryId": 192950,
      "countryCode": "KE",
      "stateCode": "KE-34",
      "latitude": -0.70867,
      "longitude": 34.86446
    },
    {
      "id": 196569,
      "name": "Ikonge",
      "nativeName": "Ikonge",
      "code": "KE-34-196569",
      "countryId": 192950,
      "countryCode": "KE",
      "stateCode": "KE-34",
      "latitude": -0.53099,
      "longitude": 35.02633
    },
    {
      "id": 11428088,
      "name": "Isoge/Kineni",
      "nativeName": "Isoge/Kineni",
      "code": "KE-34-11428088",
      "countryId": 192950,
      "countryCode": "KE",
      "stateCode": "KE-34",
      "latitude": -0.77377,
      "longitude": 35.05351
    },
    {
      "id": 196111,
      "name": "Itibo",
      "nativeName": "Itibo",
      "code": "KE-34-196111",
      "countryId": 192950,
      "countryCode": "KE",
      "stateCode": "KE-34",
      "latitude": -0.55975,
      "longitude": 34.99645
    },
    {
      "id": 195977,
      "name": "Jebilat",
      "nativeName": "Jebilat",
      "code": "KE-34-195977",
      "countryId": 192950,
      "countryCode": "KE",
      "stateCode": "KE-34",
      "latitude": -0.69356,
      "longitude": 35.07132
    },
    {
      "id": 192197,
      "name": "Kajaur",
      "nativeName": "Kajaur",
      "code": "KE-34-192197",
      "countryId": 192950,
      "countryCode": "KE",
      "stateCode": "KE-34",
      "latitude": -0.77155,
      "longitude": 34.96907
    },
    {
      "id": 192864,
      "name": "Karota",
      "nativeName": "Karota",
      "code": "KE-34-192864",
      "countryId": 192950,
      "countryCode": "KE",
      "stateCode": "KE-34",
      "latitude": -0.46957,
      "longitude": 34.9351
    },
    {
      "id": 193068,
      "name": "Kea",
      "nativeName": "Kea",
      "code": "KE-34-193068",
      "countryId": 192950,
      "countryCode": "KE",
      "stateCode": "KE-34",
      "latitude": -0.50811,
      "longitude": 34.99795
    },
    {
      "id": 193063,
      "name": "Kebabe",
      "nativeName": "Kebabe",
      "code": "KE-34-193063",
      "countryId": 192950,
      "countryCode": "KE",
      "stateCode": "KE-34",
      "latitude": -0.52898,
      "longitude": 34.98899
    },
    {
      "id": 193057,
      "name": "Kebirichi",
      "nativeName": "Kebirichi",
      "code": "KE-34-193057",
      "countryId": 192950,
      "countryCode": "KE",
      "stateCode": "KE-34",
      "latitude": -0.72232,
      "longitude": 34.87345
    },
    {
      "id": 193056,
      "name": "Kebirigo",
      "nativeName": "Kebirigo",
      "code": "KE-34-193056",
      "countryId": 192950,
      "countryCode": "KE",
      "stateCode": "KE-34",
      "latitude": -0.60292,
      "longitude": 34.96124
    },
    {
      "id": 192986,
      "name": "Kemera",
      "nativeName": "Kemera",
      "code": "KE-34-192986",
      "countryId": 192950,
      "countryCode": "KE",
      "stateCode": "KE-34",
      "latitude": -0.66716,
      "longitude": 34.83251
    },
    {
      "id": 192961,
      "name": "Kenguso",
      "nativeName": "Kenguso",
      "code": "KE-34-192961",
      "countryId": 192950,
      "countryCode": "KE",
      "stateCode": "KE-34",
      "latitude": -0.49982,
      "longitude": 35.00659
    },
    {
      "id": 192943,
      "name": "Kenyenya",
      "nativeName": "Kenyenya",
      "code": "KE-34-192943",
      "countryId": 192950,
      "countryCode": "KE",
      "stateCode": "KE-34",
      "latitude": -0.64022,
      "longitude": 34.99546
    },
    {
      "id": 192869,
      "name": "Keroka",
      "nativeName": "Keroka",
      "code": "KE-34-192869",
      "countryId": 192950,
      "countryCode": "KE",
      "stateCode": "KE-34",
      "latitude": -0.77612,
      "longitude": 34.94678
    },
    {
      "id": 192866,
      "name": "Kerongo",
      "nativeName": "Kerongo",
      "code": "KE-34-192866",
      "countryId": 192950,
      "countryCode": "KE",
      "stateCode": "KE-34",
      "latitude": -0.6501,
      "longitude": 34.81721
    },
    {
      "id": 192779,
      "name": "Kiabonyoru",
      "nativeName": "Kiabonyoru",
      "code": "KE-34-192779",
      "countryId": 192950,
      "countryCode": "KE",
      "stateCode": "KE-34",
      "latitude": -0.59016,
      "longitude": 34.98162
    },
    {
      "id": 181261,
      "name": "Kiaboore",
      "nativeName": "Kiaboore",
      "code": "KE-34-181261",
      "countryId": 192950,
      "countryCode": "KE",
      "stateCode": "KE-34",
      "latitude": -0.75571,
      "longitude": 34.96601
    },
    {
      "id": 8051336,
      "name": "Kiambere",
      "nativeName": "Kiambere",
      "code": "KE-34-8051336",
      "countryId": 192950,
      "countryCode": "KE",
      "stateCode": "KE-34",
      "latitude": -0.648,
      "longitude": 34.967
    },
    {
      "id": 11964318,
      "name": "Kiangose",
      "nativeName": "Kiangose",
      "code": "KE-34-11964318",
      "countryId": 192950,
      "countryCode": "KE",
      "stateCode": "KE-34",
      "latitude": -0.64672,
      "longitude": 34.81471
    },
    {
      "id": 192587,
      "name": "Kianungu",
      "nativeName": "Kianungu",
      "code": "KE-34-192587",
      "countryId": 192950,
      "countryCode": "KE",
      "stateCode": "KE-34",
      "latitude": -0.6359,
      "longitude": 34.90351
    },
    {
      "id": 11964368,
      "name": "Kibugat",
      "nativeName": "Kibugat",
      "code": "KE-34-11964368",
      "countryId": 192950,
      "countryCode": "KE",
      "stateCode": "KE-34",
      "latitude": -0.61019,
      "longitude": 35.04875
    },
    {
      "id": 191732,
      "name": "Kioge",
      "nativeName": "Kioge",
      "code": "KE-34-191732",
      "countryId": 192950,
      "countryCode": "KE",
      "stateCode": "KE-34",
      "latitude": -0.52484,
      "longitude": 34.95069
    },
    {
      "id": 11964323,
      "name": "Kiomongo",
      "nativeName": "Kiomongo",
      "code": "KE-34-11964323",
      "countryId": 192950,
      "countryCode": "KE",
      "stateCode": "KE-34",
      "latitude": -0.71233,
      "longitude": 34.8473
    },
    {
      "id": 188353,
      "name": "Magombo",
      "nativeName": "Magombo",
      "code": "KE-34-188353",
      "countryId": 192950,
      "countryCode": "KE",
      "stateCode": "KE-34",
      "latitude": -0.68475,
      "longitude": 34.91838
    },
    {
      "id": 188320,
      "name": "Magwagwa",
      "nativeName": "Magwagwa",
      "code": "KE-34-188320",
      "countryId": 192950,
      "countryCode": "KE",
      "stateCode": "KE-34",
      "latitude": -0.48257,
      "longitude": 35.02205
    },
    {
      "id": 188181,
      "name": "Makairo",
      "nativeName": "Makairo",
      "code": "KE-34-188181",
      "countryId": 192950,
      "countryCode": "KE",
      "stateCode": "KE-34",
      "latitude": -0.63295,
      "longitude": 34.93804
    },
    {
      "id": 187881,
      "name": "Manga",
      "nativeName": "Manga",
      "code": "KE-34-187881",
      "countryId": 192950,
      "countryCode": "KE",
      "stateCode": "KE-34",
      "latitude": -0.81257,
      "longitude": 35.0153
    },
    {
      "id": 187882,
      "name": "Manga",
      "nativeName": "Manga",
      "code": "KE-34-187882",
      "countryId": 192950,
      "countryCode": "KE",
      "stateCode": "KE-34",
      "latitude": -0.61509,
      "longitude": 34.83565
    },
    {
      "id": 187446,
      "name": "Masusa",
      "nativeName": "Masusa",
      "code": "KE-34-187446",
      "countryId": 192950,
      "countryCode": "KE",
      "stateCode": "KE-34",
      "latitude": -0.49222,
      "longitude": 34.90029
    },
    {
      "id": 187403,
      "name": "Mateget",
      "nativeName": "Mateget",
      "code": "KE-34-187403",
      "countryId": 192950,
      "countryCode": "KE",
      "stateCode": "KE-34",
      "latitude": -0.70797,
      "longitude": 35.041
    },
    {
      "id": 187286,
      "name": "Matongo",
      "nativeName": "Matongo",
      "code": "KE-34-187286",
      "countryId": 192950,
      "countryCode": "KE",
      "stateCode": "KE-34",
      "latitude": -0.44178,
      "longitude": 35.01156
    },
    {
      "id": 187240,
      "name": "Matutu",
      "nativeName": "Matutu",
      "code": "KE-34-187240",
      "countryId": 192950,
      "countryCode": "KE",
      "stateCode": "KE-34",
      "latitude": -0.70576,
      "longitude": 34.96585
    },
    {
      "id": 186864,
      "name": "Menyenya",
      "nativeName": "Menyenya",
      "code": "KE-34-186864",
      "countryId": 192950,
      "countryCode": "KE",
      "stateCode": "KE-34",
      "latitude": -0.76283,
      "longitude": 35.01458
    },
    {
      "id": 186616,
      "name": "Miriri",
      "nativeName": "Miriri",
      "code": "KE-34-186616",
      "countryId": 192950,
      "countryCode": "KE",
      "stateCode": "KE-34",
      "latitude": -0.68695,
      "longitude": 34.88443
    },
    {
      "id": 186596,
      "name": "Misambi",
      "nativeName": "Misambi",
      "code": "KE-34-186596",
      "countryId": 192950,
      "countryCode": "KE",
      "stateCode": "KE-34",
      "latitude": -0.46622,
      "longitude": 34.95305
    },
    {
      "id": 11964369,
      "name": "Misogwa",
      "nativeName": "Misogwa",
      "code": "KE-34-11964369",
      "countryId": 192950,
      "countryCode": "KE",
      "stateCode": "KE-34",
      "latitude": -0.50285,
      "longitude": 35.02959
    },
    {
      "id": 186393,
      "name": "Mochenwa",
      "nativeName": "Mochenwa",
      "code": "KE-34-186393",
      "countryId": 192950,
      "countryCode": "KE",
      "stateCode": "KE-34",
      "latitude": -0.74247,
      "longitude": 34.96754
    },
    {
      "id": 185832,
      "name": "Mokomon",
      "nativeName": "Mokomon",
      "code": "KE-34-185832",
      "countryId": 192950,
      "countryCode": "KE",
      "stateCode": "KE-34",
      "latitude": -0.66381,
      "longitude": 34.95439
    },
    {
      "id": 11964587,
      "name": "Mokwerero",
      "nativeName": "Mokwerero",
      "code": "KE-34-11964587",
      "countryId": 192950,
      "countryCode": "KE",
      "stateCode": "KE-34",
      "latitude": -0.69403,
      "longitude": 34.85514
    },
    {
      "id": 186290,
      "name": "Mong’oni",
      "nativeName": "Mong’oni",
      "code": "KE-34-186290",
      "countryId": 192950,
      "countryCode": "KE",
      "stateCode": "KE-34",
      "latitude": -0.73728,
      "longitude": 34.89892
    },
    {
      "id": 186230,
      "name": "Mosobeti",
      "nativeName": "Mosobeti",
      "code": "KE-34-186230",
      "countryId": 192950,
      "countryCode": "KE",
      "stateCode": "KE-34",
      "latitude": -0.67578,
      "longitude": 34.99538
    },
    {
      "id": 186205,
      "name": "Motagara",
      "nativeName": "Motagara",
      "code": "KE-34-186205",
      "countryId": 192950,
      "countryCode": "KE",
      "stateCode": "KE-34",
      "latitude": -0.66566,
      "longitude": 34.99632
    },
    {
      "id": 11964327,
      "name": "Moturumesi",
      "nativeName": "Moturumesi",
      "code": "KE-34-11964327",
      "countryId": 192950,
      "countryCode": "KE",
      "stateCode": "KE-34",
      "latitude": -0.71812,
      "longitude": 34.90487
    },
    {
      "id": 186690,
      "name": "Mukomoni",
      "nativeName": "Mukomoni",
      "code": "KE-34-186690",
      "countryId": 192950,
      "countryCode": "KE",
      "stateCode": "KE-34",
      "latitude": -0.61481,
      "longitude": 35.02743
    },
    {
      "id": 185475,
      "name": "Musereita",
      "nativeName": "Musereita",
      "code": "KE-34-185475",
      "countryId": 192950,
      "countryCode": "KE",
      "stateCode": "KE-34",
      "latitude": -0.68333,
      "longitude": 35.05
    },
    {
      "id": 11964365,
      "name": "Mwangoris",
      "nativeName": "Mwangoris",
      "code": "KE-34-11964365",
      "countryId": 192950,
      "countryCode": "KE",
      "stateCode": "KE-34",
      "latitude": -0.69433,
      "longitude": 35.03197
    },
    {
      "id": 184762,
      "name": "Naikuro",
      "nativeName": "Naikuro",
      "code": "KE-34-184762",
      "countryId": 192950,
      "countryCode": "KE",
      "stateCode": "KE-34",
      "latitude": -0.62531,
      "longitude": 34.88268
    },
    {
      "id": 183641,
      "name": "Ng’oino",
      "nativeName": "Ng’oino",
      "code": "KE-34-183641",
      "countryId": 192950,
      "countryCode": "KE",
      "stateCode": "KE-34",
      "latitude": -0.52034,
      "longitude": 35.04681
    },
    {
      "id": 183173,
      "name": "Ntana",
      "nativeName": "Ntana",
      "code": "KE-34-183173",
      "countryId": 192950,
      "countryCode": "KE",
      "stateCode": "KE-34",
      "latitude": -0.51139,
      "longitude": 34.93836
    },
    {
      "id": 183085,
      "name": "Nyabiosi",
      "nativeName": "Nyabiosi",
      "code": "KE-34-183085",
      "countryId": 192950,
      "countryCode": "KE",
      "stateCode": "KE-34",
      "latitude": -0.72705,
      "longitude": 34.98322
    },
    {
      "id": 11964314,
      "name": "Nyabioto",
      "nativeName": "Nyabioto",
      "code": "KE-34-11964314",
      "countryId": 192950,
      "countryCode": "KE",
      "stateCode": "KE-34",
      "latitude": -0.61661,
      "longitude": 34.87626
    },
    {
      "id": 183077,
      "name": "Nyabite",
      "nativeName": "Nyabite",
      "code": "KE-34-183077",
      "countryId": 192950,
      "countryCode": "KE",
      "stateCode": "KE-34",
      "latitude": -0.55211,
      "longitude": 34.92439
    },
    {
      "id": 183060,
      "name": "Nyachichi",
      "nativeName": "Nyachichi",
      "code": "KE-34-183060",
      "countryId": 192950,
      "countryCode": "KE",
      "stateCode": "KE-34",
      "latitude": -0.68421,
      "longitude": 34.82568
    },
    {
      "id": 183057,
      "name": "Nyachogochogo",
      "nativeName": "Nyachogochogo",
      "code": "KE-34-183057",
      "countryId": 192950,
      "countryCode": "KE",
      "stateCode": "KE-34",
      "latitude": -0.64958,
      "longitude": 34.93101
    },
    {
      "id": 11964305,
      "name": "Nyageita",
      "nativeName": "Nyageita",
      "code": "KE-34-11964305",
      "countryId": 192950,
      "countryCode": "KE",
      "stateCode": "KE-34",
      "latitude": -0.49117,
      "longitude": 34.95583
    },
    {
      "id": 11964320,
      "name": "Nyaguka",
      "nativeName": "Nyaguka",
      "code": "KE-34-11964320",
      "countryId": 192950,
      "countryCode": "KE",
      "stateCode": "KE-34",
      "latitude": -0.66367,
      "longitude": 34.876
    },
    {
      "id": 11964313,
      "name": "Nyainagu",
      "nativeName": "Nyainagu",
      "code": "KE-34-11964313",
      "countryId": 192950,
      "countryCode": "KE",
      "stateCode": "KE-34",
      "latitude": -0.61461,
      "longitude": 34.96419
    },
    {
      "id": 183002,
      "name": "Nyakemincha",
      "nativeName": "Nyakemincha",
      "code": "KE-34-183002",
      "countryId": 192950,
      "countryCode": "KE",
      "stateCode": "KE-34",
      "latitude": -0.61956,
      "longitude": 34.9466
    },
    {
      "id": 11964304,
      "name": "Nyakenimo",
      "nativeName": "Nyakenimo",
      "code": "KE-34-11964304",
      "countryId": 192950,
      "countryCode": "KE",
      "stateCode": "KE-34",
      "latitude": -0.48198,
      "longitude": 34.95078
    },
    {
      "id": 182985,
      "name": "Nyakongo",
      "nativeName": "Nyakongo",
      "code": "KE-34-182985",
      "countryId": 192950,
      "countryCode": "KE",
      "stateCode": "KE-34",
      "latitude": -0.70251,
      "longitude": 34.99045
    },
    {
      "id": 11964308,
      "name": "Nyamaiya",
      "nativeName": "Nyamaiya",
      "code": "KE-34-11964308",
      "countryId": 192950,
      "countryCode": "KE",
      "stateCode": "KE-34",
      "latitude": -0.52217,
      "longitude": 34.9143
    },
    {
      "id": 182931,
      "name": "Nyamakoroto",
      "nativeName": "Nyamakoroto",
      "code": "KE-34-182931",
      "countryId": 192950,
      "countryCode": "KE",
      "stateCode": "KE-34",
      "latitude": -0.69725,
      "longitude": 34.95014
    },
    {
      "id": 182906,
      "name": "Nyambaria",
      "nativeName": "Nyambaria",
      "code": "KE-34-182906",
      "countryId": 192950,
      "countryCode": "KE",
      "stateCode": "KE-34",
      "latitude": -0.6733,
      "longitude": 34.91403
    },
    {
      "id": 182881,
      "name": "Nyamira",
      "nativeName": "Nyamira",
      "code": "KE-34-182881",
      "countryId": 192950,
      "countryCode": "KE",
      "stateCode": "KE-34",
      "latitude": -0.54421,
      "longitude": 34.88328
    },
    {
      "id": 182879,
      "name": "Nyamiranga",
      "nativeName": "Nyamiranga",
      "code": "KE-34-182879",
      "countryId": 192950,
      "countryCode": "KE",
      "stateCode": "KE-34",
      "latitude": -0.6009,
      "longitude": 35.02515
    },
    {
      "id": 182860,
      "name": "Nyamusi",
      "nativeName": "Nyamusi",
      "code": "KE-34-182860",
      "countryId": 192950,
      "countryCode": "KE",
      "stateCode": "KE-34",
      "latitude": -0.48263,
      "longitude": 34.97191
    },
    {
      "id": 182808,
      "name": "Nyangoge",
      "nativeName": "Nyangoge",
      "code": "KE-34-182808",
      "countryId": 192950,
      "countryCode": "KE",
      "stateCode": "KE-34",
      "latitude": -0.57478,
      "longitude": 34.96734
    },
    {
      "id": 11964321,
      "name": "Nyangori",
      "nativeName": "Nyangori",
      "code": "KE-34-11964321",
      "countryId": 192950,
      "countryCode": "KE",
      "stateCode": "KE-34",
      "latitude": -0.69763,
      "longitude": 34.9154
    },
    {
      "id": 11964328,
      "name": "Nyankoba",
      "nativeName": "Nyankoba",
      "code": "KE-34-11964328",
      "countryId": 192950,
      "countryCode": "KE",
      "stateCode": "KE-34",
      "latitude": -0.75208,
      "longitude": 34.91015
    },
    {
      "id": 12718634,
      "name": "Nyansiongo",
      "nativeName": "Nyansiongo",
      "code": "KE-34-12718634",
      "countryId": 192950,
      "countryCode": "KE",
      "stateCode": "KE-34",
      "latitude": -0.7596,
      "longitude": 35.0148
    },
    {
      "id": 182751,
      "name": "Nyaramba",
      "nativeName": "Nyaramba",
      "code": "KE-34-182751",
      "countryId": 192950,
      "countryCode": "KE",
      "stateCode": "KE-34",
      "latitude": -0.56185,
      "longitude": 34.97505
    },
    {
      "id": 182538,
      "name": "Obwari",
      "nativeName": "Obwari",
      "code": "KE-34-182538",
      "countryId": 192950,
      "countryCode": "KE",
      "stateCode": "KE-34",
      "latitude": -0.51863,
      "longitude": 34.97845
    },
    {
      "id": 11964319,
      "name": "Omogwa",
      "nativeName": "Omogwa",
      "code": "KE-34-11964319",
      "countryId": 192950,
      "countryCode": "KE",
      "stateCode": "KE-34",
      "latitude": -0.65683,
      "longitude": 34.85846
    },
    {
      "id": 11964303,
      "name": "Orwaki",
      "nativeName": "Orwaki",
      "code": "KE-34-11964303",
      "countryId": 192950,
      "countryCode": "KE",
      "stateCode": "KE-34",
      "latitude": -0.47786,
      "longitude": 34.95014
    },
    {
      "id": 181745,
      "name": "Otanyore",
      "nativeName": "Otanyore",
      "code": "KE-34-181745",
      "countryId": 192950,
      "countryCode": "KE",
      "stateCode": "KE-34",
      "latitude": -0.55665,
      "longitude": 34.909
    },
    {
      "id": 181353,
      "name": "Rangenyo",
      "nativeName": "Rangenyo",
      "code": "KE-34-181353",
      "countryId": 192950,
      "countryCode": "KE",
      "stateCode": "KE-34",
      "latitude": -0.53184,
      "longitude": 34.90571
    },
    {
      "id": 181251,
      "name": "Riamoni",
      "nativeName": "Riamoni",
      "code": "KE-34-181251",
      "countryId": 192950,
      "countryCode": "KE",
      "stateCode": "KE-34",
      "latitude": -0.69187,
      "longitude": 34.99386
    },
    {
      "id": 181222,
      "name": "Rigoma",
      "nativeName": "Rigoma",
      "code": "KE-34-181222",
      "countryId": 192950,
      "countryCode": "KE",
      "stateCode": "KE-34",
      "latitude": -0.72633,
      "longitude": 34.92506
    },
    {
      "id": 11964322,
      "name": "Rigoma",
      "nativeName": "Rigoma",
      "code": "KE-34-11964322",
      "countryId": 192950,
      "countryCode": "KE",
      "stateCode": "KE-34",
      "latitude": -0.70199,
      "longitude": 34.91616
    },
    {
      "id": 181219,
      "name": "Rikenye",
      "nativeName": "Rikenye",
      "code": "KE-34-181219",
      "countryId": 192950,
      "countryCode": "KE",
      "stateCode": "KE-34",
      "latitude": -0.74598,
      "longitude": 34.94472
    },
    {
      "id": 180081,
      "name": "Sironga",
      "nativeName": "Sironga",
      "code": "KE-34-180081",
      "countryId": 192950,
      "countryCode": "KE",
      "stateCode": "KE-34",
      "latitude": -0.59186,
      "longitude": 34.9189
    },
    {
      "id": 179456,
      "name": "Teresi",
      "nativeName": "Teresi",
      "code": "KE-34-179456",
      "countryId": 192950,
      "countryCode": "KE",
      "stateCode": "KE-34",
      "latitude": -0.55276,
      "longitude": 34.98764
    },
    {
      "id": 179110,
      "name": "Tombe",
      "nativeName": "Tombe",
      "code": "KE-34-179110",
      "countryId": 192950,
      "countryCode": "KE",
      "stateCode": "KE-34",
      "latitude": -0.65369,
      "longitude": 34.87447
    }
  ]
}