{
  "stateId": 7667661,
  "stateCode": "KE-36",
  "countryCode": "KE",
  "cities": [
    {
      "id": 182701,
      "name": "Nyeri",
      "nativeName": "Nyeri",
      "code": "KE-36-182701",
      "countryId": 192950,
      "countryCode": "KE",
      "stateCode": "KE-36",
      "latitude": -0.42013,
      "longitude": 36.94759
    },
    {
      "id": 200493,
      "name": "Bellevue",
      "nativeName": "Bellevue",
      "code": "KE-36-200493",
      "countryId": 192950,
      "countryCode": "KE",
      "stateCode": "KE-36",
      "latitude": -0.23279,
      "longitude": 36.71645
    },
    {
      "id": 200412,
      "name": "Birithia",
      "nativeName": "Birithia",
      "code": "KE-36-200412",
      "countryId": 192950,
      "countryCode": "KE",
      "stateCode": "KE-36",
      "latitude": -0.52391,
      "longitude": 36.94395
    },
    {
      "id": 12718625,
      "name": "Chaka",
      "nativeName": "Chaka",
      "code": "KE-36-12718625",
      "countryId": 192950,
      "countryCode": "KE",
      "stateCode": "KE-36",
      "latitude": -0.35973,
      "longitude": 37.00002
    },
    {
      "id": 199836,
      "name": "Chang’onde",
      "nativeName": "Chang’onde",
      "code": "KE-36-199836",
      "countryId": 192950,
      "countryCode": "KE",
      "stateCode": "KE-36",
      "latitude": -0.46667,
      "longitude": 36.91667
    },
    {
      "id": 199704,
      "name": "Chehe",
      "nativeName": "Chehe",
      "code": "KE-36-199704",
      "countryId": 192950,
      "countryCode": "KE",
      "stateCode": "KE-36",
      "latitude": -0.41423,
      "longitude": 37.19391
    },
    {
      "id": 199449,
      "name": "Cheronge",
      "nativeName": "Cheronge",
      "code": "KE-36-199449",
      "countryId": 192950,
      "countryCode": "KE",
      "stateCode": "KE-36",
      "latitude": -0.45,
      "longitude": 36.96667
    },
    {
      "id": 8605151,
      "name": "Endarasha",
      "nativeName": "Endarasha",
      "code": "KE-36-8605151",
      "countryId": 192950,
      "countryCode": "KE",
      "stateCode": "KE-36",
      "latitude": -0.3055,
      "longitude": 36.79596
    },
    {
      "id": 198361,
      "name": "Endarasha Settlement",
      "nativeName": "Endarasha Settlement",
      "code": "KE-36-198361",
      "countryId": 192950,
      "countryCode": "KE",
      "stateCode": "KE-36",
      "latitude": -0.29569,
      "longitude": 36.79693
    },
    {
      "id": 197971,
      "name": "Gachatha",
      "nativeName": "Gachatha",
      "code": "KE-36-197971",
      "countryId": 192950,
      "countryCode": "KE",
      "stateCode": "KE-36",
      "latitude": -0.49281,
      "longitude": 36.94132
    },
    {
      "id": 197962,
      "name": "Gachika",
      "nativeName": "Gachika",
      "code": "KE-36-197962",
      "countryId": 192950,
      "countryCode": "KE",
      "stateCode": "KE-36",
      "latitude": -0.42086,
      "longitude": 37.04419
    },
    {
      "id": 197955,
      "name": "Gachirero",
      "nativeName": "Gachirero",
      "code": "KE-36-197955",
      "countryId": 192950,
      "countryCode": "KE",
      "stateCode": "KE-36",
      "latitude": -0.55,
      "longitude": 37.05
    },
    {
      "id": 197945,
      "name": "Gachuiro",
      "nativeName": "Gachuiro",
      "code": "KE-36-197945",
      "countryId": 192950,
      "countryCode": "KE",
      "stateCode": "KE-36",
      "latitude": -0.42049,
      "longitude": 37.07133
    },
    {
      "id": 197943,
      "name": "Gachuku",
      "nativeName": "Gachuku",
      "code": "KE-36-197943",
      "countryId": 192950,
      "countryCode": "KE",
      "stateCode": "KE-36",
      "latitude": -0.52106,
      "longitude": 37.11699
    },
    {
      "id": 197912,
      "name": "Gaikundo",
      "nativeName": "Gaikundo",
      "code": "KE-36-197912",
      "countryId": 192950,
      "countryCode": "KE",
      "stateCode": "KE-36",
      "latitude": -0.53333,
      "longitude": 37
    },
    {
      "id": 197911,
      "name": "Gaikuyu",
      "nativeName": "Gaikuyu",
      "code": "KE-36-197911",
      "countryId": 192950,
      "countryCode": "KE",
      "stateCode": "KE-36",
      "latitude": -0.40172,
      "longitude": 37.14562
    },
    {
      "id": 197899,
      "name": "Gakanga",
      "nativeName": "Gakanga",
      "code": "KE-36-197899",
      "countryId": 192950,
      "countryCode": "KE",
      "stateCode": "KE-36",
      "latitude": -0.44143,
      "longitude": 36.83224
    },
    {
      "id": 197687,
      "name": "Gathaithi",
      "nativeName": "Gathaithi",
      "code": "KE-36-197687",
      "countryId": 192950,
      "countryCode": "KE",
      "stateCode": "KE-36",
      "latitude": -0.51667,
      "longitude": 37
    },
    {
      "id": 197669,
      "name": "Gathanji",
      "nativeName": "Gathanji",
      "code": "KE-36-197669",
      "countryId": 192950,
      "countryCode": "KE",
      "stateCode": "KE-36",
      "latitude": -0.52567,
      "longitude": 37.01605
    },
    {
      "id": 197668,
      "name": "Gathanji",
      "nativeName": "Gathanji",
      "code": "KE-36-197668",
      "countryId": 192950,
      "countryCode": "KE",
      "stateCode": "KE-36",
      "latitude": -0.6,
      "longitude": 36.91667
    },
    {
      "id": 197656,
      "name": "Gathethu",
      "nativeName": "Gathethu",
      "code": "KE-36-197656",
      "countryId": 192950,
      "countryCode": "KE",
      "stateCode": "KE-36",
      "latitude": -0.4113,
      "longitude": 37.15426
    },
    {
      "id": 197612,
      "name": "Gathumbi",
      "nativeName": "Gathumbi",
      "code": "KE-36-197612",
      "countryId": 192950,
      "countryCode": "KE",
      "stateCode": "KE-36",
      "latitude": -0.53323,
      "longitude": 36.90552
    },
    {
      "id": 197610,
      "name": "Gathungururu",
      "nativeName": "Gathungururu",
      "code": "KE-36-197610",
      "countryId": 192950,
      "countryCode": "KE",
      "stateCode": "KE-36",
      "latitude": -0.55,
      "longitude": 37.01667
    },
    {
      "id": 197608,
      "name": "Gathuthi",
      "nativeName": "Gathuthi",
      "code": "KE-36-197608",
      "countryId": 192950,
      "countryCode": "KE",
      "stateCode": "KE-36",
      "latitude": -0.49177,
      "longitude": 36.88548
    },
    {
      "id": 197595,
      "name": "Gatina",
      "nativeName": "Gatina",
      "code": "KE-36-197595",
      "countryId": 192950,
      "countryCode": "KE",
      "stateCode": "KE-36",
      "latitude": -0.55,
      "longitude": 37.13333
    },
    {
      "id": 197588,
      "name": "Gatitu",
      "nativeName": "Gatitu",
      "code": "KE-36-197588",
      "countryId": 192950,
      "countryCode": "KE",
      "stateCode": "KE-36",
      "latitude": -0.45901,
      "longitude": 36.99797
    },
    {
      "id": 197571,
      "name": "Gatugi One",
      "nativeName": "Gatugi One",
      "code": "KE-36-197571",
      "countryId": 192950,
      "countryCode": "KE",
      "stateCode": "KE-36",
      "latitude": -0.51667,
      "longitude": 36.96667
    },
    {
      "id": 197570,
      "name": "Gatugi Two",
      "nativeName": "Gatugi Two",
      "code": "KE-36-197570",
      "countryId": 192950,
      "countryCode": "KE",
      "stateCode": "KE-36",
      "latitude": -0.53333,
      "longitude": 36.96667
    },
    {
      "id": 197563,
      "name": "Gatumbiru",
      "nativeName": "Gatumbiru",
      "code": "KE-36-197563",
      "countryId": 192950,
      "countryCode": "KE",
      "stateCode": "KE-36",
      "latitude": -0.46538,
      "longitude": 36.86654
    },
    {
      "id": 197555,
      "name": "Gatundu",
      "nativeName": "Gatundu",
      "code": "KE-36-197555",
      "countryId": 192950,
      "countryCode": "KE",
      "stateCode": "KE-36",
      "latitude": -0.52423,
      "longitude": 37.14012
    },
    {
      "id": 197561,
      "name": "Gatundu",
      "nativeName": "Gatundu",
      "code": "KE-36-197561",
      "countryId": 192950,
      "countryCode": "KE",
      "stateCode": "KE-36",
      "latitude": -0.56667,
      "longitude": 36.91667
    },
    {
      "id": 197548,
      "name": "Gatunganga",
      "nativeName": "Gatunganga",
      "code": "KE-36-197548",
      "countryId": 192950,
      "countryCode": "KE",
      "stateCode": "KE-36",
      "latitude": -0.41231,
      "longitude": 37.04637
    },
    {
      "id": 197541,
      "name": "Gatura",
      "nativeName": "Gatura",
      "code": "KE-36-197541",
      "countryId": 192950,
      "countryCode": "KE",
      "stateCode": "KE-36",
      "latitude": -0.54122,
      "longitude": 37.03612
    },
    {
      "id": 197536,
      "name": "Gaturi",
      "nativeName": "Gaturi",
      "code": "KE-36-197536",
      "countryId": 192950,
      "countryCode": "KE",
      "stateCode": "KE-36",
      "latitude": -0.45,
      "longitude": 36.85
    },
    {
      "id": 197532,
      "name": "Gaturiri",
      "nativeName": "Gaturiri",
      "code": "KE-36-197532",
      "countryId": 192950,
      "countryCode": "KE",
      "stateCode": "KE-36",
      "latitude": -0.5,
      "longitude": 37.11667
    },
    {
      "id": 197526,
      "name": "Gatuyaini",
      "nativeName": "Gatuyaini",
      "code": "KE-36-197526",
      "countryId": 192950,
      "countryCode": "KE",
      "stateCode": "KE-36",
      "latitude": -0.54607,
      "longitude": 36.93376
    },
    {
      "id": 197428,
      "name": "Giachamwengi",
      "nativeName": "Giachamwengi",
      "code": "KE-36-197428",
      "countryId": 192950,
      "countryCode": "KE",
      "stateCode": "KE-36",
      "latitude": -0.45661,
      "longitude": 36.94833
    },
    {
      "id": 197423,
      "name": "Giagatika",
      "nativeName": "Giagatika",
      "code": "KE-36-197423",
      "countryId": 192950,
      "countryCode": "KE",
      "stateCode": "KE-36",
      "latitude": -0.48333,
      "longitude": 37.08333
    },
    {
      "id": 197421,
      "name": "Giaitu",
      "nativeName": "Giaitu",
      "code": "KE-36-197421",
      "countryId": 192950,
      "countryCode": "KE",
      "stateCode": "KE-36",
      "latitude": -0.48571,
      "longitude": 37.09876
    },
    {
      "id": 197419,
      "name": "Giakaibii",
      "nativeName": "Giakaibii",
      "code": "KE-36-197419",
      "countryId": 192950,
      "countryCode": "KE",
      "stateCode": "KE-36",
      "latitude": -0.41667,
      "longitude": 37.15
    },
    {
      "id": 197416,
      "name": "Giakibii",
      "nativeName": "Giakibii",
      "code": "KE-36-197416",
      "countryId": 192950,
      "countryCode": "KE",
      "stateCode": "KE-36",
      "latitude": -0.41667,
      "longitude": 37.15
    },
    {
      "id": 197406,
      "name": "Giathugu One",
      "nativeName": "Giathugu One",
      "code": "KE-36-197406",
      "countryId": 192950,
      "countryCode": "KE",
      "stateCode": "KE-36",
      "latitude": -0.58333,
      "longitude": 37.1
    },
    {
      "id": 197405,
      "name": "Giathugu Two",
      "nativeName": "Giathugu Two",
      "code": "KE-36-197405",
      "countryId": 192950,
      "countryCode": "KE",
      "stateCode": "KE-36",
      "latitude": -0.58333,
      "longitude": 37.08333
    },
    {
      "id": 197969,
      "name": "Gichichi",
      "nativeName": "Gichichi",
      "code": "KE-36-197969",
      "countryId": 192950,
      "countryCode": "KE",
      "stateCode": "KE-36",
      "latitude": -0.574,
      "longitude": 36.93202
    },
    {
      "id": 197383,
      "name": "Gichira",
      "nativeName": "Gichira",
      "code": "KE-36-197383",
      "countryId": 192950,
      "countryCode": "KE",
      "stateCode": "KE-36",
      "latitude": -0.46667,
      "longitude": 37.01667
    },
    {
      "id": 197352,
      "name": "Gikondi",
      "nativeName": "Gikondi",
      "code": "KE-36-197352",
      "countryId": 192950,
      "countryCode": "KE",
      "stateCode": "KE-36",
      "latitude": -0.60634,
      "longitude": 37.06796
    },
    {
      "id": 197294,
      "name": "Gitathi-ini",
      "nativeName": "Gitathi-ini",
      "code": "KE-36-197294",
      "countryId": 192950,
      "countryCode": "KE",
      "stateCode": "KE-36",
      "latitude": -0.43333,
      "longitude": 36.93333
    },
    {
      "id": 197291,
      "name": "Gitero",
      "nativeName": "Gitero",
      "code": "KE-36-197291",
      "countryId": 192950,
      "countryCode": "KE",
      "stateCode": "KE-36",
      "latitude": -0.44984,
      "longitude": 36.93588
    },
    {
      "id": 197286,
      "name": "Githakwa",
      "nativeName": "Githakwa",
      "code": "KE-36-197286",
      "countryId": 192950,
      "countryCode": "KE",
      "stateCode": "KE-36",
      "latitude": -0.46603,
      "longitude": 36.90011
    },
    {
      "id": 197269,
      "name": "Githerere",
      "nativeName": "Githerere",
      "code": "KE-36-197269",
      "countryId": 192950,
      "countryCode": "KE",
      "stateCode": "KE-36",
      "latitude": -0.48333,
      "longitude": 36.86667
    },
    {
      "id": 197255,
      "name": "Githima",
      "nativeName": "Githima",
      "code": "KE-36-197255",
      "countryId": 192950,
      "countryCode": "KE",
      "stateCode": "KE-36",
      "latitude": -0.48333,
      "longitude": 37.1
    },
    {
      "id": 197256,
      "name": "Githima",
      "nativeName": "Githima",
      "code": "KE-36-197256",
      "countryId": 192950,
      "countryCode": "KE",
      "stateCode": "KE-36",
      "latitude": -0.43333,
      "longitude": 37.06667
    },
    {
      "id": 197257,
      "name": "Githima",
      "nativeName": "Githima",
      "code": "KE-36-197257",
      "countryId": 192950,
      "countryCode": "KE",
      "stateCode": "KE-36",
      "latitude": -0.41667,
      "longitude": 36.86667
    },
    {
      "id": 197240,
      "name": "Githiru",
      "nativeName": "Githiru",
      "code": "KE-36-197240",
      "countryId": 192950,
      "countryCode": "KE",
      "stateCode": "KE-36",
      "latitude": -0.45,
      "longitude": 37.01667
    },
    {
      "id": 197225,
      "name": "Githunguri",
      "nativeName": "Githunguri",
      "code": "KE-36-197225",
      "countryId": 192950,
      "countryCode": "KE",
      "stateCode": "KE-36",
      "latitude": -0.55,
      "longitude": 37.1
    },
    {
      "id": 197200,
      "name": "Gititu",
      "nativeName": "Gititu",
      "code": "KE-36-197200",
      "countryId": 192950,
      "countryCode": "KE",
      "stateCode": "KE-36",
      "latitude": -0.50268,
      "longitude": 37.01299
    },
    {
      "id": 197233,
      "name": "Gitugi",
      "nativeName": "Gitugi",
      "code": "KE-36-197233",
      "countryId": 192950,
      "countryCode": "KE",
      "stateCode": "KE-36",
      "latitude": -0.51692,
      "longitude": 36.85293
    },
    {
      "id": 183484,
      "name": "Gumba",
      "nativeName": "Gumba",
      "code": "KE-36-183484",
      "countryId": 192950,
      "countryCode": "KE",
      "stateCode": "KE-36",
      "latitude": -0.60461,
      "longitude": 37.13694
    },
    {
      "id": 196817,
      "name": "Hatha-ini",
      "nativeName": "Hatha-ini",
      "code": "KE-36-196817",
      "countryId": 192950,
      "countryCode": "KE",
      "stateCode": "KE-36",
      "latitude": -0.5,
      "longitude": 36.9
    },
    {
      "id": 196635,
      "name": "Hithe",
      "nativeName": "Ihithe",
      "code": "KE-36-196635",
      "countryId": 192950,
      "countryCode": "KE",
      "stateCode": "KE-36",
      "latitude": -0.48134,
      "longitude": 36.86517
    },
    {
      "id": 196735,
      "name": "Hombe",
      "nativeName": "Hombe",
      "code": "KE-36-196735",
      "countryId": 192950,
      "countryCode": "KE",
      "stateCode": "KE-36",
      "latitude": -0.34892,
      "longitude": 37.09631
    },
    {
      "id": 196722,
      "name": "Huguini",
      "nativeName": "Huguini",
      "code": "KE-36-196722",
      "countryId": 192950,
      "countryCode": "KE",
      "stateCode": "KE-36",
      "latitude": -0.48783,
      "longitude": 36.85834
    },
    {
      "id": 196719,
      "name": "Huho-ini",
      "nativeName": "Huho-ini",
      "code": "KE-36-196719",
      "countryId": 192950,
      "countryCode": "KE",
      "stateCode": "KE-36",
      "latitude": -0.4516,
      "longitude": 36.87006
    },
    {
      "id": 196720,
      "name": "Huhoini",
      "nativeName": "Huhoini",
      "code": "KE-36-196720",
      "countryId": 192950,
      "countryCode": "KE",
      "stateCode": "KE-36",
      "latitude": -0.51667,
      "longitude": 37.01667
    },
    {
      "id": 196678,
      "name": "Ichagachiru",
      "nativeName": "Ichagachiru",
      "code": "KE-36-196678",
      "countryId": 192950,
      "countryCode": "KE",
      "stateCode": "KE-36",
      "latitude": -0.43876,
      "longitude": 36.8559
    },
    {
      "id": 196676,
      "name": "Ichamara",
      "nativeName": "Ichamara",
      "code": "KE-36-196676",
      "countryId": 192950,
      "countryCode": "KE",
      "stateCode": "KE-36",
      "latitude": -0.55,
      "longitude": 37.08333
    },
    {
      "id": 196628,
      "name": "Ihuririo",
      "nativeName": "Ihuririo",
      "code": "KE-36-196628",
      "countryId": 192950,
      "countryCode": "KE",
      "stateCode": "KE-36",
      "latitude": -0.5504,
      "longitude": 36.86878
    },
    {
      "id": 196626,
      "name": "Ihururu",
      "nativeName": "Ihururu",
      "code": "KE-36-196626",
      "countryId": 192950,
      "countryCode": "KE",
      "stateCode": "KE-36",
      "latitude": -0.411,
      "longitude": 36.89213
    },
    {
      "id": 196631,
      "name": "Ihwa",
      "nativeName": "Ihwa",
      "code": "KE-36-196631",
      "countryId": 192950,
      "countryCode": "KE",
      "stateCode": "KE-36",
      "latitude": -0.42584,
      "longitude": 36.86794
    },
    {
      "id": 196624,
      "name": "Ihwagi",
      "nativeName": "Ihwagi",
      "code": "KE-36-196624",
      "countryId": 192950,
      "countryCode": "KE",
      "stateCode": "KE-36",
      "latitude": -0.44496,
      "longitude": 37.14765
    },
    {
      "id": 196265,
      "name": "Iruri",
      "nativeName": "Iruri",
      "code": "KE-36-196265",
      "countryId": 192950,
      "countryCode": "KE",
      "stateCode": "KE-36",
      "latitude": -0.35791,
      "longitude": 37.09003
    },
    {
      "id": 196174,
      "name": "Ithaithi",
      "nativeName": "Ithaithi",
      "code": "KE-36-196174",
      "countryId": 192950,
      "countryCode": "KE",
      "stateCode": "KE-36",
      "latitude": -0.46667,
      "longitude": 37.06667
    },
    {
      "id": 196161,
      "name": "Ithanji",
      "nativeName": "Ithanji",
      "code": "KE-36-196161",
      "countryId": 192950,
      "countryCode": "KE",
      "stateCode": "KE-36",
      "latitude": -0.53333,
      "longitude": 37.05
    },
    {
      "id": 196153,
      "name": "Ithekahuno",
      "nativeName": "Ithekahuno",
      "code": "KE-36-196153",
      "countryId": 192950,
      "countryCode": "KE",
      "stateCode": "KE-36",
      "latitude": -0.50882,
      "longitude": 37.04546
    },
    {
      "id": 196147,
      "name": "Ithenguri",
      "nativeName": "Ithenguri",
      "code": "KE-36-196147",
      "countryId": 192950,
      "countryCode": "KE",
      "stateCode": "KE-36",
      "latitude": -0.46667,
      "longitude": 36.96667
    },
    {
      "id": 196112,
      "name": "Itiati",
      "nativeName": "Itiati",
      "code": "KE-36-196112",
      "countryId": 192950,
      "countryCode": "KE",
      "stateCode": "KE-36",
      "latitude": -0.41667,
      "longitude": 37.1
    },
    {
      "id": 196064,
      "name": "Itundu",
      "nativeName": "Itundu",
      "code": "KE-36-196064",
      "countryId": 192950,
      "countryCode": "KE",
      "stateCode": "KE-36",
      "latitude": -0.41449,
      "longitude": 37.18448
    },
    {
      "id": 195877,
      "name": "Kaagogi",
      "nativeName": "Kaagogi",
      "code": "KE-36-195877",
      "countryId": 192950,
      "countryCode": "KE",
      "stateCode": "KE-36",
      "latitude": -0.43333,
      "longitude": 36.9
    },
    {
      "id": 195848,
      "name": "Kabage",
      "nativeName": "Kabage",
      "code": "KE-36-195848",
      "countryId": 192950,
      "countryCode": "KE",
      "stateCode": "KE-36",
      "latitude": -0.40436,
      "longitude": 36.82127
    },
    {
      "id": 195815,
      "name": "Kabaru",
      "nativeName": "Kabaru",
      "code": "KE-36-195815",
      "countryId": 192950,
      "countryCode": "KE",
      "stateCode": "KE-36",
      "latitude": -0.28047,
      "longitude": 37.15656
    },
    {
      "id": 195799,
      "name": "Kabebero",
      "nativeName": "Kabebero",
      "code": "KE-36-195799",
      "countryId": 192950,
      "countryCode": "KE",
      "stateCode": "KE-36",
      "latitude": -0.54984,
      "longitude": 36.86945
    },
    {
      "id": 195552,
      "name": "Kagarii",
      "nativeName": "Kagarii",
      "code": "KE-36-195552",
      "countryId": 192950,
      "countryCode": "KE",
      "stateCode": "KE-36",
      "latitude": -0.55778,
      "longitude": 37.01024
    },
    {
      "id": 195547,
      "name": "Kagere",
      "nativeName": "Kagere",
      "code": "KE-36-195547",
      "countryId": 192950,
      "countryCode": "KE",
      "stateCode": "KE-36",
      "latitude": -0.50677,
      "longitude": 36.94514
    },
    {
      "id": 195544,
      "name": "Kagicha",
      "nativeName": "Kagicha",
      "code": "KE-36-195544",
      "countryId": 192950,
      "countryCode": "KE",
      "stateCode": "KE-36",
      "latitude": -0.60166,
      "longitude": 36.9012
    },
    {
      "id": 195538,
      "name": "Kagioini",
      "nativeName": "Kagioini",
      "code": "KE-36-195538",
      "countryId": 192950,
      "countryCode": "KE",
      "stateCode": "KE-36",
      "latitude": -0.48333,
      "longitude": 36.9
    },
    {
      "id": 195521,
      "name": "Kagonye",
      "nativeName": "Kagonye",
      "code": "KE-36-195521",
      "countryId": 192950,
      "countryCode": "KE",
      "stateCode": "KE-36",
      "latitude": -0.52346,
      "longitude": 36.90534
    },
    {
      "id": 195513,
      "name": "Kagumo",
      "nativeName": "Kagumo",
      "code": "KE-36-195513",
      "countryId": 192950,
      "countryCode": "KE",
      "stateCode": "KE-36",
      "latitude": -0.53007,
      "longitude": 36.99691
    },
    {
      "id": 195516,
      "name": "Kagumo",
      "nativeName": "Kagumo",
      "code": "KE-36-195516",
      "countryId": 192950,
      "countryCode": "KE",
      "stateCode": "KE-36",
      "latitude": -0.47511,
      "longitude": 36.97561
    },
    {
      "id": 195507,
      "name": "Kagumoini",
      "nativeName": "Kagumoini",
      "code": "KE-36-195507",
      "countryId": 192950,
      "countryCode": "KE",
      "stateCode": "KE-36",
      "latitude": -0.53333,
      "longitude": 37.1
    },
    {
      "id": 195500,
      "name": "Kagundu",
      "nativeName": "Kagundu",
      "code": "KE-36-195500",
      "countryId": 192950,
      "countryCode": "KE",
      "stateCode": "KE-36",
      "latitude": -0.44448,
      "longitude": 36.89204
    },
    {
      "id": 195489,
      "name": "Kagwathi",
      "nativeName": "Kagwathi",
      "code": "KE-36-195489",
      "countryId": 192950,
      "countryCode": "KE",
      "stateCode": "KE-36",
      "latitude": -0.46667,
      "longitude": 36.91667
    },
    {
      "id": 195482,
      "name": "Kahaaro",
      "nativeName": "Kahaaro",
      "code": "KE-36-195482",
      "countryId": 192950,
      "countryCode": "KE",
      "stateCode": "KE-36",
      "latitude": -0.53333,
      "longitude": 37.05
    },
    {
      "id": 195476,
      "name": "Kaharo",
      "nativeName": "Kaharo",
      "code": "KE-36-195476",
      "countryId": 192950,
      "countryCode": "KE",
      "stateCode": "KE-36",
      "latitude": -0.59676,
      "longitude": 37.0698
    },
    {
      "id": 195465,
      "name": "Kahiga",
      "nativeName": "Kahiga",
      "code": "KE-36-195465",
      "countryId": 192950,
      "countryCode": "KE",
      "stateCode": "KE-36",
      "latitude": -0.43763,
      "longitude": 37.04181
    },
    {
      "id": 195464,
      "name": "Kahigaini",
      "nativeName": "Kahigaini",
      "code": "KE-36-195464",
      "countryId": 192950,
      "countryCode": "KE",
      "stateCode": "KE-36",
      "latitude": -0.4,
      "longitude": 36.86667
    },
    {
      "id": 195341,
      "name": "Kairuthi",
      "nativeName": "Kairuthi",
      "code": "KE-36-195341",
      "countryId": 192950,
      "countryCode": "KE",
      "stateCode": "KE-36",
      "latitude": -0.53323,
      "longitude": 36.88768
    },
    {
      "id": 195303,
      "name": "Kaiyaba",
      "nativeName": "Kaiyaba",
      "code": "KE-36-195303",
      "countryId": 192950,
      "countryCode": "KE",
      "stateCode": "KE-36",
      "latitude": -0.47475,
      "longitude": 37.08811
    },
    {
      "id": 194831,
      "name": "Kamatu",
      "nativeName": "Kamatu",
      "code": "KE-36-194831",
      "countryId": 192950,
      "countryCode": "KE",
      "stateCode": "KE-36",
      "latitude": -0.5,
      "longitude": 37.1
    },
    {
      "id": 194658,
      "name": "Kamuchoni",
      "nativeName": "Kamuchoni",
      "code": "KE-36-194658",
      "countryId": 192950,
      "countryCode": "KE",
      "stateCode": "KE-36",
      "latitude": -0.58333,
      "longitude": 37.03333
    },
    {
      "id": 194622,
      "name": "Kamunyaka",
      "nativeName": "Kamunyaka",
      "code": "KE-36-194622",
      "countryId": 192950,
      "countryCode": "KE",
      "stateCode": "KE-36",
      "latitude": -0.48333,
      "longitude": 37.15
    },
    {
      "id": 194577,
      "name": "Kamuyu",
      "nativeName": "Kamuyu",
      "code": "KE-36-194577",
      "countryId": 192950,
      "countryCode": "KE",
      "stateCode": "KE-36",
      "latitude": -0.41667,
      "longitude": 36.91667
    },
    {
      "id": 194568,
      "name": "Kamwenja",
      "nativeName": "Kamwenja",
      "code": "KE-36-194568",
      "countryId": 192950,
      "countryCode": "KE",
      "stateCode": "KE-36",
      "latitude": -0.39738,
      "longitude": 36.91617
    },
    {
      "id": 194482,
      "name": "Kangaita",
      "nativeName": "Kangaita",
      "code": "KE-36-194482",
      "countryId": 192950,
      "countryCode": "KE",
      "stateCode": "KE-36",
      "latitude": -0.49724,
      "longitude": 36.99491
    },
    {
      "id": 194414,
      "name": "Kangoru",
      "nativeName": "Kangoru",
      "code": "KE-36-194414",
      "countryId": 192950,
      "countryCode": "KE",
      "stateCode": "KE-36",
      "latitude": -0.53333,
      "longitude": 37.05
    },
    {
      "id": 194361,
      "name": "Kanjora",
      "nativeName": "Kanjora",
      "code": "KE-36-194361",
      "countryId": 192950,
      "countryCode": "KE",
      "stateCode": "KE-36",
      "latitude": -0.40942,
      "longitude": 36.88032
    },
    {
      "id": 194307,
      "name": "Kanyama",
      "nativeName": "Kanyama",
      "code": "KE-36-194307",
      "countryId": 192950,
      "countryCode": "KE",
      "stateCode": "KE-36",
      "latitude": -0.47329,
      "longitude": 37.09986
    },
    {
      "id": 194274,
      "name": "Kanyinya",
      "nativeName": "Kanyinya",
      "code": "KE-36-194274",
      "countryId": 192950,
      "countryCode": "KE",
      "stateCode": "KE-36",
      "latitude": -0.41906,
      "longitude": 36.84188
    },
    {
      "id": 193827,
      "name": "Karatina",
      "nativeName": "Karatina",
      "code": "KE-36-193827",
      "countryId": 192950,
      "countryCode": "KE",
      "stateCode": "KE-36",
      "latitude": -0.4841,
      "longitude": 37.12662
    },
    {
      "id": 193668,
      "name": "Kariara",
      "nativeName": "Kariara",
      "code": "KE-36-193668",
      "countryId": 192950,
      "countryCode": "KE",
      "stateCode": "KE-36",
      "latitude": -0.61017,
      "longitude": 37.14277
    },
    {
      "id": 193754,
      "name": "Kariguini",
      "nativeName": "Kariguini",
      "code": "KE-36-193754",
      "countryId": 192950,
      "countryCode": "KE",
      "stateCode": "KE-36",
      "latitude": -0.48333,
      "longitude": 36.95
    },
    {
      "id": 193750,
      "name": "Kariko",
      "nativeName": "Kariko",
      "code": "KE-36-193750",
      "countryId": 192950,
      "countryCode": "KE",
      "stateCode": "KE-36",
      "latitude": -0.57685,
      "longitude": 36.88016
    },
    {
      "id": 193746,
      "name": "Karima",
      "nativeName": "Karima",
      "code": "KE-36-193746",
      "countryId": 192950,
      "countryCode": "KE",
      "stateCode": "KE-36",
      "latitude": -0.52107,
      "longitude": 36.98415
    },
    {
      "id": 193729,
      "name": "Karindi",
      "nativeName": "Karindi",
      "code": "KE-36-193729",
      "countryId": 192950,
      "countryCode": "KE",
      "stateCode": "KE-36",
      "latitude": -0.58147,
      "longitude": 37.00298
    },
    {
      "id": 193722,
      "name": "Karingaini",
      "nativeName": "Karingaini",
      "code": "KE-36-193722",
      "countryId": 192950,
      "countryCode": "KE",
      "stateCode": "KE-36",
      "latitude": -0.53333,
      "longitude": 37.06667
    },
    {
      "id": 193693,
      "name": "Karogoto",
      "nativeName": "Karogoto",
      "code": "KE-36-193693",
      "countryId": 192950,
      "countryCode": "KE",
      "stateCode": "KE-36",
      "latitude": -0.5,
      "longitude": 37.1
    },
    {
      "id": 193659,
      "name": "Karundu",
      "nativeName": "Karundu",
      "code": "KE-36-193659",
      "countryId": 192950,
      "countryCode": "KE",
      "stateCode": "KE-36",
      "latitude": -0.57658,
      "longitude": 37.10014
    },
    {
      "id": 193643,
      "name": "Karura",
      "nativeName": "Karura",
      "code": "KE-36-193643",
      "countryId": 192950,
      "countryCode": "KE",
      "stateCode": "KE-36",
      "latitude": -0.45,
      "longitude": 37.13333
    },
    {
      "id": 192899,
      "name": "Kericho",
      "nativeName": "Kericho",
      "code": "KE-36-192899",
      "countryId": 192950,
      "countryCode": "KE",
      "stateCode": "KE-36",
      "latitude": -0.41074,
      "longitude": 37.02313
    },
    {
      "id": 192766,
      "name": "Kiaguthu",
      "nativeName": "Kiaguthu",
      "code": "KE-36-192766",
      "countryId": 192950,
      "countryCode": "KE",
      "stateCode": "KE-36",
      "latitude": -0.59387,
      "longitude": 36.94892
    },
    {
      "id": 192747,
      "name": "Kiamabara",
      "nativeName": "Kiamabara",
      "code": "KE-36-192747",
      "countryId": 192950,
      "countryCode": "KE",
      "stateCode": "KE-36",
      "latitude": -0.51667,
      "longitude": 37.11667
    },
    {
      "id": 192734,
      "name": "Kiamariga",
      "nativeName": "Kiamariga",
      "code": "KE-36-192734",
      "countryId": 192950,
      "countryCode": "KE",
      "stateCode": "KE-36",
      "latitude": -0.38524,
      "longitude": 37.08409
    },
    {
      "id": 192732,
      "name": "Kiamathambo",
      "nativeName": "Kiamathambo",
      "code": "KE-36-192732",
      "countryId": 192950,
      "countryCode": "KE",
      "stateCode": "KE-36",
      "latitude": -0.41667,
      "longitude": 36.88333
    },
    {
      "id": 192691,
      "name": "Kiamucheru",
      "nativeName": "Kiamucheru",
      "code": "KE-36-192691",
      "countryId": 192950,
      "countryCode": "KE",
      "stateCode": "KE-36",
      "latitude": -0.41667,
      "longitude": 37.11667
    },
    {
      "id": 192689,
      "name": "Kiamurathe",
      "nativeName": "Kiamurathe",
      "code": "KE-36-192689",
      "countryId": 192950,
      "countryCode": "KE",
      "stateCode": "KE-36",
      "latitude": -0.58333,
      "longitude": 37.03333
    },
    {
      "id": 192678,
      "name": "Kiamuya",
      "nativeName": "Kiamuya",
      "code": "KE-36-192678",
      "countryId": 192950,
      "countryCode": "KE",
      "stateCode": "KE-36",
      "latitude": -0.56667,
      "longitude": 36.96667
    },
    {
      "id": 192674,
      "name": "Kiamwathi",
      "nativeName": "Kiamwathi",
      "code": "KE-36-192674",
      "countryId": 192950,
      "countryCode": "KE",
      "stateCode": "KE-36",
      "latitude": -0.45,
      "longitude": 36.95
    },
    {
      "id": 192655,
      "name": "Kianderi",
      "nativeName": "Kianderi",
      "code": "KE-36-192655",
      "countryId": 192950,
      "countryCode": "KE",
      "stateCode": "KE-36",
      "latitude": -0.48743,
      "longitude": 36.91967
    },
    {
      "id": 192651,
      "name": "Kiandongoro",
      "nativeName": "Kiandongoro",
      "code": "KE-36-192651",
      "countryId": 192950,
      "countryCode": "KE",
      "stateCode": "KE-36",
      "latitude": -0.45,
      "longitude": 36.83333
    },
    {
      "id": 192650,
      "name": "Kiandu",
      "nativeName": "Kiandu",
      "code": "KE-36-192650",
      "countryId": 192950,
      "countryCode": "KE",
      "stateCode": "KE-36",
      "latitude": -0.48871,
      "longitude": 36.96653
    },
    {
      "id": 192644,
      "name": "Kiangai",
      "nativeName": "Kiangai",
      "code": "KE-36-192644",
      "countryId": 192950,
      "countryCode": "KE",
      "stateCode": "KE-36",
      "latitude": -0.50651,
      "longitude": 37.16397
    },
    {
      "id": 192640,
      "name": "Kianganda",
      "nativeName": "Kianganda",
      "code": "KE-36-192640",
      "countryId": 192950,
      "countryCode": "KE",
      "stateCode": "KE-36",
      "latitude": -0.55,
      "longitude": 36.95
    },
    {
      "id": 192639,
      "name": "Kiangararu",
      "nativeName": "Kiangararu",
      "code": "KE-36-192639",
      "countryId": 192950,
      "countryCode": "KE",
      "stateCode": "KE-36",
      "latitude": -0.48333,
      "longitude": 37.13333
    },
    {
      "id": 192626,
      "name": "Kiangoma",
      "nativeName": "Kiangoma",
      "code": "KE-36-192626",
      "countryId": 192950,
      "countryCode": "KE",
      "stateCode": "KE-36",
      "latitude": -0.56717,
      "longitude": 37.06503
    },
    {
      "id": 192554,
      "name": "Kiawaithanji",
      "nativeName": "Kiawaithanji",
      "code": "KE-36-192554",
      "countryId": 192950,
      "countryCode": "KE",
      "stateCode": "KE-36",
      "latitude": -0.48333,
      "longitude": 36.98333
    },
    {
      "id": 192548,
      "name": "Kiawamurathe",
      "nativeName": "Kiawamurathe",
      "code": "KE-36-192548",
      "countryId": 192950,
      "countryCode": "KE",
      "stateCode": "KE-36",
      "latitude": -0.58333,
      "longitude": 37.03333
    },
    {
      "id": 192547,
      "name": "Kiawamururu",
      "nativeName": "Kiawamururu",
      "code": "KE-36-192547",
      "countryId": 192950,
      "countryCode": "KE",
      "stateCode": "KE-36",
      "latitude": -0.5458,
      "longitude": 37.02258
    },
    {
      "id": 192544,
      "name": "Kiawarigi",
      "nativeName": "Kiawarigi",
      "code": "KE-36-192544",
      "countryId": 192950,
      "countryCode": "KE",
      "stateCode": "KE-36",
      "latitude": -0.43333,
      "longitude": 37.1
    },
    {
      "id": 192383,
      "name": "Kibutio",
      "nativeName": "Kibutio",
      "code": "KE-36-192383",
      "countryId": 192950,
      "countryCode": "KE",
      "stateCode": "KE-36",
      "latitude": -0.61196,
      "longitude": 37.0786
    },
    {
      "id": 192295,
      "name": "Kiganjo",
      "nativeName": "Kiganjo",
      "code": "KE-36-192295",
      "countryId": 192950,
      "countryCode": "KE",
      "stateCode": "KE-36",
      "latitude": -0.39626,
      "longitude": 37.00006
    },
    {
      "id": 191490,
      "name": "Kiriti",
      "nativeName": "Kiriti",
      "code": "KE-36-191490",
      "countryId": 192950,
      "countryCode": "KE",
      "stateCode": "KE-36",
      "latitude": -0.43208,
      "longitude": 36.91716
    },
    {
      "id": 191378,
      "name": "Kirungi",
      "nativeName": "Kirungi",
      "code": "KE-36-191378",
      "countryId": 192950,
      "countryCode": "KE",
      "stateCode": "KE-36",
      "latitude": -0.57857,
      "longitude": 37.03276
    },
    {
      "id": 188303,
      "name": "Mahiga",
      "nativeName": "Mahiga",
      "code": "KE-36-188303",
      "countryId": 192950,
      "countryCode": "KE",
      "stateCode": "KE-36",
      "latitude": -0.50165,
      "longitude": 36.87425
    },
    {
      "id": 187574,
      "name": "Marua",
      "nativeName": "Marua",
      "code": "KE-36-187574",
      "countryId": 192950,
      "countryCode": "KE",
      "stateCode": "KE-36",
      "latitude": -0.4545,
      "longitude": 37.0452
    },
    {
      "id": 187368,
      "name": "Mathari",
      "nativeName": "Mathari",
      "code": "KE-36-187368",
      "countryId": 192950,
      "countryCode": "KE",
      "stateCode": "KE-36",
      "latitude": -0.40713,
      "longitude": 36.92117
    },
    {
      "id": 186710,
      "name": "Miirini",
      "nativeName": "Miirini",
      "code": "KE-36-186710",
      "countryId": 192950,
      "countryCode": "KE",
      "stateCode": "KE-36",
      "latitude": -0.56667,
      "longitude": 37.08333
    },
    {
      "id": 186603,
      "name": "Mirundu",
      "nativeName": "Mirundu",
      "code": "KE-36-186603",
      "countryId": 192950,
      "countryCode": "KE",
      "stateCode": "KE-36",
      "latitude": -0.55,
      "longitude": 37.03333
    },
    {
      "id": 186047,
      "name": "Mucharage",
      "nativeName": "Mucharage",
      "code": "KE-36-186047",
      "countryId": 192950,
      "countryCode": "KE",
      "stateCode": "KE-36",
      "latitude": -0.56794,
      "longitude": 36.84747
    },
    {
      "id": 185922,
      "name": "Muirungi",
      "nativeName": "Muirungi",
      "code": "KE-36-185922",
      "countryId": 192950,
      "countryCode": "KE",
      "stateCode": "KE-36",
      "latitude": -0.6,
      "longitude": 36.88333
    },
    {
      "id": 185842,
      "name": "Mukui",
      "nativeName": "Mukui",
      "code": "KE-36-185842",
      "countryId": 192950,
      "countryCode": "KE",
      "stateCode": "KE-36",
      "latitude": -0.6,
      "longitude": 37.06667
    },
    {
      "id": 185815,
      "name": "Mukuruweini",
      "nativeName": "Mukuruweini",
      "code": "KE-36-185815",
      "countryId": 192950,
      "countryCode": "KE",
      "stateCode": "KE-36",
      "latitude": -0.56115,
      "longitude": 37.04474
    },
    {
      "id": 7732029,
      "name": "Mukurwe-ini",
      "nativeName": "Mukurwe-ini",
      "code": "KE-36-7732029",
      "countryId": 192950,
      "countryCode": "KE",
      "stateCode": "KE-36",
      "latitude": -0.56092,
      "longitude": 37.04759
    },
    {
      "id": 185626,
      "name": "Munyange",
      "nativeName": "Munyange",
      "code": "KE-36-185626",
      "countryId": 192950,
      "countryCode": "KE",
      "stateCode": "KE-36",
      "latitude": -0.5094,
      "longitude": 36.8516
    },
    {
      "id": 185514,
      "name": "Muruguru",
      "nativeName": "Muruguru",
      "code": "KE-36-185514",
      "countryId": 192950,
      "countryCode": "KE",
      "stateCode": "KE-36",
      "latitude": -0.45356,
      "longitude": 37.04483
    },
    {
      "id": 185421,
      "name": "Mutathiini",
      "nativeName": "Mutathiini",
      "code": "KE-36-185421",
      "countryId": 192950,
      "countryCode": "KE",
      "stateCode": "KE-36",
      "latitude": -0.45123,
      "longitude": 37.05491
    },
    {
      "id": 185368,
      "name": "Muthinga",
      "nativeName": "Muthinga",
      "code": "KE-36-185368",
      "countryId": 192950,
      "countryCode": "KE",
      "stateCode": "KE-36",
      "latitude": -0.5,
      "longitude": 37.01667
    },
    {
      "id": 185344,
      "name": "Muthuthini",
      "nativeName": "Muthuthiini",
      "code": "KE-36-185344",
      "countryId": 192950,
      "countryCode": "KE",
      "stateCode": "KE-36",
      "latitude": -0.59445,
      "longitude": 37.05429
    },
    {
      "id": 185308,
      "name": "Mutitu",
      "nativeName": "Mutitu",
      "code": "KE-36-185308",
      "countryId": 192950,
      "countryCode": "KE",
      "stateCode": "KE-36",
      "latitude": -0.58333,
      "longitude": 37
    },
    {
      "id": 184983,
      "name": "Mweiga",
      "nativeName": "Mweiga",
      "code": "KE-36-184983",
      "countryId": 192950,
      "countryCode": "KE",
      "stateCode": "KE-36",
      "latitude": -0.31977,
      "longitude": 36.90194
    },
    {
      "id": 184367,
      "name": "Naro Moru",
      "nativeName": "Naro Moru",
      "code": "KE-36-184367",
      "countryId": 192950,
      "countryCode": "KE",
      "stateCode": "KE-36",
      "latitude": -0.16357,
      "longitude": 37.01773
    },
    {
      "id": 184206,
      "name": "Ndaroini",
      "nativeName": "Ndaroini",
      "code": "KE-36-184206",
      "countryId": 192950,
      "countryCode": "KE",
      "stateCode": "KE-36",
      "latitude": -0.5,
      "longitude": 37.15
    },
    {
      "id": 184190,
      "name": "Ndathi",
      "nativeName": "Ndathi",
      "code": "KE-36-184190",
      "countryId": 192950,
      "countryCode": "KE",
      "stateCode": "KE-36",
      "latitude": -0.28833,
      "longitude": 37.10354
    },
    {
      "id": 184102,
      "name": "Ndimaini",
      "nativeName": "Ndimaini",
      "code": "KE-36-184102",
      "countryId": 192950,
      "countryCode": "KE",
      "stateCode": "KE-36",
      "latitude": -0.52255,
      "longitude": 37.14056
    },
    {
      "id": 183998,
      "name": "Nduma",
      "nativeName": "Nduma",
      "code": "KE-36-183998",
      "countryId": 192950,
      "countryCode": "KE",
      "stateCode": "KE-36",
      "latitude": -0.56667,
      "longitude": 37.05
    },
    {
      "id": 183944,
      "name": "Ndurutu",
      "nativeName": "Ndurutu",
      "code": "KE-36-183944",
      "countryId": 192950,
      "countryCode": "KE",
      "stateCode": "KE-36",
      "latitude": -0.43333,
      "longitude": 37.01667
    },
    {
      "id": 183372,
      "name": "Nitimaini",
      "nativeName": "Nitimaini",
      "code": "KE-36-183372",
      "countryId": 192950,
      "countryCode": "KE",
      "stateCode": "KE-36",
      "latitude": -0.43333,
      "longitude": 37.13333
    },
    {
      "id": 183358,
      "name": "Njege",
      "nativeName": "Njege",
      "code": "KE-36-183358",
      "countryId": 192950,
      "countryCode": "KE",
      "stateCode": "KE-36",
      "latitude": -0.56667,
      "longitude": 37.06667
    },
    {
      "id": 183349,
      "name": "Njigari",
      "nativeName": "Njigari",
      "code": "KE-36-183349",
      "countryId": 192950,
      "countryCode": "KE",
      "stateCode": "KE-36",
      "latitude": -0.50339,
      "longitude": 36.8674
    },
    {
      "id": 183010,
      "name": "Nyakahuho",
      "nativeName": "Nyakahuho",
      "code": "KE-36-183010",
      "countryId": 192950,
      "countryCode": "KE",
      "stateCode": "KE-36",
      "latitude": -0.58333,
      "longitude": 37.01667
    },
    {
      "id": 182929,
      "name": "Nyamakuyu",
      "nativeName": "Nyamakuyu",
      "code": "KE-36-182929",
      "countryId": 192950,
      "countryCode": "KE",
      "stateCode": "KE-36",
      "latitude": -0.4,
      "longitude": 36.88333
    },
    {
      "id": 181735,
      "name": "Othaya",
      "nativeName": "Othaya",
      "code": "KE-36-181735",
      "countryId": 192950,
      "countryCode": "KE",
      "stateCode": "KE-36",
      "latitude": -0.54655,
      "longitude": 36.93178
    },
    {
      "id": 181438,
      "name": "Ragati",
      "nativeName": "Ragati",
      "code": "KE-36-181438",
      "countryId": 192950,
      "countryCode": "KE",
      "stateCode": "KE-36",
      "latitude": -0.45664,
      "longitude": 37.11981
    },
    {
      "id": 181324,
      "name": "Ratai",
      "nativeName": "Ratai",
      "code": "KE-36-181324",
      "countryId": 192950,
      "countryCode": "KE",
      "stateCode": "KE-36",
      "latitude": -0.4,
      "longitude": 37.16667
    },
    {
      "id": 181250,
      "name": "Riamukurwe",
      "nativeName": "Riamukurwe",
      "code": "KE-36-181250",
      "countryId": 192950,
      "countryCode": "KE",
      "stateCode": "KE-36",
      "latitude": -0.45,
      "longitude": 36.96667
    },
    {
      "id": 181183,
      "name": "Rititi",
      "nativeName": "Rititi",
      "code": "KE-36-181183",
      "countryId": 192950,
      "countryCode": "KE",
      "stateCode": "KE-36",
      "latitude": -0.44959,
      "longitude": 37.07858
    },
    {
      "id": 181011,
      "name": "Rukira",
      "nativeName": "Rukira",
      "code": "KE-36-181011",
      "countryId": 192950,
      "countryCode": "KE",
      "stateCode": "KE-36",
      "latitude": -0.51149,
      "longitude": 36.97441
    },
    {
      "id": 181012,
      "name": "Rukira",
      "nativeName": "Rukira",
      "code": "KE-36-181012",
      "countryId": 192950,
      "countryCode": "KE",
      "stateCode": "KE-36",
      "latitude": -0.53722,
      "longitude": 36.93664
    },
    {
      "id": 180966,
      "name": "Ruringu",
      "nativeName": "Ruringu",
      "code": "KE-36-180966",
      "countryId": 192950,
      "countryCode": "KE",
      "stateCode": "KE-36",
      "latitude": -0.43056,
      "longitude": 36.98046
    },
    {
      "id": 180965,
      "name": "Rurunguti",
      "nativeName": "Rurunguti",
      "code": "KE-36-180965",
      "countryId": 192950,
      "countryCode": "KE",
      "stateCode": "KE-36",
      "latitude": -0.56467,
      "longitude": 36.89316
    },
    {
      "id": 180953,
      "name": "Ruthagati",
      "nativeName": "Ruthagati",
      "code": "KE-36-180953",
      "countryId": 192950,
      "countryCode": "KE",
      "stateCode": "KE-36",
      "latitude": -0.43333,
      "longitude": 37.06667
    },
    {
      "id": 180943,
      "name": "Rutura",
      "nativeName": "Rutura",
      "code": "KE-36-180943",
      "countryId": 192950,
      "countryCode": "KE",
      "stateCode": "KE-36",
      "latitude": -0.42049,
      "longitude": 36.89113
    },
    {
      "id": 179603,
      "name": "Tambaya",
      "nativeName": "Tambaya",
      "code": "KE-36-179603",
      "countryId": 192950,
      "countryCode": "KE",
      "stateCode": "KE-36",
      "latitude": -0.52846,
      "longitude": 37.0202
    },
    {
      "id": 179438,
      "name": "Tetu",
      "nativeName": "Tetu",
      "code": "KE-36-179438",
      "countryId": 192950,
      "countryCode": "KE",
      "stateCode": "KE-36",
      "latitude": -0.43419,
      "longitude": 36.91681
    },
    {
      "id": 179394,
      "name": "Thangathe",
      "nativeName": "Thangathe",
      "code": "KE-36-179394",
      "countryId": 192950,
      "countryCode": "KE",
      "stateCode": "KE-36",
      "latitude": -0.5665,
      "longitude": 37.1298
    },
    {
      "id": 179386,
      "name": "Thanu",
      "nativeName": "Thanu",
      "code": "KE-36-179386",
      "countryId": 192950,
      "countryCode": "KE",
      "stateCode": "KE-36",
      "latitude": -0.63333,
      "longitude": 37.11667
    },
    {
      "id": 179354,
      "name": "Thengeini",
      "nativeName": "Thengeini",
      "code": "KE-36-179354",
      "countryId": 192950,
      "countryCode": "KE",
      "stateCode": "KE-36",
      "latitude": -0.51667,
      "longitude": 37.15
    },
    {
      "id": 179255,
      "name": "Thunguma",
      "nativeName": "Thunguma",
      "code": "KE-36-179255",
      "countryId": 192950,
      "countryCode": "KE",
      "stateCode": "KE-36",
      "latitude": -0.43747,
      "longitude": 36.98906
    },
    {
      "id": 179252,
      "name": "Thunguri",
      "nativeName": "Thunguri",
      "code": "KE-36-179252",
      "countryId": 192950,
      "countryCode": "KE",
      "stateCode": "KE-36",
      "latitude": -0.56667,
      "longitude": 37.05
    },
    {
      "id": 179253,
      "name": "Thunguri",
      "nativeName": "Thunguri",
      "code": "KE-36-179253",
      "countryId": 192950,
      "countryCode": "KE",
      "stateCode": "KE-36",
      "latitude": -0.55361,
      "longitude": 36.91003
    },
    {
      "id": 178898,
      "name": "Tusha",
      "nativeName": "Tusha",
      "code": "KE-36-178898",
      "countryId": 192950,
      "countryCode": "KE",
      "stateCode": "KE-36",
      "latitude": -0.47177,
      "longitude": 36.82437
    },
    {
      "id": 178833,
      "name": "Uaso Nyiro Settlement",
      "nativeName": "Uaso Nyiro Settlement",
      "code": "KE-36-178833",
      "countryId": 192950,
      "countryCode": "KE",
      "stateCode": "KE-36",
      "latitude": -0.27301,
      "longitude": 36.826
    },
    {
      "id": 178730,
      "name": "Unjiru",
      "nativeName": "Unjiru",
      "code": "KE-36-178730",
      "countryId": 192950,
      "countryCode": "KE",
      "stateCode": "KE-36",
      "latitude": -0.45193,
      "longitude": 37.11212
    },
    {
      "id": 178478,
      "name": "Wagai",
      "nativeName": "Wagai",
      "code": "KE-36-178478",
      "countryId": 192950,
      "countryCode": "KE",
      "stateCode": "KE-36",
      "latitude": -0.45725,
      "longitude": 36.86502
    },
    {
      "id": 178465,
      "name": "Wahenya",
      "nativeName": "Wahenya",
      "code": "KE-36-178465",
      "countryId": 192950,
      "countryCode": "KE",
      "stateCode": "KE-36",
      "latitude": -0.37373,
      "longitude": 36.91299
    },
    {
      "id": 178396,
      "name": "Wamachatha",
      "nativeName": "Wamachatha",
      "code": "KE-36-178396",
      "countryId": 192950,
      "countryCode": "KE",
      "stateCode": "KE-36",
      "latitude": -0.56667,
      "longitude": 37.01667
    },
    {
      "id": 178395,
      "name": "Wamagana",
      "nativeName": "Wamagana",
      "code": "KE-36-178395",
      "countryId": 192950,
      "countryCode": "KE",
      "stateCode": "KE-36",
      "latitude": -0.47612,
      "longitude": 36.93057
    },
    {
      "id": 178363,
      "name": "Wamutitu",
      "nativeName": "Wamutitu",
      "code": "KE-36-178363",
      "countryId": 192950,
      "countryCode": "KE",
      "stateCode": "KE-36",
      "latitude": -0.55,
      "longitude": 37.03333
    },
    {
      "id": 178344,
      "name": "Wandumbi",
      "nativeName": "Wandumbi",
      "code": "KE-36-178344",
      "countryId": 192950,
      "countryCode": "KE",
      "stateCode": "KE-36",
      "latitude": -0.47006,
      "longitude": 36.88248
    },
    {
      "id": 178134,
      "name": "Wetima One",
      "nativeName": "Wetima One",
      "code": "KE-36-178134",
      "countryId": 192950,
      "countryCode": "KE",
      "stateCode": "KE-36",
      "latitude": -0.55,
      "longitude": 36.98333
    },
    {
      "id": 178133,
      "name": "Wetima Two",
      "nativeName": "Wetima Two",
      "code": "KE-36-178133",
      "countryId": 192950,
      "countryCode": "KE",
      "stateCode": "KE-36",
      "latitude": -0.55,
      "longitude": 36.96667
    },
    {
      "id": 179413,
      "name": "Zaina",
      "nativeName": "Zaina",
      "code": "KE-36-179413",
      "countryId": 192950,
      "countryCode": "KE",
      "stateCode": "KE-36",
      "latitude": -0.42704,
      "longitude": 36.82717
    }
  ]
}