{
  "stateId": 7668902,
  "stateCode": "KE-31",
  "countryCode": "KE",
  "cities": [
    {
      "id": 184622,
      "name": "Nakuru",
      "nativeName": "Nakuru",
      "code": "KE-31-184622",
      "countryId": 192950,
      "countryCode": "KE",
      "stateCode": "KE-31",
      "latitude": -0.30719,
      "longitude": 36.07225
    },
    {
      "id": 11832094,
      "name": "Akira",
      "nativeName": "Akira",
      "code": "KE-31-11832094",
      "countryId": 192950,
      "countryCode": "KE",
      "stateCode": "KE-31",
      "latitude": -0.993,
      "longitude": 36.35934
    },
    {
      "id": 201048,
      "name": "Ambusket",
      "nativeName": "Ambusket",
      "code": "KE-31-201048",
      "countryId": 192950,
      "countryCode": "KE",
      "stateCode": "KE-31",
      "latitude": -0.62979,
      "longitude": 35.63719
    },
    {
      "id": 200792,
      "name": "Athinai",
      "nativeName": "Athinai",
      "code": "KE-31-200792",
      "countryId": 192950,
      "countryCode": "KE",
      "stateCode": "KE-31",
      "latitude": -0.06667,
      "longitude": 35.98333
    },
    {
      "id": 11829937,
      "name": "Bagaria Settlement",
      "nativeName": "Bagaria Settlement",
      "code": "KE-31-11829937",
      "countryId": 192950,
      "countryCode": "KE",
      "stateCode": "KE-31",
      "latitude": -0.49734,
      "longitude": 36.0176
    },
    {
      "id": 200711,
      "name": "Bahati",
      "nativeName": "Bahati",
      "code": "KE-31-200711",
      "countryId": 192950,
      "countryCode": "KE",
      "stateCode": "KE-31",
      "latitude": -0.15407,
      "longitude": 36.14634
    },
    {
      "id": 200707,
      "name": "Bahati Settlement",
      "nativeName": "Bahati Settlement",
      "code": "KE-31-200707",
      "countryId": 192950,
      "countryCode": "KE",
      "stateCode": "KE-31",
      "latitude": -0.1435,
      "longitude": 36.17048
    },
    {
      "id": 11829908,
      "name": "Banita",
      "nativeName": "Banita",
      "code": "KE-31-11829908",
      "countryId": 192950,
      "countryCode": "KE",
      "stateCode": "KE-31",
      "latitude": -0.118,
      "longitude": 36.07558
    },
    {
      "id": 11964519,
      "name": "Baraget",
      "nativeName": "Baraget",
      "code": "KE-31-11964519",
      "countryId": 192950,
      "countryCode": "KE",
      "stateCode": "KE-31",
      "latitude": -0.39957,
      "longitude": 35.70406
    },
    {
      "id": 11964560,
      "name": "Beestons",
      "nativeName": "Beestons",
      "code": "KE-31-11964560",
      "countryId": 192950,
      "countryCode": "KE",
      "stateCode": "KE-31",
      "latitude": -0.3648,
      "longitude": 35.88264
    },
    {
      "id": 11829903,
      "name": "Berea",
      "nativeName": "Berea",
      "code": "KE-31-11829903",
      "countryId": 192950,
      "countryCode": "KE",
      "stateCode": "KE-31",
      "latitude": -0.11446,
      "longitude": 36.16034
    },
    {
      "id": 199941,
      "name": "By-Gum",
      "nativeName": "By-Gum",
      "code": "KE-31-199941",
      "countryId": 192950,
      "countryCode": "KE",
      "stateCode": "KE-31",
      "latitude": -0.30028,
      "longitude": 35.66352
    },
    {
      "id": 11964531,
      "name": "Chandera",
      "nativeName": "Chandera",
      "code": "KE-31-11964531",
      "countryId": 192950,
      "countryCode": "KE",
      "stateCode": "KE-31",
      "latitude": -0.31212,
      "longitude": 35.72298
    },
    {
      "id": 199787,
      "name": "Chebakundi",
      "nativeName": "Chebakundi",
      "code": "KE-31-199787",
      "countryId": 192950,
      "countryCode": "KE",
      "stateCode": "KE-31",
      "latitude": -0.65909,
      "longitude": 35.65413
    },
    {
      "id": 199472,
      "name": "Chebtwech",
      "nativeName": "Chebtwech",
      "code": "KE-31-199472",
      "countryId": 192950,
      "countryCode": "KE",
      "stateCode": "KE-31",
      "latitude": -0.59927,
      "longitude": 35.63936
    },
    {
      "id": 11964510,
      "name": "Chepnyalilo",
      "nativeName": "Chepnyalilo",
      "code": "KE-31-11964510",
      "countryId": 192950,
      "countryCode": "KE",
      "stateCode": "KE-31",
      "latitude": -0.58546,
      "longitude": 35.63575
    },
    {
      "id": 199246,
      "name": "Cokereria",
      "nativeName": "Cokereria",
      "code": "KE-31-199246",
      "countryId": 192950,
      "countryCode": "KE",
      "stateCode": "KE-31",
      "latitude": -0.42756,
      "longitude": 36.34358
    },
    {
      "id": 11964506,
      "name": "Daraja Mawe",
      "nativeName": "Daraja Mawe",
      "code": "KE-31-11964506",
      "countryId": 192950,
      "countryCode": "KE",
      "stateCode": "KE-31",
      "latitude": -0.2632,
      "longitude": 35.70517
    },
    {
      "id": 199083,
      "name": "Daraja ya Mawe",
      "nativeName": "Daraja ya Mawe",
      "code": "KE-31-199083",
      "countryId": 192950,
      "countryCode": "KE",
      "stateCode": "KE-31",
      "latitude": -0.44208,
      "longitude": 35.68791
    },
    {
      "id": 199067,
      "name": "Dawsonville",
      "nativeName": "Dawsonville",
      "code": "KE-31-199067",
      "countryId": 192950,
      "countryCode": "KE",
      "stateCode": "KE-31",
      "latitude": -0.28333,
      "longitude": 36.05
    },
    {
      "id": 11964471,
      "name": "Dimbilil",
      "nativeName": "Dimbilil",
      "code": "KE-31-11964471",
      "countryId": 192950,
      "countryCode": "KE",
      "stateCode": "KE-31",
      "latitude": -0.44099,
      "longitude": 35.60948
    },
    {
      "id": 11964473,
      "name": "Dryer",
      "nativeName": "Dryer",
      "code": "KE-31-11964473",
      "countryId": 192950,
      "countryCode": "KE",
      "stateCode": "KE-31",
      "latitude": -0.35409,
      "longitude": 35.60464
    },
    {
      "id": 198817,
      "name": "Dundori",
      "nativeName": "Dundori",
      "code": "KE-31-198817",
      "countryId": 192950,
      "countryCode": "KE",
      "stateCode": "KE-31",
      "latitude": -0.2519,
      "longitude": 36.23641
    },
    {
      "id": 198778,
      "name": "East Mau",
      "nativeName": "East Mau",
      "code": "KE-31-198778",
      "countryId": 192950,
      "countryCode": "KE",
      "stateCode": "KE-31",
      "latitude": -0.53732,
      "longitude": 35.96963
    },
    {
      "id": 181847,
      "name": "Eburru",
      "nativeName": "Eburru",
      "code": "KE-31-181847",
      "countryId": 192950,
      "countryCode": "KE",
      "stateCode": "KE-31",
      "latitude": -0.59605,
      "longitude": 36.21021
    },
    {
      "id": 11832066,
      "name": "Eburru",
      "nativeName": "Eburru",
      "code": "KE-31-11832066",
      "countryId": 192950,
      "countryCode": "KE",
      "stateCode": "KE-31",
      "latitude": -0.57812,
      "longitude": 36.24045
    },
    {
      "id": 8605137,
      "name": "Egerton",
      "nativeName": "Egerton",
      "code": "KE-31-8605137",
      "countryId": 192950,
      "countryCode": "KE",
      "stateCode": "KE-31",
      "latitude": -0.37119,
      "longitude": 35.93313
    },
    {
      "id": 11829899,
      "name": "El Bonwala",
      "nativeName": "El Bonwala",
      "code": "KE-31-11829899",
      "countryId": 192950,
      "countryCode": "KE",
      "stateCode": "KE-31",
      "latitude": -0.09715,
      "longitude": 36.02592
    },
    {
      "id": 198644,
      "name": "Elburgon",
      "nativeName": "Elburgon",
      "code": "KE-31-198644",
      "countryId": 192950,
      "countryCode": "KE",
      "stateCode": "KE-31",
      "latitude": -0.30037,
      "longitude": 35.80935
    },
    {
      "id": 198572,
      "name": "Elmenteita",
      "nativeName": "Elmenteita",
      "code": "KE-31-198572",
      "countryId": 192950,
      "countryCode": "KE",
      "stateCode": "KE-31",
      "latitude": -0.48944,
      "longitude": 36.15648
    },
    {
      "id": 11832119,
      "name": "Enashae Ngai",
      "nativeName": "Enashae Ngai",
      "code": "KE-31-11832119",
      "countryId": 192950,
      "countryCode": "KE",
      "stateCode": "KE-31",
      "latitude": -0.68277,
      "longitude": 36.48443
    },
    {
      "id": 198362,
      "name": "Endarasha",
      "nativeName": "Endarasha",
      "code": "KE-31-198362",
      "countryId": 192950,
      "countryCode": "KE",
      "stateCode": "KE-31",
      "latitude": -0.28333,
      "longitude": 35.78333
    },
    {
      "id": 198345,
      "name": "Endima",
      "nativeName": "Endima",
      "code": "KE-31-198345",
      "countryId": 192950,
      "countryCode": "KE",
      "stateCode": "KE-31",
      "latitude": -0.64124,
      "longitude": 36.02807
    },
    {
      "id": 11834219,
      "name": "Ereri",
      "nativeName": "Ereri",
      "code": "KE-31-11834219",
      "countryId": 192950,
      "countryCode": "KE",
      "stateCode": "KE-31",
      "latitude": -0.90267,
      "longitude": 36.51639
    },
    {
      "id": 11834263,
      "name": "Excelsior",
      "nativeName": "Excelsior",
      "code": "KE-31-11834263",
      "countryId": 192950,
      "countryCode": "KE",
      "stateCode": "KE-31",
      "latitude": -0.65059,
      "longitude": 36.5243
    },
    {
      "id": 197401,
      "name": "Gichage",
      "nativeName": "Gichage",
      "code": "KE-31-197401",
      "countryId": 192950,
      "countryCode": "KE",
      "stateCode": "KE-31",
      "latitude": -0.32988,
      "longitude": 35.84756
    },
    {
      "id": 11829928,
      "name": "Gichobo Settlement",
      "nativeName": "Gichobo Settlement",
      "code": "KE-31-11829928",
      "countryId": 192950,
      "countryCode": "KE",
      "stateCode": "KE-31",
      "latitude": -0.37838,
      "longitude": 36.01265
    },
    {
      "id": 197334,
      "name": "Gilgil",
      "nativeName": "Gilgil",
      "code": "KE-31-197334",
      "countryId": 192950,
      "countryCode": "KE",
      "stateCode": "KE-31",
      "latitude": -0.50397,
      "longitude": 36.31845
    },
    {
      "id": 11964486,
      "name": "Githima",
      "nativeName": "Githima",
      "code": "KE-31-11964486",
      "countryId": 192950,
      "countryCode": "KE",
      "stateCode": "KE-31",
      "latitude": -0.29839,
      "longitude": 35.4933
    },
    {
      "id": 197057,
      "name": "Goroba",
      "nativeName": "Goroba",
      "code": "KE-31-197057",
      "countryId": 192950,
      "countryCode": "KE",
      "stateCode": "KE-31",
      "latitude": -0.63333,
      "longitude": 35.65
    },
    {
      "id": 11964548,
      "name": "Greenhill",
      "nativeName": "Greenhill",
      "code": "KE-31-11964548",
      "countryId": 192950,
      "countryCode": "KE",
      "stateCode": "KE-31",
      "latitude": -0.27922,
      "longitude": 35.92269
    },
    {
      "id": 11829925,
      "name": "Greensted’s",
      "nativeName": "Greensted’s",
      "code": "KE-31-11829925",
      "countryId": 192950,
      "countryCode": "KE",
      "stateCode": "KE-31",
      "latitude": -0.33561,
      "longitude": 36.17285
    },
    {
      "id": 196818,
      "name": "Hatfield",
      "nativeName": "Hatfield",
      "code": "KE-31-196818",
      "countryId": 192950,
      "countryCode": "KE",
      "stateCode": "KE-31",
      "latitude": -0.2795,
      "longitude": 36.16278
    },
    {
      "id": 11832068,
      "name": "Hippo Point",
      "nativeName": "Hippo Point",
      "code": "KE-31-11832068",
      "countryId": 192950,
      "countryCode": "KE",
      "stateCode": "KE-31",
      "latitude": -0.79789,
      "longitude": 36.30393
    },
    {
      "id": 11829916,
      "name": "Kabatini",
      "nativeName": "Kabatini",
      "code": "KE-31-11829916",
      "countryId": 192950,
      "countryCode": "KE",
      "stateCode": "KE-31",
      "latitude": -0.21633,
      "longitude": 36.16309
    },
    {
      "id": 11829895,
      "name": "Kabazi",
      "nativeName": "Kabazi",
      "code": "KE-31-11829895",
      "countryId": 192950,
      "countryCode": "KE",
      "stateCode": "KE-31",
      "latitude": -0.07801,
      "longitude": 36.17043
    },
    {
      "id": 11832121,
      "name": "Kahuru Settlement",
      "nativeName": "Kahuru Settlement",
      "code": "KE-31-11832121",
      "countryId": 192950,
      "countryCode": "KE",
      "stateCode": "KE-31",
      "latitude": -0.63066,
      "longitude": 36.48208
    },
    {
      "id": 11829924,
      "name": "Kaka",
      "nativeName": "Kaka",
      "code": "KE-31-11829924",
      "countryId": 192950,
      "countryCode": "KE",
      "stateCode": "KE-31",
      "latitude": -0.32631,
      "longitude": 36.17142
    },
    {
      "id": 11964627,
      "name": "Kama",
      "nativeName": "Kama",
      "code": "KE-31-11964627",
      "countryId": 192950,
      "countryCode": "KE",
      "stateCode": "KE-31",
      "latitude": -0.35363,
      "longitude": 35.97517
    },
    {
      "id": 194823,
      "name": "Kambala",
      "nativeName": "Kambala",
      "code": "KE-31-194823",
      "countryId": 192950,
      "countryCode": "KE",
      "stateCode": "KE-31",
      "latitude": -0.25573,
      "longitude": 35.75357
    },
    {
      "id": 11964566,
      "name": "Kame",
      "nativeName": "Kame",
      "code": "KE-31-11964566",
      "countryId": 192950,
      "countryCode": "KE",
      "stateCode": "KE-31",
      "latitude": -0.38739,
      "longitude": 35.88861
    },
    {
      "id": 11964544,
      "name": "Kampi Ya Moto",
      "nativeName": "Kampi Ya Moto",
      "code": "KE-31-11964544",
      "countryId": 192950,
      "countryCode": "KE",
      "stateCode": "KE-31",
      "latitude": -0.12429,
      "longitude": 35.93957
    },
    {
      "id": 194571,
      "name": "Kamwaura",
      "nativeName": "Kamwaura",
      "code": "KE-31-194571",
      "countryId": 192950,
      "countryCode": "KE",
      "stateCode": "KE-31",
      "latitude": -0.42783,
      "longitude": 35.58421
    },
    {
      "id": 11834259,
      "name": "Kanaru",
      "nativeName": "Kanaru",
      "code": "KE-31-11834259",
      "countryId": 192950,
      "countryCode": "KE",
      "stateCode": "KE-31",
      "latitude": -0.94723,
      "longitude": 36.50837
    },
    {
      "id": 11964539,
      "name": "Kandutura",
      "nativeName": "Kandutura",
      "code": "KE-31-11964539",
      "countryId": 192950,
      "countryCode": "KE",
      "stateCode": "KE-31",
      "latitude": -0.10445,
      "longitude": 35.80325
    },
    {
      "id": 11964509,
      "name": "Kapsimbegwa",
      "nativeName": "Kapsimbegwa",
      "code": "KE-31-11964509",
      "countryId": 192950,
      "countryCode": "KE",
      "stateCode": "KE-31",
      "latitude": -0.57513,
      "longitude": 35.65343
    },
    {
      "id": 11832073,
      "name": "Karati",
      "nativeName": "Karati",
      "code": "KE-31-11832073",
      "countryId": 192950,
      "countryCode": "KE",
      "stateCode": "KE-31",
      "latitude": -0.68628,
      "longitude": 36.47802
    },
    {
      "id": 193658,
      "name": "Karunga",
      "nativeName": "Karunga",
      "code": "KE-31-193658",
      "countryId": 192950,
      "countryCode": "KE",
      "stateCode": "KE-31",
      "latitude": -0.40953,
      "longitude": 36.35992
    },
    {
      "id": 193039,
      "name": "Kedong",
      "nativeName": "Kedong",
      "code": "KE-31-193039",
      "countryId": 192950,
      "countryCode": "KE",
      "stateCode": "KE-31",
      "latitude": -1.05,
      "longitude": 36.56667
    },
    {
      "id": 186445,
      "name": "Keringet",
      "nativeName": "Keringet",
      "code": "KE-31-186445",
      "countryId": 192950,
      "countryCode": "KE",
      "stateCode": "KE-31",
      "latitude": -0.46758,
      "longitude": 35.68185
    },
    {
      "id": 192879,
      "name": "Kerisa",
      "nativeName": "Kerisa",
      "code": "KE-31-192879",
      "countryId": 192950,
      "countryCode": "KE",
      "stateCode": "KE-31",
      "latitude": -0.30162,
      "longitude": 35.53141
    },
    {
      "id": 11969009,
      "name": "Kewamoi",
      "nativeName": "Kewamoi",
      "code": "KE-31-11969009",
      "countryId": 192950,
      "countryCode": "KE",
      "stateCode": "KE-31",
      "latitude": -0.41303,
      "longitude": 35.62666
    },
    {
      "id": 11964469,
      "name": "Kibongoi",
      "nativeName": "Kibongoi",
      "code": "KE-31-11964469",
      "countryId": 192950,
      "countryCode": "KE",
      "stateCode": "KE-31",
      "latitude": -0.4812,
      "longitude": 35.65993
    },
    {
      "id": 192202,
      "name": "Kijabe",
      "nativeName": "Kijabe",
      "code": "KE-31-192202",
      "countryId": 192950,
      "countryCode": "KE",
      "stateCode": "KE-31",
      "latitude": -0.948,
      "longitude": 36.598
    },
    {
      "id": 11829941,
      "name": "Kinari",
      "nativeName": "Kinari",
      "code": "KE-31-11829941",
      "countryId": 192950,
      "countryCode": "KE",
      "stateCode": "KE-31",
      "latitude": -0.24382,
      "longitude": 36.22701
    },
    {
      "id": 11832122,
      "name": "Kinja",
      "nativeName": "Kinja",
      "code": "KE-31-11832122",
      "countryId": 192950,
      "countryCode": "KE",
      "stateCode": "KE-31",
      "latitude": -0.63938,
      "longitude": 36.00231
    },
    {
      "id": 12718641,
      "name": "Kinungi",
      "nativeName": "Kinungi",
      "code": "KE-31-12718641",
      "countryId": 192950,
      "countryCode": "KE",
      "stateCode": "KE-31",
      "latitude": -0.80415,
      "longitude": 36.53133
    },
    {
      "id": 11964489,
      "name": "Kio",
      "nativeName": "Kio",
      "code": "KE-31-11964489",
      "countryId": 192950,
      "countryCode": "KE",
      "stateCode": "KE-31",
      "latitude": -0.29706,
      "longitude": 35.49519
    },
    {
      "id": 11964543,
      "name": "Kiptoim",
      "nativeName": "Kiptoim",
      "code": "KE-31-11964543",
      "countryId": 192950,
      "countryCode": "KE",
      "stateCode": "KE-31",
      "latitude": -0.04765,
      "longitude": 35.88617
    },
    {
      "id": 191533,
      "name": "Kiptunga",
      "nativeName": "Kiptunga",
      "code": "KE-31-191533",
      "countryId": 192950,
      "countryCode": "KE",
      "stateCode": "KE-31",
      "latitude": -0.45503,
      "longitude": 35.79853
    },
    {
      "id": 11829934,
      "name": "Kiriri",
      "nativeName": "Kiriri",
      "code": "KE-31-11829934",
      "countryId": 192950,
      "countryCode": "KE",
      "stateCode": "KE-31",
      "latitude": -0.44166,
      "longitude": 36.01208
    },
    {
      "id": 11829936,
      "name": "Kiriri Settlement",
      "nativeName": "Kiriri Settlement",
      "code": "KE-31-11829936",
      "countryId": 192950,
      "countryCode": "KE",
      "stateCode": "KE-31",
      "latitude": -0.47562,
      "longitude": 36.01563
    },
    {
      "id": 11964472,
      "name": "Kitlery",
      "nativeName": "Kitlery",
      "code": "KE-31-11964472",
      "countryId": 192950,
      "countryCode": "KE",
      "stateCode": "KE-31",
      "latitude": -0.38857,
      "longitude": 35.56676
    },
    {
      "id": 11832098,
      "name": "Kongoni",
      "nativeName": "Kongoni",
      "code": "KE-31-11832098",
      "countryId": 192950,
      "countryCode": "KE",
      "stateCode": "KE-31",
      "latitude": -0.82025,
      "longitude": 36.258
    },
    {
      "id": 190494,
      "name": "Korikabemitik",
      "nativeName": "Korikabemitik",
      "code": "KE-31-190494",
      "countryId": 192950,
      "countryCode": "KE",
      "stateCode": "KE-31",
      "latitude": -0.63026,
      "longitude": 35.61691
    },
    {
      "id": 11428238,
      "name": "Kuresoi",
      "nativeName": "Kuresoi",
      "code": "KE-31-11428238",
      "countryId": 192950,
      "countryCode": "KE",
      "stateCode": "KE-31",
      "latitude": -0.30088,
      "longitude": 35.52174
    },
    {
      "id": 11832109,
      "name": "Landhies",
      "nativeName": "Landhies",
      "code": "KE-31-11832109",
      "countryId": 192950,
      "countryCode": "KE",
      "stateCode": "KE-31",
      "latitude": -0.64511,
      "longitude": 36.3843
    },
    {
      "id": 11832113,
      "name": "Landhies",
      "nativeName": "Landhies",
      "code": "KE-31-11832113",
      "countryId": 192950,
      "countryCode": "KE",
      "stateCode": "KE-31",
      "latitude": -0.69103,
      "longitude": 36.40211
    },
    {
      "id": 8629599,
      "name": "Lanet",
      "nativeName": "Lanet",
      "code": "KE-31-8629599",
      "countryId": 192950,
      "countryCode": "KE",
      "stateCode": "KE-31",
      "latitude": -0.30345,
      "longitude": 36.13721
    },
    {
      "id": 11844081,
      "name": "Larkhill",
      "nativeName": "Larkhill",
      "code": "KE-31-11844081",
      "countryId": 192950,
      "countryCode": "KE",
      "stateCode": "KE-31",
      "latitude": -1.04558,
      "longitude": 36.58561
    },
    {
      "id": 11832104,
      "name": "Lentolia Stud",
      "nativeName": "Lentolia Stud",
      "code": "KE-31-11832104",
      "countryId": 192950,
      "countryCode": "KE",
      "stateCode": "KE-31",
      "latitude": -0.76216,
      "longitude": 36.26795
    },
    {
      "id": 11964568,
      "name": "Lika",
      "nativeName": "Lika",
      "code": "KE-31-11964568",
      "countryId": 192950,
      "countryCode": "KE",
      "stateCode": "KE-31",
      "latitude": -0.51016,
      "longitude": 35.9754
    },
    {
      "id": 11964558,
      "name": "Loichorai",
      "nativeName": "Loichorai",
      "code": "KE-31-11964558",
      "countryId": 192950,
      "countryCode": "KE",
      "stateCode": "KE-31",
      "latitude": -0.39705,
      "longitude": 35.94543
    },
    {
      "id": 189106,
      "name": "Loldia",
      "nativeName": "Loldia",
      "code": "KE-31-189106",
      "countryId": 192950,
      "countryCode": "KE",
      "stateCode": "KE-31",
      "latitude": -0.7118,
      "longitude": 36.29566
    },
    {
      "id": 8605138,
      "name": "Longonot",
      "nativeName": "Longonot",
      "code": "KE-31-8605138",
      "countryId": 192950,
      "countryCode": "KE",
      "stateCode": "KE-31",
      "latitude": -0.88405,
      "longitude": 36.49901
    },
    {
      "id": 11832076,
      "name": "Longonot",
      "nativeName": "Longonot",
      "code": "KE-31-11832076",
      "countryId": 192950,
      "countryCode": "KE",
      "stateCode": "KE-31",
      "latitude": -0.80077,
      "longitude": 36.40603
    },
    {
      "id": 11829932,
      "name": "Long’s Drift",
      "nativeName": "Long’s Drift",
      "code": "KE-31-11829932",
      "countryId": 192950,
      "countryCode": "KE",
      "stateCode": "KE-31",
      "latitude": -0.45775,
      "longitude": 36.08335
    },
    {
      "id": 11834214,
      "name": "Maai Mahiu",
      "nativeName": "Maai Mahiu",
      "code": "KE-31-11834214",
      "countryId": 192950,
      "countryCode": "KE",
      "stateCode": "KE-31",
      "latitude": -0.98855,
      "longitude": 36.58537
    },
    {
      "id": 188482,
      "name": "Machege",
      "nativeName": "Machege",
      "code": "KE-31-188482",
      "countryId": 192950,
      "countryCode": "KE",
      "stateCode": "KE-31",
      "latitude": -0.08447,
      "longitude": 35.91458
    },
    {
      "id": 12718647,
      "name": "Mai",
      "nativeName": "Mai",
      "code": "KE-31-12718647",
      "countryId": 192950,
      "countryCode": "KE",
      "stateCode": "KE-31",
      "latitude": -0.98169,
      "longitude": 36.58642
    },
    {
      "id": 11964577,
      "name": "Maji Mingi",
      "nativeName": "Maji Mingi",
      "code": "KE-31-11964577",
      "countryId": 192950,
      "countryCode": "KE",
      "stateCode": "KE-31",
      "latitude": -0.66523,
      "longitude": 35.93203
    },
    {
      "id": 186891,
      "name": "Malewa",
      "nativeName": "Malewa",
      "code": "KE-31-186891",
      "countryId": 192950,
      "countryCode": "KE",
      "stateCode": "KE-31",
      "latitude": -0.4979,
      "longitude": 36.39703
    },
    {
      "id": 11832074,
      "name": "Malewa",
      "nativeName": "Malewa",
      "code": "KE-31-11832074",
      "countryId": 192950,
      "countryCode": "KE",
      "stateCode": "KE-31",
      "latitude": -0.64845,
      "longitude": 36.42215
    },
    {
      "id": 11834224,
      "name": "Mara Ngishu",
      "nativeName": "Mara Ngishu",
      "code": "KE-31-11834224",
      "countryId": 192950,
      "countryCode": "KE",
      "stateCode": "KE-31",
      "latitude": -0.74532,
      "longitude": 36.52929
    },
    {
      "id": 187694,
      "name": "Marashoni",
      "nativeName": "Marashoni",
      "code": "KE-31-187694",
      "countryId": 192950,
      "countryCode": "KE",
      "stateCode": "KE-31",
      "latitude": -0.36852,
      "longitude": 35.82127
    },
    {
      "id": 11964525,
      "name": "Mariathani",
      "nativeName": "Mariathani",
      "code": "KE-31-11964525",
      "countryId": 192950,
      "countryCode": "KE",
      "stateCode": "KE-31",
      "latitude": -0.33289,
      "longitude": 35.81488
    },
    {
      "id": 11832115,
      "name": "Marula Munyu",
      "nativeName": "Marula Munyu",
      "code": "KE-31-11832115",
      "countryId": 192950,
      "countryCode": "KE",
      "stateCode": "KE-31",
      "latitude": -0.76475,
      "longitude": 36.42886
    },
    {
      "id": 187221,
      "name": "Mau Narok",
      "nativeName": "Mau Narok",
      "code": "KE-31-187221",
      "countryId": 192950,
      "countryCode": "KE",
      "stateCode": "KE-31",
      "latitude": -0.60661,
      "longitude": 36.00836
    },
    {
      "id": 11964487,
      "name": "Mawingo",
      "nativeName": "Mawingo",
      "code": "KE-31-11964487",
      "countryId": 192950,
      "countryCode": "KE",
      "stateCode": "KE-31",
      "latitude": -0.28789,
      "longitude": 35.59421
    },
    {
      "id": 11964515,
      "name": "Mbombo",
      "nativeName": "Mbombo",
      "code": "KE-31-11964515",
      "countryId": 192950,
      "countryCode": "KE",
      "stateCode": "KE-31",
      "latitude": -0.53984,
      "longitude": 35.70563
    },
    {
      "id": 186892,
      "name": "Melewa",
      "nativeName": "Malewa",
      "code": "KE-31-186892",
      "countryId": 192950,
      "countryCode": "KE",
      "stateCode": "KE-31",
      "latitude": -0.61671,
      "longitude": 36.42775
    },
    {
      "id": 11964528,
      "name": "Michatha",
      "nativeName": "Michatha",
      "code": "KE-31-11964528",
      "countryId": 192950,
      "countryCode": "KE",
      "stateCode": "KE-31",
      "latitude": -0.27707,
      "longitude": 35.71913
    },
    {
      "id": 186585,
      "name": "Misiba",
      "nativeName": "Misiba",
      "code": "KE-31-186585",
      "countryId": 192950,
      "countryCode": "KE",
      "stateCode": "KE-31",
      "latitude": -0.34465,
      "longitude": 35.92664
    },
    {
      "id": 11832078,
      "name": "Miti Mingi",
      "nativeName": "Miti Mingi",
      "code": "KE-31-11832078",
      "countryId": 192950,
      "countryCode": "KE",
      "stateCode": "KE-31",
      "latitude": -0.52847,
      "longitude": 36.07507
    },
    {
      "id": 186315,
      "name": "Molo",
      "nativeName": "Molo",
      "code": "KE-31-186315",
      "countryId": 192950,
      "countryCode": "KE",
      "stateCode": "KE-31",
      "latitude": -0.24849,
      "longitude": 35.73194
    },
    {
      "id": 11832070,
      "name": "Morendat",
      "nativeName": "Morendat",
      "code": "KE-31-11832070",
      "countryId": 192950,
      "countryCode": "KE",
      "stateCode": "KE-31",
      "latitude": -0.67214,
      "longitude": 36.38745
    },
    {
      "id": 11964532,
      "name": "Morris",
      "nativeName": "Morris",
      "code": "KE-31-11964532",
      "countryId": 192950,
      "countryCode": "KE",
      "stateCode": "KE-31",
      "latitude": -0.20859,
      "longitude": 35.79416
    },
    {
      "id": 12718637,
      "name": "Muchorwi",
      "nativeName": "Muchorwi",
      "code": "KE-31-12718637",
      "countryId": 192950,
      "countryCode": "KE",
      "stateCode": "KE-31",
      "latitude": -0.3299,
      "longitude": 35.68751
    },
    {
      "id": 11964524,
      "name": "Mukolombos",
      "nativeName": "Mukolombos",
      "code": "KE-31-11964524",
      "countryId": 192950,
      "countryCode": "KE",
      "stateCode": "KE-31",
      "latitude": -0.32888,
      "longitude": 35.75221
    },
    {
      "id": 11964561,
      "name": "Mukungugu",
      "nativeName": "Mukungugu",
      "code": "KE-31-11964561",
      "countryId": 192950,
      "countryCode": "KE",
      "stateCode": "KE-31",
      "latitude": -0.33282,
      "longitude": 35.88857
    },
    {
      "id": 11829894,
      "name": "Munanda",
      "nativeName": "Munanda",
      "code": "KE-31-11829894",
      "countryId": 192950,
      "countryCode": "KE",
      "stateCode": "KE-31",
      "latitude": -0.0189,
      "longitude": 36.18961
    },
    {
      "id": 11964505,
      "name": "Mwangati",
      "nativeName": "Mwangati",
      "code": "KE-31-11964505",
      "countryId": 192950,
      "countryCode": "KE",
      "stateCode": "KE-31",
      "latitude": -0.26843,
      "longitude": 35.68619
    },
    {
      "id": 11964559,
      "name": "Mwigito",
      "nativeName": "Mwigito",
      "code": "KE-31-11964559",
      "countryId": 192950,
      "countryCode": "KE",
      "stateCode": "KE-31",
      "latitude": -0.38731,
      "longitude": 35.93196
    },
    {
      "id": 11829933,
      "name": "Naishi Settlement",
      "nativeName": "Naishi Settlement",
      "code": "KE-31-11829933",
      "countryId": 192950,
      "countryCode": "KE",
      "stateCode": "KE-31",
      "latitude": -0.44204,
      "longitude": 36.04343
    },
    {
      "id": 184707,
      "name": "Naivasha",
      "nativeName": "Naivasha",
      "code": "KE-31-184707",
      "countryId": 192950,
      "countryCode": "KE",
      "stateCode": "KE-31",
      "latitude": -0.71383,
      "longitude": 36.43261
    },
    {
      "id": 11964564,
      "name": "Ndaysien",
      "nativeName": "Ndaysien",
      "code": "KE-31-11964564",
      "countryId": 192950,
      "countryCode": "KE",
      "stateCode": "KE-31",
      "latitude": -0.46815,
      "longitude": 35.97473
    },
    {
      "id": 11829887,
      "name": "Nderit",
      "nativeName": "Nderit",
      "code": "KE-31-11829887",
      "countryId": 192950,
      "countryCode": "KE",
      "stateCode": "KE-31",
      "latitude": -0.42183,
      "longitude": 36.13779
    },
    {
      "id": 11832077,
      "name": "Nderit Drift",
      "nativeName": "Nderit Drift",
      "code": "KE-31-11832077",
      "countryId": 192950,
      "countryCode": "KE",
      "stateCode": "KE-31",
      "latitude": -0.51696,
      "longitude": 36.10224
    },
    {
      "id": 11964520,
      "name": "Ndorobo",
      "nativeName": "Ndorobo",
      "code": "KE-31-11964520",
      "countryId": 192950,
      "countryCode": "KE",
      "stateCode": "KE-31",
      "latitude": -0.37804,
      "longitude": 35.87427
    },
    {
      "id": 184037,
      "name": "Ndoswa",
      "nativeName": "Ndoswa",
      "code": "KE-31-184037",
      "countryId": 192950,
      "countryCode": "KE",
      "stateCode": "KE-31",
      "latitude": -0.34015,
      "longitude": 35.8646
    },
    {
      "id": 183909,
      "name": "Nenepa",
      "nativeName": "Nenepa",
      "code": "KE-31-183909",
      "countryId": 192950,
      "countryCode": "KE",
      "stateCode": "KE-31",
      "latitude": -0.62081,
      "longitude": 36.51188
    },
    {
      "id": 183897,
      "name": "Nessuiet",
      "nativeName": "Nessuiet",
      "code": "KE-31-183897",
      "countryId": 192950,
      "countryCode": "KE",
      "stateCode": "KE-31",
      "latitude": -0.38975,
      "longitude": 35.89642
    },
    {
      "id": 11964552,
      "name": "Ngata",
      "nativeName": "Ngata",
      "code": "KE-31-11964552",
      "countryId": 192950,
      "countryCode": "KE",
      "stateCode": "KE-31",
      "latitude": -0.25897,
      "longitude": 35.98055
    },
    {
      "id": 11964547,
      "name": "Ngecha",
      "nativeName": "Ngecha",
      "code": "KE-31-11964547",
      "countryId": 192950,
      "countryCode": "KE",
      "stateCode": "KE-31",
      "latitude": -0.26054,
      "longitude": 35.93396
    },
    {
      "id": 183751,
      "name": "Ngendalel",
      "nativeName": "Ngendalel",
      "code": "KE-31-183751",
      "countryId": 192950,
      "countryCode": "KE",
      "stateCode": "KE-31",
      "latitude": 0.0684,
      "longitude": 36.10278
    },
    {
      "id": 183724,
      "name": "Ngesedai",
      "nativeName": "Ngesedai",
      "code": "KE-31-183724",
      "countryId": 192950,
      "countryCode": "KE",
      "stateCode": "KE-31",
      "latitude": -0.11649,
      "longitude": 35.94265
    },
    {
      "id": 11832099,
      "name": "Ngunyumu",
      "nativeName": "Ngunyumu",
      "code": "KE-31-11832099",
      "countryId": 192950,
      "countryCode": "KE",
      "stateCode": "KE-31",
      "latitude": -0.82237,
      "longitude": 36.20296
    },
    {
      "id": 11829935,
      "name": "Nguriiga Settlement",
      "nativeName": "Nguriiga Settlement",
      "code": "KE-31-11829935",
      "countryId": 192950,
      "countryCode": "KE",
      "stateCode": "KE-31",
      "latitude": -0.42863,
      "longitude": 36.02198
    },
    {
      "id": 183334,
      "name": "Njoro",
      "nativeName": "Njoro",
      "code": "KE-31-183334",
      "countryId": 192950,
      "countryCode": "KE",
      "stateCode": "KE-31",
      "latitude": -0.33024,
      "longitude": 35.94445
    },
    {
      "id": 11964470,
      "name": "Nyagacho",
      "nativeName": "Nyagacho",
      "code": "KE-31-11964470",
      "countryId": 192950,
      "countryCode": "KE",
      "stateCode": "KE-31",
      "latitude": -0.4673,
      "longitude": 35.65397
    },
    {
      "id": 11964522,
      "name": "Nyota",
      "nativeName": "Nyota",
      "code": "KE-31-11964522",
      "countryId": 192950,
      "countryCode": "KE",
      "stateCode": "KE-31",
      "latitude": -0.35309,
      "longitude": 35.69581
    },
    {
      "id": 182182,
      "name": "Ol Morogi",
      "nativeName": "Ol Morogi",
      "code": "KE-31-182182",
      "countryId": 192950,
      "countryCode": "KE",
      "stateCode": "KE-31",
      "latitude": -0.25932,
      "longitude": 36.23482
    },
    {
      "id": 11832072,
      "name": "Ol Morogi",
      "nativeName": "Ol Morogi",
      "code": "KE-31-11832072",
      "countryId": 192950,
      "countryCode": "KE",
      "stateCode": "KE-31",
      "latitude": -0.58709,
      "longitude": 36.4056
    },
    {
      "id": 182298,
      "name": "Olenguruone",
      "nativeName": "Olenguruone",
      "code": "KE-31-182298",
      "countryId": 192950,
      "countryCode": "KE",
      "stateCode": "KE-31",
      "latitude": -0.5861,
      "longitude": 35.68769
    },
    {
      "id": 11964571,
      "name": "Omando",
      "nativeName": "Omando",
      "code": "KE-31-11964571",
      "countryId": 192950,
      "countryCode": "KE",
      "stateCode": "KE-31",
      "latitude": -0.62073,
      "longitude": 35.99295
    },
    {
      "id": 181523,
      "name": "Poulton",
      "nativeName": "Poulton",
      "code": "KE-31-181523",
      "countryId": 192950,
      "countryCode": "KE",
      "stateCode": "KE-31",
      "latitude": -0.34718,
      "longitude": 35.62124
    },
    {
      "id": 11832088,
      "name": "Pyrethrum",
      "nativeName": "Pyrethrum",
      "code": "KE-31-11832088",
      "countryId": 192950,
      "countryCode": "KE",
      "stateCode": "KE-31",
      "latitude": -0.86565,
      "longitude": 36.18781
    },
    {
      "id": 11964567,
      "name": "Rare",
      "nativeName": "Rare",
      "code": "KE-31-11964567",
      "countryId": 192950,
      "countryCode": "KE",
      "stateCode": "KE-31",
      "latitude": -0.44129,
      "longitude": 35.96217
    },
    {
      "id": 181135,
      "name": "Rongai",
      "nativeName": "Rongai",
      "code": "KE-31-181135",
      "countryId": 192950,
      "countryCode": "KE",
      "stateCode": "KE-31",
      "latitude": -0.17344,
      "longitude": 35.86313
    },
    {
      "id": 11964563,
      "name": "Runguma",
      "nativeName": "Runguma",
      "code": "KE-31-11964563",
      "countryId": 192950,
      "countryCode": "KE",
      "stateCode": "KE-31",
      "latitude": -0.42455,
      "longitude": 35.8941
    },
    {
      "id": 11964565,
      "name": "Ruo",
      "nativeName": "Ruo",
      "code": "KE-31-11964565",
      "countryId": 192950,
      "countryCode": "KE",
      "stateCode": "KE-31",
      "latitude": -0.45665,
      "longitude": 35.98155
    },
    {
      "id": 11964602,
      "name": "Rushford",
      "nativeName": "Rushford",
      "code": "KE-31-11964602",
      "countryId": 192950,
      "countryCode": "KE",
      "stateCode": "KE-31",
      "latitude": -0.69047,
      "longitude": 35.95856
    },
    {
      "id": 180659,
      "name": "Sasumua",
      "nativeName": "Sasumua",
      "code": "KE-31-180659",
      "countryId": 192950,
      "countryCode": "KE",
      "stateCode": "KE-31",
      "latitude": -0.31644,
      "longitude": 35.67497
    },
    {
      "id": 11964511,
      "name": "Segor",
      "nativeName": "Segor",
      "code": "KE-31-11964511",
      "countryId": 192950,
      "countryCode": "KE",
      "stateCode": "KE-31",
      "latitude": -0.65668,
      "longitude": 35.60355
    },
    {
      "id": 11964576,
      "name": "Siapei",
      "nativeName": "Siapei",
      "code": "KE-31-11964576",
      "countryId": 192950,
      "countryCode": "KE",
      "stateCode": "KE-31",
      "latitude": -0.66753,
      "longitude": 35.95073
    },
    {
      "id": 179972,
      "name": "Solai",
      "nativeName": "Solai",
      "code": "KE-31-179972",
      "countryId": 192950,
      "countryCode": "KE",
      "stateCode": "KE-31",
      "latitude": -0.05495,
      "longitude": 36.12747
    },
    {
      "id": 11832114,
      "name": "Somali Village",
      "nativeName": "Somali Village",
      "code": "KE-31-11832114",
      "countryId": 192950,
      "countryCode": "KE",
      "stateCode": "KE-31",
      "latitude": -0.70177,
      "longitude": 36.42607
    },
    {
      "id": 179940,
      "name": "Songi",
      "nativeName": "Songi",
      "code": "KE-31-179940",
      "countryId": 192950,
      "countryCode": "KE",
      "stateCode": "KE-31",
      "latitude": -0.4314,
      "longitude": 35.7716
    },
    {
      "id": 179936,
      "name": "Songoni",
      "nativeName": "Songoni",
      "code": "KE-31-179936",
      "countryId": 192950,
      "countryCode": "KE",
      "stateCode": "KE-31",
      "latitude": -0.37956,
      "longitude": 35.67667
    },
    {
      "id": 179796,
      "name": "Subukia",
      "nativeName": "Subukia",
      "code": "KE-31-179796",
      "countryId": 192950,
      "countryCode": "KE",
      "stateCode": "KE-31",
      "latitude": -0.01644,
      "longitude": 36.20927
    },
    {
      "id": 179612,
      "name": "Taloa",
      "nativeName": "Taloa",
      "code": "KE-31-179612",
      "countryId": 192950,
      "countryCode": "KE",
      "stateCode": "KE-31",
      "latitude": -0.35531,
      "longitude": 35.5565
    },
    {
      "id": 11844065,
      "name": "Tandamara",
      "nativeName": "Tandamara",
      "code": "KE-31-11844065",
      "countryId": 192950,
      "countryCode": "KE",
      "stateCode": "KE-31",
      "latitude": -1.01663,
      "longitude": 36.33295
    },
    {
      "id": 11829905,
      "name": "Taramuka",
      "nativeName": "Taramuka",
      "code": "KE-31-11829905",
      "countryId": 192950,
      "countryCode": "KE",
      "stateCode": "KE-31",
      "latitude": -0.12335,
      "longitude": 36.12378
    },
    {
      "id": 11964631,
      "name": "Tinet",
      "nativeName": "Tinet",
      "code": "KE-31-11964631",
      "countryId": 192950,
      "countryCode": "KE",
      "stateCode": "KE-31",
      "latitude": -0.41317,
      "longitude": 35.57865
    },
    {
      "id": 11964503,
      "name": "Trenchs Top Camp",
      "nativeName": "Trenchs Top Camp",
      "code": "KE-31-11964503",
      "countryId": 192950,
      "countryCode": "KE",
      "stateCode": "KE-31",
      "latitude": -0.31864,
      "longitude": 35.64148
    },
    {
      "id": 11829938,
      "name": "Tunne",
      "nativeName": "Tunne",
      "code": "KE-31-11829938",
      "countryId": 192950,
      "countryCode": "KE",
      "stateCode": "KE-31",
      "latitude": -0.45596,
      "longitude": 36.29021
    },
    {
      "id": 11832075,
      "name": "Turasha Ridge Settlement",
      "nativeName": "Turasha Ridge Settlement",
      "code": "KE-31-11832075",
      "countryId": 192950,
      "countryCode": "KE",
      "stateCode": "KE-31",
      "latitude": -0.52563,
      "longitude": 36.40307
    },
    {
      "id": 178919,
      "name": "Turi",
      "nativeName": "Turi",
      "code": "KE-31-178919",
      "countryId": 192950,
      "countryCode": "KE",
      "stateCode": "KE-31",
      "latitude": -0.28244,
      "longitude": 35.75861
    },
    {
      "id": 178383,
      "name": "Wamgong",
      "nativeName": "Wamgong",
      "code": "KE-31-178383",
      "countryId": 192950,
      "countryCode": "KE",
      "stateCode": "KE-31",
      "latitude": -0.60945,
      "longitude": 35.59652
    },
    {
      "id": 178240,
      "name": "Waterer",
      "nativeName": "Waterer",
      "code": "KE-31-178240",
      "countryId": 192950,
      "countryCode": "KE",
      "stateCode": "KE-31",
      "latitude": -0.39185,
      "longitude": 35.6479
    },
    {
      "id": 11964504,
      "name": "Windhock",
      "nativeName": "Windhock",
      "code": "KE-31-11964504",
      "countryId": 192950,
      "countryCode": "KE",
      "stateCode": "KE-31",
      "latitude": -0.28231,
      "longitude": 35.64197
    }
  ]
}