{
  "stateId": 179585,
  "stateCode": "KE-40",
  "countryCode": "KE",
  "cities": [
    {
      "id": 196752,
      "name": "Hola",
      "nativeName": "Hola",
      "code": "KE-40-196752",
      "countryId": 192950,
      "countryCode": "KE",
      "stateCode": "KE-40",
      "latitude": -1.48256,
      "longitude": 40.03341
    },
    {
      "id": 201339,
      "name": "Abarati",
      "nativeName": "Abarati",
      "code": "KE-40-201339",
      "countryId": 192950,
      "countryCode": "KE",
      "stateCode": "KE-40",
      "latitude": -0.56313,
      "longitude": 39.71151
    },
    {
      "id": 201008,
      "name": "Anasa",
      "nativeName": "Anasa",
      "code": "KE-40-201008",
      "countryId": 192950,
      "countryCode": "KE",
      "stateCode": "KE-40",
      "latitude": -2.51607,
      "longitude": 40.30724
    },
    {
      "id": 200876,
      "name": "Arithi",
      "nativeName": "Arithi",
      "code": "KE-40-200876",
      "countryId": 192950,
      "countryCode": "KE",
      "stateCode": "KE-40",
      "latitude": -2.51269,
      "longitude": 40.32172
    },
    {
      "id": 200840,
      "name": "Assa",
      "nativeName": "Assa",
      "code": "KE-40-200840",
      "countryId": 192950,
      "countryCode": "KE",
      "stateCode": "KE-40",
      "latitude": -2.05644,
      "longitude": 39.43028
    },
    {
      "id": 11433564,
      "name": "Bahati",
      "nativeName": "Bahati",
      "code": "KE-40-11433564",
      "countryId": 192950,
      "countryCode": "KE",
      "stateCode": "KE-40",
      "latitude": -1.42773,
      "longitude": 40.00316
    },
    {
      "id": 200627,
      "name": "Baymo",
      "nativeName": "Baymo",
      "code": "KE-40-200627",
      "countryId": 192950,
      "countryCode": "KE",
      "stateCode": "KE-40",
      "latitude": -1.92617,
      "longitude": 40.13481
    },
    {
      "id": 7889785,
      "name": "Bfunbe",
      "nativeName": "Bfunbe",
      "code": "KE-40-7889785",
      "countryId": 192950,
      "countryCode": "KE",
      "stateCode": "KE-40",
      "latitude": -2.19243,
      "longitude": 40.19315
    },
    {
      "id": 200435,
      "name": "Bili",
      "nativeName": "Bili",
      "code": "KE-40-200435",
      "countryId": 192950,
      "countryCode": "KE",
      "stateCode": "KE-40",
      "latitude": -0.5961,
      "longitude": 39.69709
    },
    {
      "id": 8308138,
      "name": "Bilisa",
      "nativeName": "Bilisa",
      "code": "KE-40-8308138",
      "countryId": 192950,
      "countryCode": "KE",
      "stateCode": "KE-40",
      "latitude": -2.22199,
      "longitude": 40.12811
    },
    {
      "id": 200356,
      "name": "Bokoni",
      "nativeName": "Bokoni",
      "code": "KE-40-200356",
      "countryId": 192950,
      "countryCode": "KE",
      "stateCode": "KE-40",
      "latitude": -1.37052,
      "longitude": 40.0047
    },
    {
      "id": 200329,
      "name": "Bole",
      "nativeName": "Bole",
      "code": "KE-40-200329",
      "countryId": 192950,
      "countryCode": "KE",
      "stateCode": "KE-40",
      "latitude": -0.54895,
      "longitude": 39.69064
    },
    {
      "id": 181502,
      "name": "Bondeni",
      "nativeName": "Bondeni",
      "code": "KE-40-181502",
      "countryId": 192950,
      "countryCode": "KE",
      "stateCode": "KE-40",
      "latitude": -1.61261,
      "longitude": 40.08295
    },
    {
      "id": 200293,
      "name": "Bongonoko",
      "nativeName": "Bongonoko",
      "code": "KE-40-200293",
      "countryId": 192950,
      "countryCode": "KE",
      "stateCode": "KE-40",
      "latitude": -0.76667,
      "longitude": 39.8
    },
    {
      "id": 200225,
      "name": "Bubesa",
      "nativeName": "Bubesa",
      "code": "KE-40-200225",
      "countryId": 192950,
      "countryCode": "KE",
      "stateCode": "KE-40",
      "latitude": -2.02931,
      "longitude": 40.1586
    },
    {
      "id": 7844959,
      "name": "Bububu",
      "nativeName": "Bububu",
      "code": "KE-40-7844959",
      "countryId": 192950,
      "countryCode": "KE",
      "stateCode": "KE-40",
      "latitude": -1.75626,
      "longitude": 40.10049
    },
    {
      "id": 7889995,
      "name": "Buito",
      "nativeName": "Buito",
      "code": "KE-40-7889995",
      "countryId": 192950,
      "countryCode": "KE",
      "stateCode": "KE-40",
      "latitude": -2.41497,
      "longitude": 40.39013
    },
    {
      "id": 12718628,
      "name": "Bura Tana",
      "nativeName": "Bura Tana",
      "code": "KE-40-12718628",
      "countryId": 192950,
      "countryCode": "KE",
      "stateCode": "KE-40",
      "latitude": -1.19326,
      "longitude": 39.84049
    },
    {
      "id": 199858,
      "name": "Chamwanamuma",
      "nativeName": "Chamwanamuma",
      "code": "KE-40-199858",
      "countryId": 192950,
      "countryCode": "KE",
      "stateCode": "KE-40",
      "latitude": -2.50734,
      "longitude": 40.29542
    },
    {
      "id": 199856,
      "name": "Chanani",
      "nativeName": "Chanani",
      "code": "KE-40-199856",
      "countryId": 192950,
      "countryCode": "KE",
      "stateCode": "KE-40",
      "latitude": -1.55823,
      "longitude": 40.05352
    },
    {
      "id": 199798,
      "name": "Chathoro",
      "nativeName": "Handarako",
      "code": "KE-40-199798",
      "countryId": 192950,
      "countryCode": "KE",
      "stateCode": "KE-40",
      "latitude": -2.49578,
      "longitude": 40.26773
    },
    {
      "id": 199413,
      "name": "Chewani",
      "nativeName": "Chewani",
      "code": "KE-40-199413",
      "countryId": 192950,
      "countryCode": "KE",
      "stateCode": "KE-40",
      "latitude": -1.43609,
      "longitude": 40.02167
    },
    {
      "id": 199411,
      "name": "Chewele",
      "nativeName": "Chewele",
      "code": "KE-40-199411",
      "countryId": 192950,
      "countryCode": "KE",
      "stateCode": "KE-40",
      "latitude": -1.17417,
      "longitude": 39.96688
    },
    {
      "id": 199385,
      "name": "Chiffiri",
      "nativeName": "Chiffiri",
      "code": "KE-40-199385",
      "countryId": 192950,
      "countryCode": "KE",
      "stateCode": "KE-40",
      "latitude": -1.29405,
      "longitude": 39.70801
    },
    {
      "id": 199348,
      "name": "Chirte Hiyesa",
      "nativeName": "Chirte Hiyesa",
      "code": "KE-40-199348",
      "countryId": 192950,
      "countryCode": "KE",
      "stateCode": "KE-40",
      "latitude": -2.11667,
      "longitude": 39.65
    },
    {
      "id": 11525510,
      "name": "Chirufa",
      "nativeName": "Chirufa",
      "code": "KE-40-11525510",
      "countryId": 192950,
      "countryCode": "KE",
      "stateCode": "KE-40",
      "latitude": -2.05471,
      "longitude": 39.46073
    },
    {
      "id": 192088,
      "name": "Clema Dui",
      "nativeName": "Kilema Dui",
      "code": "KE-40-192088",
      "countryId": 192950,
      "countryCode": "KE",
      "stateCode": "KE-40",
      "latitude": -1.6,
      "longitude": 39.53333
    },
    {
      "id": 199229,
      "name": "Daba",
      "nativeName": "Daba",
      "code": "KE-40-199229",
      "countryId": 192950,
      "countryCode": "KE",
      "stateCode": "KE-40",
      "latitude": -1.57301,
      "longitude": 39.48081
    },
    {
      "id": 7889847,
      "name": "Dalu",
      "nativeName": "Dalu",
      "code": "KE-40-7889847",
      "countryId": 192950,
      "countryCode": "KE",
      "stateCode": "KE-40",
      "latitude": -2.37318,
      "longitude": 40.1478
    },
    {
      "id": 7889815,
      "name": "Danisa",
      "nativeName": "Danisa",
      "code": "KE-40-7889815",
      "countryId": 192950,
      "countryCode": "KE",
      "stateCode": "KE-40",
      "latitude": -2.27893,
      "longitude": 40.13458
    },
    {
      "id": 7889858,
      "name": "Daruka-Karicho",
      "nativeName": "Daruka-Karicho",
      "code": "KE-40-7889858",
      "countryId": 192950,
      "countryCode": "KE",
      "stateCode": "KE-40",
      "latitude": -2.29065,
      "longitude": 40.22946
    },
    {
      "id": 11525508,
      "name": "Desagut",
      "nativeName": "Desagut",
      "code": "KE-40-11525508",
      "countryId": 192950,
      "countryCode": "KE",
      "stateCode": "KE-40",
      "latitude": -2.0594,
      "longitude": 39.39417
    },
    {
      "id": 198981,
      "name": "Dida Warede",
      "nativeName": "Dida Warede",
      "code": "KE-40-198981",
      "countryId": 192950,
      "countryCode": "KE",
      "stateCode": "KE-40",
      "latitude": -2.4187,
      "longitude": 40.39944
    },
    {
      "id": 198822,
      "name": "Dumi",
      "nativeName": "Dumi",
      "code": "KE-40-198822",
      "countryId": 192950,
      "countryCode": "KE",
      "stateCode": "KE-40",
      "latitude": -2.26164,
      "longitude": 40.13427
    },
    {
      "id": 7900161,
      "name": "Duwayo",
      "nativeName": "Duwayo",
      "code": "KE-40-7900161",
      "countryId": 192950,
      "countryCode": "KE",
      "stateCode": "KE-40",
      "latitude": -1.69972,
      "longitude": 40.08213
    },
    {
      "id": 198712,
      "name": "Ege",
      "nativeName": "Ege",
      "code": "KE-40-198712",
      "countryId": 192950,
      "countryCode": "KE",
      "stateCode": "KE-40",
      "latitude": -2.24124,
      "longitude": 40.10684
    },
    {
      "id": 198584,
      "name": "El Jera",
      "nativeName": "El Jera",
      "code": "KE-40-198584",
      "countryId": 192950,
      "countryCode": "KE",
      "stateCode": "KE-40",
      "latitude": -1.66667,
      "longitude": 39.6
    },
    {
      "id": 7900151,
      "name": "Emausi",
      "nativeName": "Emausi",
      "code": "KE-40-7900151",
      "countryId": 192950,
      "countryCode": "KE",
      "stateCode": "KE-40",
      "latitude": -1.54168,
      "longitude": 40.04543
    },
    {
      "id": 198059,
      "name": "Fanjua",
      "nativeName": "Fanjua",
      "code": "KE-40-198059",
      "countryId": 192950,
      "countryCode": "KE",
      "stateCode": "KE-40",
      "latitude": -1.66066,
      "longitude": 40.12245
    },
    {
      "id": 197996,
      "name": "Furaha",
      "nativeName": "Furaha",
      "code": "KE-40-197996",
      "countryId": 192950,
      "countryCode": "KE",
      "stateCode": "KE-40",
      "latitude": -2.48175,
      "longitude": 40.21023
    },
    {
      "id": 197005,
      "name": "Gabani",
      "nativeName": "Gabani",
      "code": "KE-40-197005",
      "countryId": 192950,
      "countryCode": "KE",
      "stateCode": "KE-40",
      "latitude": -1.71737,
      "longitude": 40.12126
    },
    {
      "id": 7889856,
      "name": "Galili",
      "nativeName": "Galili",
      "code": "KE-40-7889856",
      "countryId": 192950,
      "countryCode": "KE",
      "stateCode": "KE-40",
      "latitude": -2.3368,
      "longitude": 40.21522
    },
    {
      "id": 11525512,
      "name": "Garabugoya",
      "nativeName": "Garabugoya",
      "code": "KE-40-11525512",
      "countryId": 192950,
      "countryCode": "KE",
      "stateCode": "KE-40",
      "latitude": -2.03515,
      "longitude": 39.41893
    },
    {
      "id": 197729,
      "name": "Garsen",
      "nativeName": "Garsen",
      "code": "KE-40-197729",
      "countryId": 192950,
      "countryCode": "KE",
      "stateCode": "KE-40",
      "latitude": -2.26645,
      "longitude": 40.10975
    },
    {
      "id": 11525517,
      "name": "Gerarsa",
      "nativeName": "Gerarsa",
      "code": "KE-40-11525517",
      "countryId": 192950,
      "countryCode": "KE",
      "stateCode": "KE-40",
      "latitude": -2.04547,
      "longitude": 39.47681
    },
    {
      "id": 197855,
      "name": "Ghalamani",
      "nativeName": "Ghalamani",
      "code": "KE-40-197855",
      "countryId": 192950,
      "countryCode": "KE",
      "stateCode": "KE-40",
      "latitude": -1.3935,
      "longitude": 39.9984
    },
    {
      "id": 7903256,
      "name": "Godanabio",
      "nativeName": "Godanabio",
      "code": "KE-40-7903256",
      "countryId": 192950,
      "countryCode": "KE",
      "stateCode": "KE-40",
      "latitude": -2.55523,
      "longitude": 40.1974
    },
    {
      "id": 197106,
      "name": "Golbanti",
      "nativeName": "Golbanti",
      "code": "KE-40-197106",
      "countryId": 192950,
      "countryCode": "KE",
      "stateCode": "KE-40",
      "latitude": -2.45518,
      "longitude": 40.19235
    },
    {
      "id": 7889855,
      "name": "Gomesa",
      "nativeName": "Gomesa",
      "code": "KE-40-7889855",
      "countryId": 192950,
      "countryCode": "KE",
      "stateCode": "KE-40",
      "latitude": -2.34635,
      "longitude": 40.21607
    },
    {
      "id": 7889817,
      "name": "Gubanargesa",
      "nativeName": "Gubanargesa",
      "code": "KE-40-7889817",
      "countryId": 192950,
      "countryCode": "KE",
      "stateCode": "KE-40",
      "latitude": -2.31738,
      "longitude": 40.17498
    },
    {
      "id": 11525500,
      "name": "Gutati",
      "nativeName": "Gutati",
      "code": "KE-40-11525500",
      "countryId": 192950,
      "countryCode": "KE",
      "stateCode": "KE-40",
      "latitude": -2.04873,
      "longitude": 39.24594
    },
    {
      "id": 196874,
      "name": "Handampia",
      "nativeName": "Handampia",
      "code": "KE-40-196874",
      "countryId": 192950,
      "countryCode": "KE",
      "stateCode": "KE-40",
      "latitude": -1.5974,
      "longitude": 40.06086
    },
    {
      "id": 196872,
      "name": "Handarako",
      "nativeName": "Handarako",
      "code": "KE-40-196872",
      "countryId": 192950,
      "countryCode": "KE",
      "stateCode": "KE-40",
      "latitude": -1.78333,
      "longitude": 39.35
    },
    {
      "id": 196788,
      "name": "Hewani",
      "nativeName": "Hewani",
      "code": "KE-40-196788",
      "countryId": 192950,
      "countryCode": "KE",
      "stateCode": "KE-40",
      "latitude": -2.23416,
      "longitude": 40.17808
    },
    {
      "id": 11886096,
      "name": "Hidilathi",
      "nativeName": "Hidilathi",
      "code": "KE-40-11886096",
      "countryId": 192950,
      "countryCode": "KE",
      "stateCode": "KE-40",
      "latitude": -2.4284,
      "longitude": 38.63726
    },
    {
      "id": 11429222,
      "name": "Hola",
      "nativeName": "Hola",
      "code": "KE-40-11429222",
      "countryId": 192950,
      "countryCode": "KE",
      "stateCode": "KE-40",
      "latitude": -1.49448,
      "longitude": 40.06117
    },
    {
      "id": 196662,
      "name": "Idsowe",
      "nativeName": "Idsowe",
      "code": "KE-40-196662",
      "countryId": 192950,
      "countryCode": "KE",
      "stateCode": "KE-40",
      "latitude": -2.29569,
      "longitude": 40.1228
    },
    {
      "id": 196310,
      "name": "Irangi",
      "nativeName": "Irangi",
      "code": "KE-40-196310",
      "countryId": 192950,
      "countryCode": "KE",
      "stateCode": "KE-40",
      "latitude": -0.35,
      "longitude": 39.48333
    },
    {
      "id": 7889992,
      "name": "Jalalaluma",
      "nativeName": "Jalalaluma",
      "code": "KE-40-7889992",
      "countryId": 192950,
      "countryCode": "KE",
      "stateCode": "KE-40",
      "latitude": -2.40799,
      "longitude": 40.35917
    },
    {
      "id": 7900162,
      "name": "Jamhuri",
      "nativeName": "Jamhuri",
      "code": "KE-40-7900162",
      "countryId": 192950,
      "countryCode": "KE",
      "stateCode": "KE-40",
      "latitude": -1.73054,
      "longitude": 40.08946
    },
    {
      "id": 187957,
      "name": "Jara",
      "nativeName": "Jara",
      "code": "KE-40-187957",
      "countryId": 192950,
      "countryCode": "KE",
      "stateCode": "KE-40",
      "latitude": -0.71298,
      "longitude": 39.79321
    },
    {
      "id": 195991,
      "name": "Jara",
      "nativeName": "Jara",
      "code": "KE-40-195991",
      "countryId": 192950,
      "countryCode": "KE",
      "stateCode": "KE-40",
      "latitude": -1.93333,
      "longitude": 39.03333
    },
    {
      "id": 195190,
      "name": "Kakungu",
      "nativeName": "Kakungu",
      "code": "KE-40-195190",
      "countryId": 192950,
      "countryCode": "KE",
      "stateCode": "KE-40",
      "latitude": -0.06634,
      "longitude": 38.71898
    },
    {
      "id": 11433570,
      "name": "Kalkacha",
      "nativeName": "Kalkacha",
      "code": "KE-40-11433570",
      "countryId": 192950,
      "countryCode": "KE",
      "stateCode": "KE-40",
      "latitude": -1.5,
      "longitude": 39.99123
    },
    {
      "id": 194656,
      "name": "Kamudi",
      "nativeName": "Kamudi",
      "code": "KE-40-194656",
      "countryId": 192950,
      "countryCode": "KE",
      "stateCode": "KE-40",
      "latitude": -0.65,
      "longitude": 39.8
    },
    {
      "id": 194363,
      "name": "Kanjonja",
      "nativeName": "Kanjonja",
      "code": "KE-40-194363",
      "countryId": 192950,
      "countryCode": "KE",
      "stateCode": "KE-40",
      "latitude": -1.74348,
      "longitude": 40.12145
    },
    {
      "id": 7890032,
      "name": "Kanwe-Mayi",
      "nativeName": "Kanwe-Mayi",
      "code": "KE-40-7890032",
      "countryId": 192950,
      "countryCode": "KE",
      "stateCode": "KE-40",
      "latitude": -2.44752,
      "longitude": 40.47056
    },
    {
      "id": 444980,
      "name": "Karare",
      "nativeName": "Karare",
      "code": "KE-40-444980",
      "countryId": 192950,
      "countryCode": "KE",
      "stateCode": "KE-40",
      "latitude": -0.32266,
      "longitude": 39.55081
    },
    {
      "id": 7844958,
      "name": "Karota",
      "nativeName": "Karota",
      "code": "KE-40-7844958",
      "countryId": 192950,
      "countryCode": "KE",
      "stateCode": "KE-40",
      "latitude": -1.79649,
      "longitude": 40.03741
    },
    {
      "id": 193236,
      "name": "Kau",
      "nativeName": "Kau",
      "code": "KE-40-193236",
      "countryId": 192950,
      "countryCode": "KE",
      "stateCode": "KE-40",
      "latitude": -2.48743,
      "longitude": 40.43866
    },
    {
      "id": 7900148,
      "name": "Kelokelo",
      "nativeName": "Kelokelo",
      "code": "KE-40-7900148",
      "countryId": 192950,
      "countryCode": "KE",
      "stateCode": "KE-40",
      "latitude": -1.61288,
      "longitude": 40.07214
    },
    {
      "id": 192853,
      "name": "Kesanguri",
      "nativeName": "Kesanguri",
      "code": "KE-40-192853",
      "countryId": 192950,
      "countryCode": "KE",
      "stateCode": "KE-40",
      "latitude": -1.61667,
      "longitude": 39.71667
    },
    {
      "id": 11433568,
      "name": "Kiamunyaka",
      "nativeName": "Kiamunyaka",
      "code": "KE-40-11433568",
      "countryId": 192950,
      "countryCode": "KE",
      "stateCode": "KE-40",
      "latitude": -1.5223,
      "longitude": 39.99761
    },
    {
      "id": 11433574,
      "name": "Kiarukungu",
      "nativeName": "Kiarukungu",
      "code": "KE-40-11433574",
      "countryId": 192950,
      "countryCode": "KE",
      "stateCode": "KE-40",
      "latitude": -1.48047,
      "longitude": 39.98862
    },
    {
      "id": 7890031,
      "name": "Kibaoni",
      "nativeName": "Kibaoni",
      "code": "KE-40-7890031",
      "countryId": 192950,
      "countryCode": "KE",
      "stateCode": "KE-40",
      "latitude": -2.47248,
      "longitude": 40.48802
    },
    {
      "id": 7890025,
      "name": "Kibarani",
      "nativeName": "Kibarani",
      "code": "KE-40-7890025",
      "countryId": 192950,
      "countryCode": "KE",
      "stateCode": "KE-40",
      "latitude": -2.48751,
      "longitude": 40.41893
    },
    {
      "id": 192424,
      "name": "Kibokoni",
      "nativeName": "Kibokoni",
      "code": "KE-40-192424",
      "countryId": 192950,
      "countryCode": "KE",
      "stateCode": "KE-40",
      "latitude": -2.51439,
      "longitude": 40.35723
    },
    {
      "id": 192387,
      "name": "Kibusu",
      "nativeName": "Kibusu",
      "code": "KE-40-192387",
      "countryId": 192950,
      "countryCode": "KE",
      "stateCode": "KE-40",
      "latitude": -2.35151,
      "longitude": 40.14269
    },
    {
      "id": 7844728,
      "name": "Kidhanga",
      "nativeName": "Kidhanga",
      "code": "KE-40-7844728",
      "countryId": 192950,
      "countryCode": "KE",
      "stateCode": "KE-40",
      "latitude": -2.50934,
      "longitude": 40.41479
    },
    {
      "id": 7889878,
      "name": "Kikomo",
      "nativeName": "Kikomo",
      "code": "KE-40-7889878",
      "countryId": 192950,
      "countryCode": "KE",
      "stateCode": "KE-40",
      "latitude": -2.49317,
      "longitude": 40.29384
    },
    {
      "id": 7890027,
      "name": "Kilelengwani",
      "nativeName": "Kilelengwani",
      "code": "KE-40-7890027",
      "countryId": 192950,
      "countryCode": "KE",
      "stateCode": "KE-40",
      "latitude": -2.47474,
      "longitude": 40.46382
    },
    {
      "id": 7890026,
      "name": "Kilunguni",
      "nativeName": "Kilunguni",
      "code": "KE-40-7890026",
      "countryId": 192950,
      "countryCode": "KE",
      "stateCode": "KE-40",
      "latitude": -2.50049,
      "longitude": 40.46854
    },
    {
      "id": 191771,
      "name": "Kinyadu",
      "nativeName": "Kinyadu",
      "code": "KE-40-191771",
      "countryId": 192950,
      "countryCode": "KE",
      "stateCode": "KE-40",
      "latitude": -2.01742,
      "longitude": 40.15341
    },
    {
      "id": 7889852,
      "name": "Kipao",
      "nativeName": "Kipao",
      "code": "KE-40-7889852",
      "countryId": 192950,
      "countryCode": "KE",
      "stateCode": "KE-40",
      "latitude": -2.43167,
      "longitude": 40.2174
    },
    {
      "id": 191681,
      "name": "Kipendi",
      "nativeName": "Kipendi",
      "code": "KE-40-191681",
      "countryId": 192950,
      "countryCode": "KE",
      "stateCode": "KE-40",
      "latitude": -1.80442,
      "longitude": 40.11388
    },
    {
      "id": 191675,
      "name": "Kipini",
      "nativeName": "Kipini",
      "code": "KE-40-191675",
      "countryId": 192950,
      "countryCode": "KE",
      "stateCode": "KE-40",
      "latitude": -2.52565,
      "longitude": 40.5262
    },
    {
      "id": 191171,
      "name": "Kitere",
      "nativeName": "Kitere",
      "code": "KE-40-191171",
      "countryId": 192950,
      "countryCode": "KE",
      "stateCode": "KE-40",
      "latitude": -1.95343,
      "longitude": 40.14574
    },
    {
      "id": 11433626,
      "name": "Kitole",
      "nativeName": "Kitole",
      "code": "KE-40-11433626",
      "countryId": 192950,
      "countryCode": "KE",
      "stateCode": "KE-40",
      "latitude": -1.98515,
      "longitude": 40.17872
    },
    {
      "id": 7889763,
      "name": "Kivira",
      "nativeName": "Kivira",
      "code": "KE-40-7889763",
      "countryId": 192950,
      "countryCode": "KE",
      "stateCode": "KE-40",
      "latitude": -2.04179,
      "longitude": 40.16075
    },
    {
      "id": 190909,
      "name": "Kivukoni",
      "nativeName": "Kivukoni",
      "code": "KE-40-190909",
      "countryId": 192950,
      "countryCode": "KE",
      "stateCode": "KE-40",
      "latitude": -1.78363,
      "longitude": 40.11931
    },
    {
      "id": 190766,
      "name": "Koito",
      "nativeName": "Koito",
      "code": "KE-40-190766",
      "countryId": 192950,
      "countryCode": "KE",
      "stateCode": "KE-40",
      "latitude": -3.0144,
      "longitude": 39.11479
    },
    {
      "id": 8308136,
      "name": "Kokani",
      "nativeName": "Kokani",
      "code": "KE-40-8308136",
      "countryId": 192950,
      "countryCode": "KE",
      "stateCode": "KE-40",
      "latitude": -2.04277,
      "longitude": 40.08263
    },
    {
      "id": 190583,
      "name": "Kone",
      "nativeName": "Kone",
      "code": "KE-40-190583",
      "countryId": 192950,
      "countryCode": "KE",
      "stateCode": "KE-40",
      "latitude": -1.50867,
      "longitude": 40.04258
    },
    {
      "id": 190569,
      "name": "Konguna",
      "nativeName": "Konguna",
      "code": "KE-40-190569",
      "countryId": 192950,
      "countryCode": "KE",
      "stateCode": "KE-40",
      "latitude": -2.25218,
      "longitude": 40.11892
    },
    {
      "id": 190474,
      "name": "Korokora",
      "nativeName": "Korokora",
      "code": "KE-40-190474",
      "countryId": 192950,
      "countryCode": "KE",
      "stateCode": "KE-40",
      "latitude": -0.61011,
      "longitude": 39.78079
    },
    {
      "id": 190300,
      "name": "Kulelet",
      "nativeName": "Kulelet",
      "code": "KE-40-190300",
      "countryId": 192950,
      "countryCode": "KE",
      "stateCode": "KE-40",
      "latitude": -2.03333,
      "longitude": 39.15
    },
    {
      "id": 190299,
      "name": "Kulesa",
      "nativeName": "Kulesa",
      "code": "KE-40-190299",
      "countryId": 192950,
      "countryCode": "KE",
      "stateCode": "KE-40",
      "latitude": -2.18125,
      "longitude": 40.17487
    },
    {
      "id": 190283,
      "name": "Kumb",
      "nativeName": "Kumb",
      "code": "KE-40-190283",
      "countryId": 192950,
      "countryCode": "KE",
      "stateCode": "KE-40",
      "latitude": -1.28126,
      "longitude": 40.00237
    },
    {
      "id": 193814,
      "name": "Kurawa",
      "nativeName": "Kurawa",
      "code": "KE-40-193814",
      "countryId": 192950,
      "countryCode": "KE",
      "stateCode": "KE-40",
      "latitude": -2.64629,
      "longitude": 40.19556
    },
    {
      "id": 8308137,
      "name": "Kuryole",
      "nativeName": "Kuryole",
      "code": "KE-40-8308137",
      "countryId": 192950,
      "countryCode": "KE",
      "stateCode": "KE-40",
      "latitude": -2.20812,
      "longitude": 40.1367
    },
    {
      "id": 11433533,
      "name": "Kwa Mbondo",
      "nativeName": "Kwa Mbondo",
      "code": "KE-40-11433533",
      "countryId": 192950,
      "countryCode": "KE",
      "stateCode": "KE-40",
      "latitude": -1.06814,
      "longitude": 39.09458
    },
    {
      "id": 190036,
      "name": "Kwangatuni",
      "nativeName": "Kwangatuni",
      "code": "KE-40-190036",
      "countryId": 192950,
      "countryCode": "KE",
      "stateCode": "KE-40",
      "latitude": -0.21732,
      "longitude": 38.62914
    },
    {
      "id": 189789,
      "name": "Lailon",
      "nativeName": "Lailon",
      "code": "KE-40-189789",
      "countryId": 192950,
      "countryCode": "KE",
      "stateCode": "KE-40",
      "latitude": -2.50014,
      "longitude": 40.26422
    },
    {
      "id": 7844457,
      "name": "Laini",
      "nativeName": "Laini",
      "code": "KE-40-7844457",
      "countryId": 192950,
      "countryCode": "KE",
      "stateCode": "KE-40",
      "latitude": -1.36347,
      "longitude": 40.00185
    },
    {
      "id": 189674,
      "name": "Laza",
      "nativeName": "Laza",
      "code": "KE-40-189674",
      "countryId": 192950,
      "countryCode": "KE",
      "stateCode": "KE-40",
      "latitude": -1.49658,
      "longitude": 40.03878
    },
    {
      "id": 189672,
      "name": "Lazima",
      "nativeName": "Lazima",
      "code": "KE-40-189672",
      "countryId": 192950,
      "countryCode": "KE",
      "stateCode": "KE-40",
      "latitude": -2.11981,
      "longitude": 40.16711
    },
    {
      "id": 189641,
      "name": "Leka",
      "nativeName": "Leka",
      "code": "KE-40-189641",
      "countryId": 192950,
      "countryCode": "KE",
      "stateCode": "KE-40",
      "latitude": -1.32564,
      "longitude": 39.84189
    },
    {
      "id": 189553,
      "name": "Lenda",
      "nativeName": "Lenda",
      "code": "KE-40-189553",
      "countryId": 192950,
      "countryCode": "KE",
      "stateCode": "KE-40",
      "latitude": -1.57248,
      "longitude": 40.05755
    },
    {
      "id": 7889818,
      "name": "Mafomba",
      "nativeName": "Mafomba",
      "code": "KE-40-7889818",
      "countryId": 192950,
      "countryCode": "KE",
      "stateCode": "KE-40",
      "latitude": -2.33892,
      "longitude": 40.15762
    },
    {
      "id": 188288,
      "name": "Mahuzumia",
      "nativeName": "Mahuzumia",
      "code": "KE-40-188288",
      "countryId": 192950,
      "countryCode": "KE",
      "stateCode": "KE-40",
      "latitude": -2.51667,
      "longitude": 40.33333
    },
    {
      "id": 188219,
      "name": "Majengo",
      "nativeName": "Majengo",
      "code": "KE-40-188219",
      "countryId": 192950,
      "countryCode": "KE",
      "stateCode": "KE-40",
      "latitude": -1.67589,
      "longitude": 40.11989
    },
    {
      "id": 188145,
      "name": "Makere",
      "nativeName": "Makere",
      "code": "KE-40-188145",
      "countryId": 192950,
      "countryCode": "KE",
      "stateCode": "KE-40",
      "latitude": -1.33519,
      "longitude": 40.00874
    },
    {
      "id": 188143,
      "name": "Makere Ya Gwano",
      "nativeName": "Makere Ya Gwano",
      "code": "KE-40-188143",
      "countryId": 192950,
      "countryCode": "KE",
      "stateCode": "KE-40",
      "latitude": -1.85155,
      "longitude": 40.11222
    },
    {
      "id": 11433569,
      "name": "Makutano",
      "nativeName": "Makutano",
      "code": "KE-40-11433569",
      "countryId": 192950,
      "countryCode": "KE",
      "stateCode": "KE-40",
      "latitude": -1.50648,
      "longitude": 40.00144
    },
    {
      "id": 187980,
      "name": "Malibati",
      "nativeName": "Malibati",
      "code": "KE-40-187980",
      "countryId": 192950,
      "countryCode": "KE",
      "stateCode": "KE-40",
      "latitude": -1.29278,
      "longitude": 40.04169
    },
    {
      "id": 7889993,
      "name": "Malkamasa",
      "nativeName": "Malkamasa",
      "code": "KE-40-7889993",
      "countryId": 192950,
      "countryCode": "KE",
      "stateCode": "KE-40",
      "latitude": -2.43385,
      "longitude": 40.37143
    },
    {
      "id": 187897,
      "name": "Mandeni",
      "nativeName": "Mandeni",
      "code": "KE-40-187897",
      "countryId": 192950,
      "countryCode": "KE",
      "stateCode": "KE-40",
      "latitude": -2.43664,
      "longitude": 40.52277
    },
    {
      "id": 187774,
      "name": "Maongo",
      "nativeName": "Maongo",
      "code": "KE-40-187774",
      "countryId": 192950,
      "countryCode": "KE",
      "stateCode": "KE-40",
      "latitude": -2.51667,
      "longitude": 40.33333
    },
    {
      "id": 7844698,
      "name": "Marafa",
      "nativeName": "Marafa",
      "code": "KE-40-7844698",
      "countryId": 192950,
      "countryCode": "KE",
      "stateCode": "KE-40",
      "latitude": -2.52362,
      "longitude": 40.30906
    },
    {
      "id": 187684,
      "name": "Marembo",
      "nativeName": "Marembo",
      "code": "KE-40-187684",
      "countryId": 192950,
      "countryCode": "KE",
      "stateCode": "KE-40",
      "latitude": -2.13734,
      "longitude": 40.17482
    },
    {
      "id": 187595,
      "name": "Maroni",
      "nativeName": "Maroni",
      "code": "KE-40-187595",
      "countryId": 192950,
      "countryCode": "KE",
      "stateCode": "KE-40",
      "latitude": -1.81289,
      "longitude": 40.10999
    },
    {
      "id": 11433542,
      "name": "Masa",
      "nativeName": "Masa",
      "code": "KE-40-11433542",
      "countryId": 192950,
      "countryCode": "KE",
      "stateCode": "KE-40",
      "latitude": -1.14426,
      "longitude": 39.95726
    },
    {
      "id": 187543,
      "name": "Masabubu",
      "nativeName": "Masabubu",
      "code": "KE-40-187543",
      "countryId": 192950,
      "countryCode": "KE",
      "stateCode": "KE-40",
      "latitude": -1.20727,
      "longitude": 40.00381
    },
    {
      "id": 187532,
      "name": "Masalani",
      "nativeName": "Masalani",
      "code": "KE-40-187532",
      "countryId": 192950,
      "countryCode": "KE",
      "stateCode": "KE-40",
      "latitude": -1.69405,
      "longitude": 40.17015
    },
    {
      "id": 11525507,
      "name": "Matagadarisha",
      "nativeName": "Matagadarisha",
      "code": "KE-40-11525507",
      "countryId": 192950,
      "countryCode": "KE",
      "stateCode": "KE-40",
      "latitude": -2.06765,
      "longitude": 39.37347
    },
    {
      "id": 11433571,
      "name": "Matanya",
      "nativeName": "Matanya",
      "code": "KE-40-11433571",
      "countryId": 192950,
      "countryCode": "KE",
      "stateCode": "KE-40",
      "latitude": -1.47315,
      "longitude": 39.99571
    },
    {
      "id": 444979,
      "name": "Matapani",
      "nativeName": "Matapani",
      "code": "KE-40-444979",
      "countryId": 192950,
      "countryCode": "KE",
      "stateCode": "KE-40",
      "latitude": -2.46925,
      "longitude": 40.4872
    },
    {
      "id": 11433628,
      "name": "Mau Mau",
      "nativeName": "Mau Mau",
      "code": "KE-40-11433628",
      "countryId": 192950,
      "countryCode": "KE",
      "stateCode": "KE-40",
      "latitude": -1.50183,
      "longitude": 40.01607
    },
    {
      "id": 7900158,
      "name": "Maweni",
      "nativeName": "Maweni",
      "code": "KE-40-7900158",
      "countryId": 192950,
      "countryCode": "KE",
      "stateCode": "KE-40",
      "latitude": -1.62544,
      "longitude": 40.07746
    },
    {
      "id": 7889777,
      "name": "Maziwa",
      "nativeName": "Maziwa",
      "code": "KE-40-7889777",
      "countryId": 192950,
      "countryCode": "KE",
      "stateCode": "KE-40",
      "latitude": -2.1833,
      "longitude": 40.13638
    },
    {
      "id": 187137,
      "name": "Mazuni",
      "nativeName": "Mazuni",
      "code": "KE-40-187137",
      "countryId": 192950,
      "countryCode": "KE",
      "stateCode": "KE-40",
      "latitude": -1.63684,
      "longitude": 40.10614
    },
    {
      "id": 187115,
      "name": "Mbalambala",
      "nativeName": "Mbalambala",
      "code": "KE-40-187115",
      "countryId": 192950,
      "countryCode": "KE",
      "stateCode": "KE-40",
      "latitude": -0.049,
      "longitude": 39.071
    },
    {
      "id": 11525514,
      "name": "Menga",
      "nativeName": "Menga",
      "code": "KE-40-11525514",
      "countryId": 192950,
      "countryCode": "KE",
      "stateCode": "KE-40",
      "latitude": -2.07952,
      "longitude": 39.47253
    },
    {
      "id": 7889764,
      "name": "Mikameni",
      "nativeName": "Mikameni",
      "code": "KE-40-7889764",
      "countryId": 192950,
      "countryCode": "KE",
      "stateCode": "KE-40",
      "latitude": -2.0651,
      "longitude": 40.16176
    },
    {
      "id": 186700,
      "name": "Mikinduni",
      "nativeName": "Mikinduni",
      "code": "KE-40-186700",
      "countryId": 192950,
      "countryCode": "KE",
      "stateCode": "KE-40",
      "latitude": -1.53217,
      "longitude": 40.03985
    },
    {
      "id": 7844723,
      "name": "Milimani",
      "nativeName": "Milimani",
      "code": "KE-40-7844723",
      "countryId": 192950,
      "countryCode": "KE",
      "stateCode": "KE-40",
      "latitude": -2.52815,
      "longitude": 40.34473
    },
    {
      "id": 186647,
      "name": "Minjila",
      "nativeName": "Minjila",
      "code": "KE-40-186647",
      "countryId": 192950,
      "countryCode": "KE",
      "stateCode": "KE-40",
      "latitude": -2.31916,
      "longitude": 40.11084
    },
    {
      "id": 186461,
      "name": "Mkomaniboi",
      "nativeName": "Mkomaniboi",
      "code": "KE-40-186461",
      "countryId": 192950,
      "countryCode": "KE",
      "stateCode": "KE-40",
      "latitude": -1.62664,
      "longitude": 40.10202
    },
    {
      "id": 186406,
      "name": "Mnazinia",
      "nativeName": "Mnazini",
      "code": "KE-40-186406",
      "countryId": 192950,
      "countryCode": "KE",
      "stateCode": "KE-40",
      "latitude": -1.97989,
      "longitude": 40.148
    },
    {
      "id": 186012,
      "name": "Mugani",
      "nativeName": "Mugani",
      "code": "KE-40-186012",
      "countryId": 192950,
      "countryCode": "KE",
      "stateCode": "KE-40",
      "latitude": -0.47414,
      "longitude": 38.67181
    },
    {
      "id": 7889778,
      "name": "Mukokoa",
      "nativeName": "Mukokoa",
      "code": "KE-40-7889778",
      "countryId": 192950,
      "countryCode": "KE",
      "stateCode": "KE-40",
      "latitude": -2.24409,
      "longitude": 40.1215
    },
    {
      "id": 185648,
      "name": "Munguvini",
      "nativeName": "Munguvini",
      "code": "KE-40-185648",
      "countryId": 192950,
      "countryCode": "KE",
      "stateCode": "KE-40",
      "latitude": -2.01351,
      "longitude": 40.15276
    },
    {
      "id": 185339,
      "name": "Mutiboko",
      "nativeName": "Mutiboko",
      "code": "KE-40-185339",
      "countryId": 192950,
      "countryCode": "KE",
      "stateCode": "KE-40",
      "latitude": -1.47913,
      "longitude": 39.68758
    },
    {
      "id": 11981813,
      "name": "Mwalano",
      "nativeName": "Mwalano",
      "code": "KE-40-11981813",
      "countryId": 192950,
      "countryCode": "KE",
      "stateCode": "KE-40",
      "latitude": -0.14247,
      "longitude": 38.53538
    },
    {
      "id": 185083,
      "name": "Mwanathumba",
      "nativeName": "Mwanathamba",
      "code": "KE-40-185083",
      "countryId": 192950,
      "countryCode": "KE",
      "stateCode": "KE-40",
      "latitude": -2.43333,
      "longitude": 40.1974
    },
    {
      "id": 184928,
      "name": "Mwina",
      "nativeName": "Mwina",
      "code": "KE-40-184928",
      "countryId": 192950,
      "countryCode": "KE",
      "stateCode": "KE-40",
      "latitude": -2.06296,
      "longitude": 40.17686
    },
    {
      "id": 184444,
      "name": "Nanigi East",
      "nativeName": "Nanigi East",
      "code": "KE-40-184444",
      "countryId": 192950,
      "countryCode": "KE",
      "stateCode": "KE-40",
      "latitude": -0.85449,
      "longitude": 39.87052
    },
    {
      "id": 184443,
      "name": "Nanigi West",
      "nativeName": "Nanigi West",
      "code": "KE-40-184443",
      "countryId": 192950,
      "countryCode": "KE",
      "stateCode": "KE-40",
      "latitude": -0.84945,
      "longitude": 39.83483
    },
    {
      "id": 183951,
      "name": "Nduru",
      "nativeName": "Nduru",
      "code": "KE-40-183951",
      "countryId": 192950,
      "countryCode": "KE",
      "stateCode": "KE-40",
      "latitude": -2.50554,
      "longitude": 40.27026
    },
    {
      "id": 183827,
      "name": "Ngao",
      "nativeName": "Ngao",
      "code": "KE-40-183827",
      "countryId": 192950,
      "countryCode": "KE",
      "stateCode": "KE-40",
      "latitude": -2.41026,
      "longitude": 40.20057
    },
    {
      "id": 183391,
      "name": "Ngwena",
      "nativeName": "Malindi ya Ngwena",
      "code": "KE-40-183391",
      "countryId": 192950,
      "countryCode": "KE",
      "stateCode": "KE-40",
      "latitude": -1.45805,
      "longitude": 40.02987
    },
    {
      "id": 182786,
      "name": "Nyangwani",
      "nativeName": "Nyangwani",
      "code": "KE-40-182786",
      "countryId": 192950,
      "countryCode": "KE",
      "stateCode": "KE-40",
      "latitude": -1.26171,
      "longitude": 40.02508
    },
    {
      "id": 182548,
      "name": "Obo",
      "nativeName": "Obo",
      "code": "KE-40-182548",
      "countryId": 192950,
      "countryCode": "KE",
      "stateCode": "KE-40",
      "latitude": -1.34854,
      "longitude": 40.00158
    },
    {
      "id": 182530,
      "name": "Oda",
      "nativeName": "Oda",
      "code": "KE-40-182530",
      "countryId": 192950,
      "countryCode": "KE",
      "stateCode": "KE-40",
      "latitude": -2.46992,
      "longitude": 40.19068
    },
    {
      "id": 7844725,
      "name": "Odhole",
      "nativeName": "Odhole",
      "code": "KE-40-7844725",
      "countryId": 192950,
      "countryCode": "KE",
      "stateCode": "KE-40",
      "latitude": -2.51312,
      "longitude": 40.32784
    },
    {
      "id": 11525496,
      "name": "Odoganda",
      "nativeName": "Odoganda",
      "code": "KE-40-11525496",
      "countryId": 192950,
      "countryCode": "KE",
      "stateCode": "KE-40",
      "latitude": -2.09123,
      "longitude": 39.26914
    },
    {
      "id": 11525497,
      "name": "Odowani",
      "nativeName": "Odowani",
      "code": "KE-40-11525497",
      "countryId": 192950,
      "countryCode": "KE",
      "stateCode": "KE-40",
      "latitude": -2.08454,
      "longitude": 39.30163
    },
    {
      "id": 11525501,
      "name": "Onjebie",
      "nativeName": "Onjebie",
      "code": "KE-40-11525501",
      "countryId": 192950,
      "countryCode": "KE",
      "stateCode": "KE-40",
      "latitude": -2.02599,
      "longitude": 39.1991
    },
    {
      "id": 11525513,
      "name": "Onjila",
      "nativeName": "Onjila",
      "code": "KE-40-11525513",
      "countryId": 192950,
      "countryCode": "KE",
      "stateCode": "KE-40",
      "latitude": -2.08192,
      "longitude": 39.42315
    },
    {
      "id": 7889857,
      "name": "Onkolde",
      "nativeName": "Onkolde",
      "code": "KE-40-7889857",
      "countryId": 192950,
      "countryCode": "KE",
      "stateCode": "KE-40",
      "latitude": -2.31616,
      "longitude": 40.19473
    },
    {
      "id": 11525511,
      "name": "Onshora",
      "nativeName": "Onshora",
      "code": "KE-40-11525511",
      "countryId": 192950,
      "countryCode": "KE",
      "stateCode": "KE-40",
      "latitude": -2.05046,
      "longitude": 39.42498
    },
    {
      "id": 181832,
      "name": "Orbu",
      "nativeName": "Orbu",
      "code": "KE-40-181832",
      "countryId": 192950,
      "countryCode": "KE",
      "stateCode": "KE-40",
      "latitude": -0.65445,
      "longitude": 39.77325
    },
    {
      "id": 181701,
      "name": "Ozi",
      "nativeName": "Ozi",
      "code": "KE-40-181701",
      "countryId": 192950,
      "countryCode": "KE",
      "stateCode": "KE-40",
      "latitude": -2.5071,
      "longitude": 40.45532
    },
    {
      "id": 181613,
      "name": "Pendeza",
      "nativeName": "Pendeza",
      "code": "KE-40-181613",
      "countryId": 192950,
      "countryCode": "KE",
      "stateCode": "KE-40",
      "latitude": -1.48267,
      "longitude": 40.03397
    },
    {
      "id": 7889765,
      "name": "Peponi",
      "nativeName": "Peponi",
      "code": "KE-40-7889765",
      "countryId": 192950,
      "countryCode": "KE",
      "stateCode": "KE-40",
      "latitude": -2.0842,
      "longitude": 40.16424
    },
    {
      "id": 11885352,
      "name": "Posa",
      "nativeName": "Posa",
      "code": "KE-40-11885352",
      "countryId": 192950,
      "countryCode": "KE",
      "stateCode": "KE-40",
      "latitude": -0.51138,
      "longitude": 39.63989
    },
    {
      "id": 181503,
      "name": "Pumwani",
      "nativeName": "Pumwani",
      "code": "KE-40-181503",
      "countryId": 192950,
      "countryCode": "KE",
      "stateCode": "KE-40",
      "latitude": -1.19493,
      "longitude": 39.98898
    },
    {
      "id": 11433624,
      "name": "Punda Milima",
      "nativeName": "Punda Milima",
      "code": "KE-40-11433624",
      "countryId": 192950,
      "countryCode": "KE",
      "stateCode": "KE-40",
      "latitude": -1.91555,
      "longitude": 39.80789
    },
    {
      "id": 7889994,
      "name": "Reketa",
      "nativeName": "Reketa",
      "code": "KE-40-7889994",
      "countryId": 192950,
      "countryCode": "KE",
      "stateCode": "KE-40",
      "latitude": -2.43634,
      "longitude": 40.39082
    },
    {
      "id": 181153,
      "name": "Rhoka",
      "nativeName": "Rhoka",
      "code": "KE-40-181153",
      "countryId": 192950,
      "countryCode": "KE",
      "stateCode": "KE-40",
      "latitude": -1.27422,
      "longitude": 40.00861
    },
    {
      "id": 181152,
      "name": "Roka",
      "nativeName": "Roka",
      "code": "KE-40-181152",
      "countryId": 192950,
      "countryCode": "KE",
      "stateCode": "KE-40",
      "latitude": -1.6,
      "longitude": 39.2
    },
    {
      "id": 11525498,
      "name": "Sabare",
      "nativeName": "Sabare",
      "code": "KE-40-11525498",
      "countryId": 192950,
      "countryCode": "KE",
      "stateCode": "KE-40",
      "latitude": -2.06114,
      "longitude": 39.31733
    },
    {
      "id": 180853,
      "name": "Saidibabo",
      "nativeName": "Saidibabo",
      "code": "KE-40-180853",
      "countryId": 192950,
      "countryCode": "KE",
      "stateCode": "KE-40",
      "latitude": -2.52302,
      "longitude": 40.34212
    },
    {
      "id": 180849,
      "name": "Sailoni",
      "nativeName": "Sailoni",
      "code": "KE-40-180849",
      "countryId": 192950,
      "countryCode": "KE",
      "stateCode": "KE-40",
      "latitude": -2.14924,
      "longitude": 40.18394
    },
    {
      "id": 180830,
      "name": "Saka",
      "nativeName": "Saka",
      "code": "KE-40-180830",
      "countryId": 192950,
      "countryCode": "KE",
      "stateCode": "KE-40",
      "latitude": -0.14035,
      "longitude": 39.32805
    },
    {
      "id": 180768,
      "name": "Samicha",
      "nativeName": "Samicha",
      "code": "KE-40-180768",
      "countryId": 192950,
      "countryCode": "KE",
      "stateCode": "KE-40",
      "latitude": -2.51048,
      "longitude": 40.3235
    },
    {
      "id": 180767,
      "name": "Samikaro",
      "nativeName": "Samikaro",
      "code": "KE-40-180767",
      "countryId": 192950,
      "countryCode": "KE",
      "stateCode": "KE-40",
      "latitude": -2.50032,
      "longitude": 40.2941
    },
    {
      "id": 180691,
      "name": "Sarbuye",
      "nativeName": "Sarbuye",
      "code": "KE-40-180691",
      "countryId": 192950,
      "countryCode": "KE",
      "stateCode": "KE-40",
      "latitude": -2.18333,
      "longitude": 39.9
    },
    {
      "id": 7889770,
      "name": "Sera",
      "nativeName": "Sera",
      "code": "KE-40-7889770",
      "countryId": 192950,
      "countryCode": "KE",
      "stateCode": "KE-40",
      "latitude": -2.12766,
      "longitude": 40.12689
    },
    {
      "id": 7844720,
      "name": "Shirikisho",
      "nativeName": "Shirikisho",
      "code": "KE-40-7844720",
      "countryId": 192950,
      "countryCode": "KE",
      "stateCode": "KE-40",
      "latitude": -2.52201,
      "longitude": 40.32792
    },
    {
      "id": 7889814,
      "name": "Shirikisho",
      "nativeName": "Shirikisho",
      "code": "KE-40-7889814",
      "countryId": 192950,
      "countryCode": "KE",
      "stateCode": "KE-40",
      "latitude": -2.35009,
      "longitude": 40.12709
    },
    {
      "id": 179748,
      "name": "Sumai",
      "nativeName": "Sumai",
      "code": "KE-40-179748",
      "countryId": 192950,
      "countryCode": "KE",
      "stateCode": "KE-40",
      "latitude": -1.53333,
      "longitude": 39.31667
    },
    {
      "id": 8308146,
      "name": "Tarasaa",
      "nativeName": "Tarasaa",
      "code": "KE-40-8308146",
      "countryId": 192950,
      "countryCode": "KE",
      "stateCode": "KE-40",
      "latitude": -2.44188,
      "longitude": 40.17075
    },
    {
      "id": 179445,
      "name": "Teso",
      "nativeName": "Teso",
      "code": "KE-40-179445",
      "countryId": 192950,
      "countryCode": "KE",
      "stateCode": "KE-40",
      "latitude": -1.3,
      "longitude": 39.66667
    },
    {
      "id": 11433538,
      "name": "Til Tila",
      "nativeName": "Til Tila",
      "code": "KE-40-11433538",
      "countryId": 192950,
      "countryCode": "KE",
      "stateCode": "KE-40",
      "latitude": -1.01289,
      "longitude": 39.28672
    },
    {
      "id": 179146,
      "name": "Titila",
      "nativeName": "Titila",
      "code": "KE-40-179146",
      "countryId": 192950,
      "countryCode": "KE",
      "stateCode": "KE-40",
      "latitude": -1.53333,
      "longitude": 39.21667
    },
    {
      "id": 179018,
      "name": "Tula",
      "nativeName": "Tula",
      "code": "KE-40-179018",
      "countryId": 192950,
      "countryCode": "KE",
      "stateCode": "KE-40",
      "latitude": -0.8478,
      "longitude": 39.69976
    },
    {
      "id": 178991,
      "name": "Tulu",
      "nativeName": "Tulu",
      "code": "KE-40-178991",
      "countryId": 192950,
      "countryCode": "KE",
      "stateCode": "KE-40",
      "latitude": -2.2747,
      "longitude": 40.09454
    },
    {
      "id": 178938,
      "name": "Tuni",
      "nativeName": "Tuni",
      "code": "KE-40-178938",
      "countryId": 192950,
      "countryCode": "KE",
      "stateCode": "KE-40",
      "latitude": -1.00645,
      "longitude": 39.89318
    },
    {
      "id": 11433563,
      "name": "Umoja",
      "nativeName": "Umoja",
      "code": "KE-40-11433563",
      "countryId": 192950,
      "countryCode": "KE",
      "stateCode": "KE-40",
      "latitude": -1.41476,
      "longitude": 39.99481
    },
    {
      "id": 11525515,
      "name": "Unkuno",
      "nativeName": "Unkuno",
      "code": "KE-40-11525515",
      "countryId": 192950,
      "countryCode": "KE",
      "stateCode": "KE-40",
      "latitude": -2.05355,
      "longitude": 39.46227
    },
    {
      "id": 178490,
      "name": "Wachakone",
      "nativeName": "Wachakone",
      "code": "KE-40-178490",
      "countryId": 192950,
      "countryCode": "KE",
      "stateCode": "KE-40",
      "latitude": -1.44705,
      "longitude": 40.02574
    },
    {
      "id": 178397,
      "name": "Walu",
      "nativeName": "Walu",
      "code": "KE-40-178397",
      "countryId": 192950,
      "countryCode": "KE",
      "stateCode": "KE-40",
      "latitude": -1.7,
      "longitude": 40.13333
    },
    {
      "id": 178205,
      "name": "Wayu",
      "nativeName": "Wayu",
      "code": "KE-40-178205",
      "countryId": 192950,
      "countryCode": "KE",
      "stateCode": "KE-40",
      "latitude": -1.52995,
      "longitude": 39.58529
    },
    {
      "id": 11433587,
      "name": "Wayu Boro",
      "nativeName": "Wayu Boro",
      "code": "KE-40-11433587",
      "countryId": 192950,
      "countryCode": "KE",
      "stateCode": "KE-40",
      "latitude": -1.52534,
      "longitude": 39.54681
    },
    {
      "id": 178183,
      "name": "Wema",
      "nativeName": "Wema",
      "code": "KE-40-178183",
      "countryId": 192950,
      "countryCode": "KE",
      "stateCode": "KE-40",
      "latitude": -2.21062,
      "longitude": 40.17903
    },
    {
      "id": 178176,
      "name": "Wenje",
      "nativeName": "Wenje",
      "code": "KE-40-178176",
      "countryId": 192950,
      "countryCode": "KE",
      "stateCode": "KE-40",
      "latitude": -1.79264,
      "longitude": 40.11102
    },
    {
      "id": 195154,
      "name": "Woldena",
      "nativeName": "Woldena",
      "code": "KE-40-195154",
      "countryId": 192950,
      "countryCode": "KE",
      "stateCode": "KE-40",
      "latitude": -1.61154,
      "longitude": 39.02743
    },
    {
      "id": 178050,
      "name": "Yaka",
      "nativeName": "Yaka",
      "code": "KE-40-178050",
      "countryId": 192950,
      "countryCode": "KE",
      "stateCode": "KE-40",
      "latitude": -1.55,
      "longitude": 39.38333
    },
    {
      "id": 177972,
      "name": "Yedi",
      "nativeName": "Yedi",
      "code": "KE-40-177972",
      "countryId": 192950,
      "countryCode": "KE",
      "stateCode": "KE-40",
      "latitude": -1.03333,
      "longitude": 39.88333
    }
  ]
}