{
  "countryId": 1899402,
  "countryCode": "CK",
  "states": [
    {
      "id": 11695124,
      "name": "Aitutaki",
      "nativeName": "Aitutaki",
      "code": "CK-11695124",
      "internalCode": "",
      "countryId": 1899402,
      "countryCode": "CK",
      "latitude": -18.85593,
      "longitude": -159.78567
    },
    {
      "id": 11695126,
      "name": "Atiu",
      "nativeName": "Atiu",
      "code": "CK-11695126",
      "internalCode": "",
      "countryId": 1899402,
      "countryCode": "CK",
      "latitude": -19.99569,
      "longitude": -158.10948
    },
    {
      "id": 11695385,
      "name": "Ma'uke",
      "nativeName": "Ma'uke",
      "code": "CK-11695385",
      "internalCode": "",
      "countryId": 1899402,
      "countryCode": "CK",
      "latitude": -20.16732,
      "longitude": -157.33675
    },
    {
      "id": 11695127,
      "name": "Mangaia",
      "nativeName": "Mangaia",
      "code": "CK-11695127",
      "internalCode": "",
      "countryId": 1899402,
      "countryCode": "CK",
      "latitude": -21.92601,
      "longitude": -157.91851
    },
    {
      "id": 11695384,
      "name": "Manihiki",
      "nativeName": "Manihiki",
      "code": "CK-11695384",
      "internalCode": "",
      "countryId": 1899402,
      "countryCode": "CK",
      "latitude": -10.42603,
      "longitude": -160.97992
    },
    {
      "id": 11695386,
      "name": "Mitiaro",
      "nativeName": "Mitiaro",
      "code": "CK-11695386",
      "internalCode": "",
      "countryId": 1899402,
      "countryCode": "CK",
      "latitude": -19.86861,
      "longitude": -157.709
    },
    {
      "id": 11695387,
      "name": "Palmerston",
      "nativeName": "Palmerston",
      "code": "CK-11695387",
      "internalCode": "",
      "countryId": 1899402,
      "countryCode": "CK",
      "latitude": -18.05856,
      "longitude": -163.18233
    },
    {
      "id": 11695388,
      "name": "Penrhyn",
      "nativeName": "Penrhyn",
      "code": "CK-11695388",
      "internalCode": "",
      "countryId": 1899402,
      "countryCode": "CK",
      "latitude": -8.99479,
      "longitude": -157.96555
    },
    {
      "id": 11695389,
      "name": "Pukapuka",
      "nativeName": "Pukapuka",
      "code": "CK-11695389",
      "internalCode": "",
      "countryId": 1899402,
      "countryCode": "CK",
      "latitude": -10.85371,
      "longitude": -165.84738
    },
    {
      "id": 11695390,
      "name": "Rakahanga",
      "nativeName": "Rakahanga",
      "code": "CK-11695390",
      "internalCode": "",
      "countryId": 1899402,
      "countryCode": "CK",
      "latitude": -10.03174,
      "longitude": -161.09098
    },
    {
      "id": 11695425,
      "name": "Rarotonga",
      "nativeName": "Rarotonga",
      "code": "CK-11695425",
      "internalCode": "",
      "countryId": 1899402,
      "countryCode": "CK",
      "latitude": -21.23274,
      "longitude": -159.77245
    }
  ]
}