{
  "stateId": 4034365,
  "stateCode": "PF-V",
  "countryCode": "PF",
  "cities": [
    {
      "id": 10295208,
      "name": "Arue",
      "nativeName": "Arue",
      "code": "PF-V-10295208",
      "countryId": 4030656,
      "countryCode": "PF",
      "stateCode": "PF-V",
      "latitude": -17.5335,
      "longitude": -149.51285
    },
    {
      "id": 10295209,
      "name": "Faaa",
      "nativeName": "Faaa",
      "code": "PF-V-10295209",
      "countryId": 4030656,
      "countryCode": "PF",
      "stateCode": "PF-V",
      "latitude": -17.55208,
      "longitude": -149.59667
    },
    {
      "id": 4034400,
      "name": "Hitiaa O Te Ra",
      "nativeName": "Hitiaa O Te Ra",
      "code": "PF-V-4034400",
      "countryId": 4030656,
      "countryCode": "PF",
      "stateCode": "PF-V",
      "latitude": -17.60574,
      "longitude": -149.30523
    },
    {
      "id": 10295210,
      "name": "Mahina",
      "nativeName": "Mahina",
      "code": "PF-V-10295210",
      "countryId": 4030656,
      "countryCode": "PF",
      "stateCode": "PF-V",
      "latitude": -17.50849,
      "longitude": -149.49002
    },
    {
      "id": 10297424,
      "name": "Moorea-Maiao",
      "nativeName": "Moorea-Maiao",
      "code": "PF-V-10297424",
      "countryId": 4030656,
      "countryCode": "PF",
      "stateCode": "PF-V",
      "latitude": -17.49826,
      "longitude": -149.83532
    },
    {
      "id": 10295211,
      "name": "Paea",
      "nativeName": "Paea",
      "code": "PF-V-10295211",
      "countryId": 4030656,
      "countryCode": "PF",
      "stateCode": "PF-V",
      "latitude": -17.69274,
      "longitude": -149.58414
    },
    {
      "id": 10295212,
      "name": "Papara",
      "nativeName": "Papara",
      "code": "PF-V-10295212",
      "countryId": 4030656,
      "countryCode": "PF",
      "stateCode": "PF-V",
      "latitude": -17.75021,
      "longitude": -149.55478
    },
    {
      "id": 10295213,
      "name": "Papeete",
      "nativeName": "Papeete",
      "code": "PF-V-10295213",
      "countryId": 4030656,
      "countryCode": "PF",
      "stateCode": "PF-V",
      "latitude": -17.53501,
      "longitude": -149.56804
    },
    {
      "id": 10295214,
      "name": "Pirae",
      "nativeName": "Pirae",
      "code": "PF-V-10295214",
      "countryId": 4030656,
      "countryCode": "PF",
      "stateCode": "PF-V",
      "latitude": -17.55465,
      "longitude": -149.52891
    },
    {
      "id": 4033777,
      "name": "Punaauia",
      "nativeName": "Punaauia",
      "code": "PF-V-4033777",
      "countryId": 4030656,
      "countryCode": "PF",
      "stateCode": "PF-V",
      "latitude": -17.61667,
      "longitude": -149.58333
    },
    {
      "id": 10297425,
      "name": "Taiarapu-Est",
      "nativeName": "Taiarapu-Est",
      "code": "PF-V-10297425",
      "countryId": 4030656,
      "countryCode": "PF",
      "stateCode": "PF-V",
      "latitude": -17.78836,
      "longitude": -149.20017
    },
    {
      "id": 10297426,
      "name": "Taiarapu-Ouest",
      "nativeName": "Taiarapu-Ouest",
      "code": "PF-V-10297426",
      "countryId": 4030656,
      "countryCode": "PF",
      "stateCode": "PF-V",
      "latitude": -17.82965,
      "longitude": -149.24788
    },
    {
      "id": 10297429,
      "name": "Teva I Uta",
      "nativeName": "Teva I Uta",
      "code": "PF-V-10297429",
      "countryId": 4030656,
      "countryCode": "PF",
      "stateCode": "PF-V",
      "latitude": -17.73956,
      "longitude": -149.40917
    }
  ]
}