{
  "stateId": 2439374,
  "stateCode": "NE-5",
  "countryCode": "NE",
  "cities": [
    {
      "id": 8624181,
      "name": "Abalak",
      "nativeName": "Abalak",
      "code": "NE-5-8624181",
      "countryId": 2440476,
      "countryCode": "NE",
      "stateCode": "NE-5",
      "latitude": 15.41618,
      "longitude": 6.16975
    },
    {
      "id": 11996032,
      "name": "Bagaroua",
      "nativeName": "Bagaroua",
      "code": "NE-5-11996032",
      "countryId": 2440476,
      "countryCode": "NE",
      "stateCode": "NE-5",
      "latitude": 14.35335,
      "longitude": 4.62348
    },
    {
      "id": 2446752,
      "name": "Birni N'Konni",
      "nativeName": "Département de Birni Nkonni",
      "code": "NE-5-2446752",
      "countryId": 2440476,
      "countryCode": "NE",
      "stateCode": "NE-5",
      "latitude": 13.9,
      "longitude": 5.25
    },
    {
      "id": 2446465,
      "name": "Bouza",
      "nativeName": "Département de Bouza",
      "code": "NE-5-2446465",
      "countryId": 2440476,
      "countryCode": "NE",
      "stateCode": "NE-5",
      "latitude": 14.43333,
      "longitude": 6
    },
    {
      "id": 2443303,
      "name": "Illéla",
      "nativeName": "Département d' Illéla",
      "code": "NE-5-2443303",
      "countryId": 2440476,
      "countryCode": "NE",
      "stateCode": "NE-5",
      "latitude": 14.25,
      "longitude": 5
    },
    {
      "id": 2442477,
      "name": "Keita",
      "nativeName": "Département de Keïta",
      "code": "NE-5-2442477",
      "countryId": 2440476,
      "countryCode": "NE",
      "stateCode": "NE-5",
      "latitude": 14.8,
      "longitude": 6
    },
    {
      "id": 2441528,
      "name": "Madaoua",
      "nativeName": "Département de Madaoua",
      "code": "NE-5-2441528",
      "countryId": 2440476,
      "countryCode": "NE",
      "stateCode": "NE-5",
      "latitude": 13.99988,
      "longitude": 6.10012
    },
    {
      "id": 11996034,
      "name": "Malbaza",
      "nativeName": "Malbaza",
      "code": "NE-5-11996034",
      "countryId": 2440476,
      "countryCode": "NE",
      "stateCode": "NE-5",
      "latitude": 14.04086,
      "longitude": 5.55938
    },
    {
      "id": 2439375,
      "name": "Tahoua",
      "nativeName": "Département de Tahoua",
      "code": "NE-5-2439375",
      "countryId": 2440476,
      "countryCode": "NE",
      "stateCode": "NE-5",
      "latitude": 14.8,
      "longitude": 4.8
    },
    {
      "id": 11996025,
      "name": "Tassara",
      "nativeName": "Tassara",
      "code": "NE-5-11996025",
      "countryId": 2440476,
      "countryCode": "NE",
      "stateCode": "NE-5",
      "latitude": 17.24358,
      "longitude": 4.92602
    },
    {
      "id": 2438973,
      "name": "Tchintabaraden",
      "nativeName": "Département de Tchin-Tabaraden",
      "code": "NE-5-2438973",
      "countryId": 2440476,
      "countryCode": "NE",
      "stateCode": "NE-5",
      "latitude": 15.86694,
      "longitude": 5.71042
    },
    {
      "id": 11996028,
      "name": "Tillia",
      "nativeName": "Tillia",
      "code": "NE-5-11996028",
      "countryId": 2440476,
      "countryCode": "NE",
      "stateCode": "NE-5",
      "latitude": 15.90023,
      "longitude": 4.55747
    },
    {
      "id": 11996030,
      "name": "Ville de Tahoua",
      "nativeName": "Ville de Tahoua",
      "code": "NE-5-11996030",
      "countryId": 2440476,
      "countryCode": "NE",
      "stateCode": "NE-5",
      "latitude": 14.88589,
      "longitude": 5.23643
    }
  ]
}