{
  "stateId": 2595293,
  "stateCode": "NE-6",
  "countryCode": "NE",
  "cities": [
    {
      "id": 11996015,
      "name": "Abala",
      "nativeName": "Abala",
      "code": "NE-6-11996015",
      "countryId": 2440476,
      "countryCode": "NE",
      "stateCode": "NE-6",
      "latitude": 14.97388,
      "longitude": 3.64693
    },
    {
      "id": 11996016,
      "name": "Ayerou",
      "nativeName": "Ayerou",
      "code": "NE-6-11996016",
      "countryId": 2440476,
      "countryCode": "NE",
      "stateCode": "NE-6",
      "latitude": 14.93911,
      "longitude": 1.17264
    },
    {
      "id": 11996031,
      "name": "Balleyara",
      "nativeName": "Balleyara",
      "code": "NE-6-11996031",
      "countryId": 2440476,
      "countryCode": "NE",
      "stateCode": "NE-6",
      "latitude": 13.72848,
      "longitude": 2.87503
    },
    {
      "id": 11996013,
      "name": "Banibangou",
      "nativeName": "Banibangou",
      "code": "NE-6-11996013",
      "countryId": 2440476,
      "countryCode": "NE",
      "stateCode": "NE-6",
      "latitude": 15.10622,
      "longitude": 2.47141
    },
    {
      "id": 11996005,
      "name": "Bankilaré",
      "nativeName": "Bankilaré",
      "code": "NE-6-11996005",
      "countryId": 2440476,
      "countryCode": "NE",
      "stateCode": "NE-6",
      "latitude": 14.50835,
      "longitude": 0.6647
    },
    {
      "id": 2444994,
      "name": "Filingué",
      "nativeName": "Département de Filingué",
      "code": "NE-6-2444994",
      "countryId": 2440476,
      "countryCode": "NE",
      "stateCode": "NE-6",
      "latitude": 14.31645,
      "longitude": 3.23611
    },
    {
      "id": 11996021,
      "name": "Gothèye",
      "nativeName": "Gothèye",
      "code": "NE-6-11996021",
      "countryId": 2440476,
      "countryCode": "NE",
      "stateCode": "NE-6",
      "latitude": 13.80436,
      "longitude": 1.43588
    },
    {
      "id": 8334578,
      "name": "Kollo",
      "nativeName": "Kollo Department",
      "code": "NE-6-8334578",
      "countryId": 2440476,
      "countryCode": "NE",
      "stateCode": "NE-6",
      "latitude": 13.576,
      "longitude": 2.452
    },
    {
      "id": 2440370,
      "name": "Ouallam",
      "nativeName": "Département de Ouallam",
      "code": "NE-6-2440370",
      "countryId": 2440476,
      "countryCode": "NE",
      "stateCode": "NE-6",
      "latitude": 14.63333,
      "longitude": 2.25
    },
    {
      "id": 2439811,
      "name": "Say",
      "nativeName": "Département de Say",
      "code": "NE-6-2439811",
      "countryId": 2440476,
      "countryCode": "NE",
      "stateCode": "NE-6",
      "latitude": 13.03579,
      "longitude": 2.22112
    },
    {
      "id": 8334576,
      "name": "Tillabéri",
      "nativeName": "Tillaberi Department",
      "code": "NE-6-8334576",
      "countryId": 2440476,
      "countryCode": "NE",
      "stateCode": "NE-6",
      "latitude": 14.516,
      "longitude": 1.443
    },
    {
      "id": 11996029,
      "name": "Torodi",
      "nativeName": "Torodi",
      "code": "NE-6-11996029",
      "countryId": 2440476,
      "countryCode": "NE",
      "stateCode": "NE-6",
      "latitude": 13.12077,
      "longitude": 1.49376
    },
    {
      "id": 8334577,
      "name": "Téra",
      "nativeName": "Tera Department",
      "code": "NE-6-8334577",
      "countryId": 2440476,
      "countryCode": "NE",
      "stateCode": "NE-6",
      "latitude": 14.186,
      "longitude": 0.843
    }
  ]
}