{
  "stateId": 1516278,
  "stateCode": "MN-071",
  "countryCode": "MN",
  "cities": [
    {
      "id": 6619150,
      "name": "Altai District",
      "nativeName": "Altay",
      "code": "MN-071-6619150",
      "countryId": 2029969,
      "countryCode": "MN",
      "stateCode": "MN-071",
      "latitude": 48.29359,
      "longitude": 89.51488
    },
    {
      "id": 6619147,
      "name": "Altantsögts District",
      "nativeName": "Altantsögts",
      "code": "MN-071-6619147",
      "countryId": 2029969,
      "countryCode": "MN",
      "stateCode": "MN-071",
      "latitude": 49.04811,
      "longitude": 90.46177
    },
    {
      "id": 1516281,
      "name": "Bayannuur",
      "nativeName": "Bayannuur",
      "code": "MN-071-1516281",
      "countryId": 2029969,
      "countryCode": "MN",
      "stateCode": "MN-071",
      "latitude": 48.93333,
      "longitude": 91.13333
    },
    {
      "id": 6619145,
      "name": "Bugat District",
      "nativeName": "Bugat",
      "code": "MN-071-6619145",
      "countryId": 2029969,
      "countryCode": "MN",
      "stateCode": "MN-071",
      "latitude": 48.94742,
      "longitude": 90.01974
    },
    {
      "id": 6619153,
      "name": "Bulgan District",
      "nativeName": "Bulgan",
      "code": "MN-071-6619153",
      "countryId": 2029969,
      "countryCode": "MN",
      "stateCode": "MN-071",
      "latitude": 46.92072,
      "longitude": 91.08713
    },
    {
      "id": 6619151,
      "name": "Buyant District",
      "nativeName": "Buyant",
      "code": "MN-071-6619151",
      "countryId": 2029969,
      "countryCode": "MN",
      "stateCode": "MN-071",
      "latitude": 48.57621,
      "longitude": 89.54759
    },
    {
      "id": 6619152,
      "name": "Delüün District",
      "nativeName": "Delüün",
      "code": "MN-071-6619152",
      "countryId": 2029969,
      "countryCode": "MN",
      "stateCode": "MN-071",
      "latitude": 47.75848,
      "longitude": 90.83324
    },
    {
      "id": 6619141,
      "name": "Nogoonnuur District",
      "nativeName": "Nogoonnuur",
      "code": "MN-071-6619141",
      "countryId": 2029969,
      "countryCode": "MN",
      "stateCode": "MN-071",
      "latitude": 49.60893,
      "longitude": 90.24239
    },
    {
      "id": 6619144,
      "name": "Sagsai District",
      "nativeName": "Sagsay sum",
      "code": "MN-071-6619144",
      "countryId": 2029969,
      "countryCode": "MN",
      "stateCode": "MN-071",
      "latitude": 48.89429,
      "longitude": 89.63608
    },
    {
      "id": 6619149,
      "name": "Tolbo District",
      "nativeName": "Tolbo",
      "code": "MN-071-6619149",
      "countryId": 2029969,
      "countryCode": "MN",
      "stateCode": "MN-071",
      "latitude": 48.4112,
      "longitude": 90.29251
    },
    {
      "id": 6619140,
      "name": "Tsagaannuur District",
      "nativeName": "Tsagaannuur",
      "code": "MN-071-6619140",
      "countryId": 2029969,
      "countryCode": "MN",
      "stateCode": "MN-071",
      "latitude": 49.50481,
      "longitude": 89.73255
    },
    {
      "id": 6619143,
      "name": "Tsengel District",
      "nativeName": "Tsengel",
      "code": "MN-071-6619143",
      "countryId": 2029969,
      "countryCode": "MN",
      "stateCode": "MN-071",
      "latitude": 48.94314,
      "longitude": 89.14358
    },
    {
      "id": 6619142,
      "name": "Ulaankhus District",
      "nativeName": "Ulaanhus",
      "code": "MN-071-6619142",
      "countryId": 2029969,
      "countryCode": "MN",
      "stateCode": "MN-071",
      "latitude": 49.03573,
      "longitude": 89.43747
    },
    {
      "id": 6619146,
      "name": "Ölgii",
      "nativeName": "Ölgii",
      "code": "MN-071-6619146",
      "countryId": 2029969,
      "countryCode": "MN",
      "stateCode": "MN-071",
      "latitude": 48.96382,
      "longitude": 89.96215
    },
    {
      "id": 6998284,
      "name": "Ölgiy Sum",
      "nativeName": "Ölgiy Sum",
      "code": "MN-071-6998284",
      "countryId": 2029969,
      "countryCode": "MN",
      "stateCode": "MN-071",
      "latitude": 48.98825,
      "longitude": 89.89507
    }
  ]
}