{
  "stateId": 2030469,
  "stateCode": "MN-041",
  "countryCode": "MN",
  "cities": [
    {
      "id": 6619001,
      "name": "Alag-Erdene",
      "nativeName": "Alag-Erdene",
      "code": "MN-041-6619001",
      "countryId": 2029969,
      "countryCode": "MN",
      "stateCode": "MN-041",
      "latitude": 50.11177,
      "longitude": 100.04288
    },
    {
      "id": 6619002,
      "name": "Arbulag Sum",
      "nativeName": "Arbulag",
      "code": "MN-041-6619002",
      "countryId": 2029969,
      "countryCode": "MN",
      "stateCode": "MN-041",
      "latitude": 49.89198,
      "longitude": 99.43417
    },
    {
      "id": 6619000,
      "name": "Bayandzürh",
      "nativeName": "Bayandzürh",
      "code": "MN-041-6619000",
      "countryId": 2029969,
      "countryCode": "MN",
      "stateCode": "MN-041",
      "latitude": 50.16854,
      "longitude": 98.96999
    },
    {
      "id": 10375937,
      "name": "Bayanzürkh",
      "nativeName": "Bayanzürkh",
      "code": "MN-041-10375937",
      "countryId": 2029969,
      "countryCode": "MN",
      "stateCode": "MN-041",
      "latitude": 50.17563,
      "longitude": 98.97823
    },
    {
      "id": 6619006,
      "name": "Bürentogtokh District",
      "nativeName": "Bürentogtoh",
      "code": "MN-041-6619006",
      "countryId": 2029969,
      "countryCode": "MN",
      "stateCode": "MN-041",
      "latitude": 49.4246,
      "longitude": 99.59999
    },
    {
      "id": 6619015,
      "name": "Chandmani-Öndör District",
      "nativeName": "Chandmanĭ-Öndör",
      "code": "MN-041-6619015",
      "countryId": 2029969,
      "countryCode": "MN",
      "stateCode": "MN-041",
      "latitude": 50.4692,
      "longitude": 100.93071
    },
    {
      "id": 6619017,
      "name": "Erdenebulgan",
      "nativeName": "Erdenebulgan",
      "code": "MN-041-6619017",
      "countryId": 2029969,
      "countryCode": "MN",
      "stateCode": "MN-041",
      "latitude": 50.10076,
      "longitude": 101.57616
    },
    {
      "id": 6619009,
      "name": "Galt Sum",
      "nativeName": "Galt",
      "code": "MN-041-6619009",
      "countryId": 2029969,
      "countryCode": "MN",
      "stateCode": "MN-041",
      "latitude": 48.76728,
      "longitude": 99.87465
    },
    {
      "id": 6619018,
      "name": "Hanh",
      "nativeName": "Hanh",
      "code": "MN-041-6619018",
      "countryId": 2029969,
      "countryCode": "MN",
      "stateCode": "MN-041",
      "latitude": 51.50265,
      "longitude": 100.66395
    },
    {
      "id": 6987860,
      "name": "Ikh-Uul District",
      "nativeName": "Ih-Uul Sum",
      "code": "MN-041-6987860",
      "countryId": 2029969,
      "countryCode": "MN",
      "stateCode": "MN-041",
      "latitude": 49.50917,
      "longitude": 101.43847
    },
    {
      "id": 6619010,
      "name": "Jargalant",
      "nativeName": "Jargalant",
      "code": "MN-041-6619010",
      "countryId": 2029969,
      "countryCode": "MN",
      "stateCode": "MN-041",
      "latitude": 48.58024,
      "longitude": 99.3528
    },
    {
      "id": 6987854,
      "name": "Jargalant Sum",
      "nativeName": "Jargalant Sum",
      "code": "MN-041-6987854",
      "countryId": 2029969,
      "countryCode": "MN",
      "stateCode": "MN-041",
      "latitude": 48.55972,
      "longitude": 99.42541
    },
    {
      "id": 10375938,
      "name": "Khatgal",
      "nativeName": "Khatgal",
      "code": "MN-041-10375938",
      "countryId": 2029969,
      "countryCode": "MN",
      "stateCode": "MN-041",
      "latitude": 50.43944,
      "longitude": 100.16167
    },
    {
      "id": 6619005,
      "name": "Mörön",
      "nativeName": "Mörön",
      "code": "MN-041-6619005",
      "countryId": 2029969,
      "countryCode": "MN",
      "stateCode": "MN-041",
      "latitude": 49.62495,
      "longitude": 100.16304
    },
    {
      "id": 6999363,
      "name": "Mörön Sum",
      "nativeName": "Mörön Sum",
      "code": "MN-041-6999363",
      "countryId": 2029969,
      "countryCode": "MN",
      "stateCode": "MN-041",
      "latitude": 49.64614,
      "longitude": 100.12101
    },
    {
      "id": 6619013,
      "name": "Rashaant Sum",
      "nativeName": "Rashaant",
      "code": "MN-041-6619013",
      "countryId": 2029969,
      "countryCode": "MN",
      "stateCode": "MN-041",
      "latitude": 49.12062,
      "longitude": 101.42921
    },
    {
      "id": 6618997,
      "name": "Renchinlhumbe Sum",
      "nativeName": "Renchinlhümbe",
      "code": "MN-041-6618997",
      "countryId": 2029969,
      "countryCode": "MN",
      "stateCode": "MN-041",
      "latitude": 51.1032,
      "longitude": 99.67243
    },
    {
      "id": 6619008,
      "name": "Shine-Ider District",
      "nativeName": "Shine-Ider",
      "code": "MN-041-6619008",
      "countryId": 2029969,
      "countryCode": "MN",
      "stateCode": "MN-041",
      "latitude": 48.94596,
      "longitude": 99.53665
    },
    {
      "id": 2029006,
      "name": "Tarialan District",
      "nativeName": "Tarialan",
      "code": "MN-041-2029006",
      "countryId": 2029969,
      "countryCode": "MN",
      "stateCode": "MN-041",
      "latitude": 49.61667,
      "longitude": 102.05
    },
    {
      "id": 6619011,
      "name": "Tosontsengel",
      "nativeName": "Tosontsengel",
      "code": "MN-041-6619011",
      "countryId": 2029969,
      "countryCode": "MN",
      "stateCode": "MN-041",
      "latitude": 49.47058,
      "longitude": 100.88917
    },
    {
      "id": 6619003,
      "name": "Tsagaan-Uul",
      "nativeName": "Tsagaan-Uul",
      "code": "MN-041-6619003",
      "countryId": 2029969,
      "countryCode": "MN",
      "stateCode": "MN-041",
      "latitude": 49.59224,
      "longitude": 98.6931
    },
    {
      "id": 6987865,
      "name": "Tsagaan-Uul District",
      "nativeName": "Tsagaan-Uul Sum",
      "code": "MN-041-6987865",
      "countryId": 2029969,
      "countryCode": "MN",
      "stateCode": "MN-041",
      "latitude": 49.55399,
      "longitude": 98.60264
    },
    {
      "id": 6619016,
      "name": "Tsagaan-Üür District",
      "nativeName": "Tsagaan-Üür",
      "code": "MN-041-6619016",
      "countryId": 2029969,
      "countryCode": "MN",
      "stateCode": "MN-041",
      "latitude": 50.53525,
      "longitude": 101.51299
    },
    {
      "id": 6618998,
      "name": "Tsagaannuur",
      "nativeName": "Tsagaannuur",
      "code": "MN-041-6618998",
      "countryId": 2029969,
      "countryCode": "MN",
      "stateCode": "MN-041",
      "latitude": 51.33919,
      "longitude": 99.34525
    },
    {
      "id": 6619004,
      "name": "Tsetserleg",
      "nativeName": "Tsetserleg",
      "code": "MN-041-6619004",
      "countryId": 2029969,
      "countryCode": "MN",
      "stateCode": "MN-041",
      "latitude": 49.5237,
      "longitude": 97.74116
    },
    {
      "id": 6619007,
      "name": "Tömörbulag District",
      "nativeName": "Tömörbulag",
      "code": "MN-041-6619007",
      "countryId": 2029969,
      "countryCode": "MN",
      "stateCode": "MN-041",
      "latitude": 49.29043,
      "longitude": 100.2566
    },
    {
      "id": 6619014,
      "name": "Tünel District",
      "nativeName": "Tünel",
      "code": "MN-041-6619014",
      "countryId": 2029969,
      "countryCode": "MN",
      "stateCode": "MN-041",
      "latitude": 49.85437,
      "longitude": 100.62824
    },
    {
      "id": 6618999,
      "name": "Ulaan-Uul",
      "nativeName": "Ulaan-Uul",
      "code": "MN-041-6618999",
      "countryId": 2029969,
      "countryCode": "MN",
      "stateCode": "MN-041",
      "latitude": 50.67743,
      "longitude": 99.2304
    }
  ]
}