{
  "stateId": 2030783,
  "stateCode": "MN-039",
  "countryCode": "MN",
  "cities": [
    {
      "id": 6618733,
      "name": "Batnorov District",
      "nativeName": "Batnorov",
      "code": "MN-039-6618733",
      "countryId": 2029969,
      "countryCode": "MN",
      "stateCode": "MN-039",
      "latitude": 47.94142,
      "longitude": 111.49784
    },
    {
      "id": 6618729,
      "name": "Batshireet District",
      "nativeName": "Batshireet",
      "code": "MN-039-6618729",
      "countryId": 2029969,
      "countryCode": "MN",
      "stateCode": "MN-039",
      "latitude": 48.67645,
      "longitude": 110.18257
    },
    {
      "id": 6618731,
      "name": "Bayan-Adarga",
      "nativeName": "Bayan-Adarga",
      "code": "MN-039-6618731",
      "countryId": 2029969,
      "countryCode": "MN",
      "stateCode": "MN-039",
      "latitude": 48.54661,
      "longitude": 111.08345
    },
    {
      "id": 6618734,
      "name": "Bayan-Ovoo",
      "nativeName": "Bayan-Ovoo",
      "code": "MN-039-6618734",
      "countryId": 2029969,
      "countryCode": "MN",
      "stateCode": "MN-039",
      "latitude": 47.77625,
      "longitude": 112.11582
    },
    {
      "id": 6618727,
      "name": "Bayanhutag",
      "nativeName": "Bayanhutag",
      "code": "MN-039-6618727",
      "countryId": 2029969,
      "countryCode": "MN",
      "stateCode": "MN-039",
      "latitude": 47.16101,
      "longitude": 110.81669
    },
    {
      "id": 6618720,
      "name": "Bayanmönh",
      "nativeName": "Bayanmönh",
      "code": "MN-039-6618720",
      "countryId": 2029969,
      "countryCode": "MN",
      "stateCode": "MN-039",
      "latitude": 46.89469,
      "longitude": 109.74998
    },
    {
      "id": 6618730,
      "name": "Binder District",
      "nativeName": "Binder",
      "code": "MN-039-6618730",
      "countryId": 2029969,
      "countryCode": "MN",
      "stateCode": "MN-039",
      "latitude": 48.6118,
      "longitude": 110.60005
    },
    {
      "id": 11898755,
      "name": "Bor-Öndör District",
      "nativeName": "Bor-Öndör Sum",
      "code": "MN-039-11898755",
      "countryId": 2029969,
      "countryCode": "MN",
      "stateCode": "MN-039",
      "latitude": 46.2477,
      "longitude": 109.38035
    },
    {
      "id": 6618732,
      "name": "Dadal District",
      "nativeName": "Dadal",
      "code": "MN-039-6618732",
      "countryId": 2029969,
      "countryCode": "MN",
      "stateCode": "MN-039",
      "latitude": 49.00905,
      "longitude": 111.63345
    },
    {
      "id": 6988013,
      "name": "Darhan District",
      "nativeName": "Darhan Sum",
      "code": "MN-039-6988013",
      "countryId": 2029969,
      "countryCode": "MN",
      "stateCode": "MN-039",
      "latitude": 46.59166,
      "longitude": 109.50089
    },
    {
      "id": 6618719,
      "name": "Darkhan District",
      "nativeName": "Darhan",
      "code": "MN-039-6618719",
      "countryId": 2029969,
      "countryCode": "MN",
      "stateCode": "MN-039",
      "latitude": 46.60558,
      "longitude": 109.41696
    },
    {
      "id": 6618721,
      "name": "Delgerkhaan District",
      "nativeName": "Delgerhaan",
      "code": "MN-039-6618721",
      "countryId": 2029969,
      "countryCode": "MN",
      "stateCode": "MN-039",
      "latitude": 47.17384,
      "longitude": 109.18968
    },
    {
      "id": 6618728,
      "name": "Galshar District",
      "nativeName": "Galshar",
      "code": "MN-039-6618728",
      "countryId": 2029969,
      "countryCode": "MN",
      "stateCode": "MN-039",
      "latitude": 46.23567,
      "longitude": 110.83488
    },
    {
      "id": 6618726,
      "name": "Herlen",
      "nativeName": "Herlen",
      "code": "MN-039-6618726",
      "countryId": 2029969,
      "countryCode": "MN",
      "stateCode": "MN-039",
      "latitude": 47.33812,
      "longitude": 110.68005
    },
    {
      "id": 6618722,
      "name": "Jargaltkhaan District",
      "nativeName": "Jargalthaan",
      "code": "MN-039-6618722",
      "countryId": 2029969,
      "countryCode": "MN",
      "stateCode": "MN-039",
      "latitude": 47.48914,
      "longitude": 109.47309
    },
    {
      "id": 6618725,
      "name": "Mörön",
      "nativeName": "Mörön",
      "code": "MN-039-6618725",
      "countryId": 2029969,
      "countryCode": "MN",
      "stateCode": "MN-039",
      "latitude": 47.37557,
      "longitude": 110.31664
    },
    {
      "id": 6618735,
      "name": "Norovlin District",
      "nativeName": "Norovlin",
      "code": "MN-039-6618735",
      "countryId": 2029969,
      "countryCode": "MN",
      "stateCode": "MN-039",
      "latitude": 48.68484,
      "longitude": 111.99463
    },
    {
      "id": 6618723,
      "name": "Tsenkhermandal District",
      "nativeName": "Tsenhermandal",
      "code": "MN-039-6618723",
      "countryId": 2029969,
      "countryCode": "MN",
      "stateCode": "MN-039",
      "latitude": 47.73886,
      "longitude": 109.05029
    },
    {
      "id": 6618715,
      "name": "Ömnödelger District",
      "nativeName": "Ömnödelger",
      "code": "MN-039-6618715",
      "countryId": 2029969,
      "countryCode": "MN",
      "stateCode": "MN-039",
      "latitude": 47.86086,
      "longitude": 109.9165
    }
  ]
}