{
  "stateId": 3576685,
  "stateCode": "LC-06",
  "countryCode": "LC",
  "cities": [
    {
      "id": 11351767,
      "name": "Americ",
      "nativeName": "Americ",
      "code": "LC-06-11351767",
      "countryId": 3576468,
      "countryCode": "LC",
      "stateCode": "LC-06",
      "latitude": 14.02087,
      "longitude": -60.93222
    },
    {
      "id": 11351768,
      "name": "Beausejour",
      "nativeName": "Beausejour",
      "code": "LC-06-11351768",
      "countryId": 3576468,
      "countryCode": "LC",
      "stateCode": "LC-06",
      "latitude": 14.07647,
      "longitude": -60.9378
    },
    {
      "id": 11351748,
      "name": "Beausejour/Fostin'S Development",
      "nativeName": "Beausejour/Fostin'S Development",
      "code": "LC-06-11351748",
      "countryId": 3576468,
      "countryCode": "LC",
      "stateCode": "LC-06",
      "latitude": 14.07445,
      "longitude": -60.92929
    },
    {
      "id": 11351769,
      "name": "Beausejour/Ndc",
      "nativeName": "Beausejour/Ndc",
      "code": "LC-06-11351769",
      "countryId": 3576468,
      "countryCode": "LC",
      "stateCode": "LC-06",
      "latitude": 14.07733,
      "longitude": -60.92683
    },
    {
      "id": 11351770,
      "name": "Bella Rosa",
      "nativeName": "Bella Rosa",
      "code": "LC-06-11351770",
      "countryId": 3576468,
      "countryCode": "LC",
      "stateCode": "LC-06",
      "latitude": 14.07711,
      "longitude": -60.94568
    },
    {
      "id": 11351831,
      "name": "Belle Vue",
      "nativeName": "Belle Vue",
      "code": "LC-06-11351831",
      "countryId": 3576468,
      "countryCode": "LC",
      "stateCode": "LC-06",
      "latitude": 14.0847,
      "longitude": -60.94342
    },
    {
      "id": 11351829,
      "name": "Belle Vue Estate",
      "nativeName": "Belle Vue Estate",
      "code": "LC-06-11351829",
      "countryId": 3576468,
      "countryCode": "LC",
      "stateCode": "LC-06",
      "latitude": 14.0884,
      "longitude": -60.94613
    },
    {
      "id": 11351399,
      "name": "Boguis",
      "nativeName": "Boguis",
      "code": "LC-06-11351399",
      "countryId": 3576468,
      "countryCode": "LC",
      "stateCode": "LC-06",
      "latitude": 14.01548,
      "longitude": -60.92089
    },
    {
      "id": 11351596,
      "name": "Boguis/Desa Blond",
      "nativeName": "Boguis/Desa Blond",
      "code": "LC-06-11351596",
      "countryId": 3576468,
      "countryCode": "LC",
      "stateCode": "LC-06",
      "latitude": 14.01057,
      "longitude": -60.92565
    },
    {
      "id": 11351555,
      "name": "Bois D'Orange",
      "nativeName": "Bois D'Orange",
      "code": "LC-06-11351555",
      "countryId": 3576468,
      "countryCode": "LC",
      "stateCode": "LC-06",
      "latitude": 14.05803,
      "longitude": -60.95992
    },
    {
      "id": 11351604,
      "name": "Bois D'Ornange/Trouya",
      "nativeName": "Bois D'Ornange/Trouya",
      "code": "LC-06-11351604",
      "countryId": 3576468,
      "countryCode": "LC",
      "stateCode": "LC-06",
      "latitude": 14.06198,
      "longitude": -60.96914
    },
    {
      "id": 11351771,
      "name": "Bonneterre",
      "nativeName": "Bonneterre",
      "code": "LC-06-11351771",
      "countryId": 3576468,
      "countryCode": "LC",
      "stateCode": "LC-06",
      "latitude": 14.06994,
      "longitude": -60.94146
    },
    {
      "id": 11351752,
      "name": "Bonneterre Gardens",
      "nativeName": "Bonneterre Gardens",
      "code": "LC-06-11351752",
      "countryId": 3576468,
      "countryCode": "LC",
      "stateCode": "LC-06",
      "latitude": 14.06737,
      "longitude": -60.93393
    },
    {
      "id": 11351467,
      "name": "Caille Des",
      "nativeName": "Caille Des",
      "code": "LC-06-11351467",
      "countryId": 3576468,
      "countryCode": "LC",
      "stateCode": "LC-06",
      "latitude": 13.98235,
      "longitude": -60.88814
    },
    {
      "id": 11351459,
      "name": "Cap Estate",
      "nativeName": "Cap Estate",
      "code": "LC-06-11351459",
      "countryId": 3576468,
      "countryCode": "LC",
      "stateCode": "LC-06",
      "latitude": 14.0941,
      "longitude": -60.93592
    },
    {
      "id": 11351773,
      "name": "Cap Estate/Anse Du Cap",
      "nativeName": "Cap Estate/Anse Du Cap",
      "code": "LC-06-11351773",
      "countryId": 3576468,
      "countryCode": "LC",
      "stateCode": "LC-06",
      "latitude": 14.10223,
      "longitude": -60.94537
    },
    {
      "id": 11351776,
      "name": "Cap Estate/Becune Park",
      "nativeName": "Cap Estate/Becune Park",
      "code": "LC-06-11351776",
      "countryId": 3576468,
      "countryCode": "LC",
      "stateCode": "LC-06",
      "latitude": 14.09458,
      "longitude": -60.94824
    },
    {
      "id": 11351784,
      "name": "Cap Estate/Becune Point",
      "nativeName": "Cap Estate/Becune Point",
      "code": "LC-06-11351784",
      "countryId": 3576468,
      "countryCode": "LC",
      "stateCode": "LC-06",
      "latitude": 14.0927,
      "longitude": -60.95161
    },
    {
      "id": 11351588,
      "name": "Cap Estate/Caribbean Park",
      "nativeName": "Cap Estate/Caribbean Park",
      "code": "LC-06-11351588",
      "countryId": 3576468,
      "countryCode": "LC",
      "stateCode": "LC-06",
      "latitude": 14.10019,
      "longitude": -60.92446
    },
    {
      "id": 11351783,
      "name": "Cap Estate/Golf Park",
      "nativeName": "Cap Estate/Golf Park",
      "code": "LC-06-11351783",
      "countryId": 3576468,
      "countryCode": "LC",
      "stateCode": "LC-06",
      "latitude": 14.09998,
      "longitude": -60.93705
    },
    {
      "id": 11351778,
      "name": "Cap Estate/Lower Saline Point",
      "nativeName": "Cap Estate/Lower Saline Point",
      "code": "LC-06-11351778",
      "countryId": 3576468,
      "countryCode": "LC",
      "stateCode": "LC-06",
      "latitude": 14.10515,
      "longitude": -60.9431
    },
    {
      "id": 11351782,
      "name": "Cap Estate/Mon Du Cap",
      "nativeName": "Cap Estate/Mon Du Cap",
      "code": "LC-06-11351782",
      "countryId": 3576468,
      "countryCode": "LC",
      "stateCode": "LC-06",
      "latitude": 14.10554,
      "longitude": -60.93758
    },
    {
      "id": 11351597,
      "name": "Cap Estate/Ranch Site",
      "nativeName": "Cap Estate/Ranch Site",
      "code": "LC-06-11351597",
      "countryId": 3576468,
      "countryCode": "LC",
      "stateCode": "LC-06",
      "latitude": 14.10437,
      "longitude": -60.9336
    },
    {
      "id": 11351775,
      "name": "Cap Estate/Saddlec Back",
      "nativeName": "Cap Estate/Saddlec Back",
      "code": "LC-06-11351775",
      "countryId": 3576468,
      "countryCode": "LC",
      "stateCode": "LC-06",
      "latitude": 14.10023,
      "longitude": -60.94246
    },
    {
      "id": 11351779,
      "name": "Cap Estate/Upper Saline Point",
      "nativeName": "Cap Estate/Upper Saline Point",
      "code": "LC-06-11351779",
      "countryId": 3576468,
      "countryCode": "LC",
      "stateCode": "LC-06",
      "latitude": 14.1074,
      "longitude": -60.94487
    },
    {
      "id": 11351422,
      "name": "Cas En Bas",
      "nativeName": "Cas En Bas",
      "code": "LC-06-11351422",
      "countryId": 3576468,
      "countryCode": "LC",
      "stateCode": "LC-06",
      "latitude": 14.08328,
      "longitude": -60.93209
    },
    {
      "id": 11351772,
      "name": "Caye Manje'",
      "nativeName": "Caye Manje'",
      "code": "LC-06-11351772",
      "countryId": 3576468,
      "countryCode": "LC",
      "stateCode": "LC-06",
      "latitude": 14.06629,
      "longitude": -60.9356
    },
    {
      "id": 11351423,
      "name": "Corinth",
      "nativeName": "Corinth",
      "code": "LC-06-11351423",
      "countryId": 3576468,
      "countryCode": "LC",
      "stateCode": "LC-06",
      "latitude": 14.0471,
      "longitude": -60.96046
    },
    {
      "id": 11351761,
      "name": "Corinth Estate",
      "nativeName": "Corinth Estate",
      "code": "LC-06-11351761",
      "countryId": 3576468,
      "countryCode": "LC",
      "stateCode": "LC-06",
      "latitude": 14.04336,
      "longitude": -60.95388
    },
    {
      "id": 11351786,
      "name": "Corinth/La Bel Lair",
      "nativeName": "Corinth/La Bel Lair",
      "code": "LC-06-11351786",
      "countryId": 3576468,
      "countryCode": "LC",
      "stateCode": "LC-06",
      "latitude": 14.04469,
      "longitude": -60.94484
    },
    {
      "id": 11351489,
      "name": "Dauphin",
      "nativeName": "Dauphin",
      "code": "LC-06-11351489",
      "countryId": 3576468,
      "countryCode": "LC",
      "stateCode": "LC-06",
      "latitude": 14.05647,
      "longitude": -60.90188
    },
    {
      "id": 11351419,
      "name": "Des Barras",
      "nativeName": "Des Barras",
      "code": "LC-06-11351419",
      "countryId": 3576468,
      "countryCode": "LC",
      "stateCode": "LC-06",
      "latitude": 13.99949,
      "longitude": -60.90166
    },
    {
      "id": 11351424,
      "name": "Des Barras/Cacolie",
      "nativeName": "Des Barras/Cacolie",
      "code": "LC-06-11351424",
      "countryId": 3576468,
      "countryCode": "LC",
      "stateCode": "LC-06",
      "latitude": 14.01687,
      "longitude": -60.90097
    },
    {
      "id": 11351579,
      "name": "Desrameaux",
      "nativeName": "Desrameaux",
      "code": "LC-06-11351579",
      "countryId": 3576468,
      "countryCode": "LC",
      "stateCode": "LC-06",
      "latitude": 14.03681,
      "longitude": -60.92697
    },
    {
      "id": 11351466,
      "name": "Garrand",
      "nativeName": "Garrand",
      "code": "LC-06-11351466",
      "countryId": 3576468,
      "countryCode": "LC",
      "stateCode": "LC-06",
      "latitude": 14.00424,
      "longitude": -60.9327
    },
    {
      "id": 11351475,
      "name": "Grand Riviere",
      "nativeName": "Grand Riviere",
      "code": "LC-06-11351475",
      "countryId": 3576468,
      "countryCode": "LC",
      "stateCode": "LC-06",
      "latitude": 14.03546,
      "longitude": -60.95152
    },
    {
      "id": 11351790,
      "name": "Grande Riviere/Assou Canal",
      "nativeName": "Grande Riviere/Assou Canal",
      "code": "LC-06-11351790",
      "countryId": 3576468,
      "countryCode": "LC",
      "stateCode": "LC-06",
      "latitude": 14.03975,
      "longitude": -60.95121
    },
    {
      "id": 11351797,
      "name": "Grande Riviere/Degazon",
      "nativeName": "Grande Riviere/Degazon",
      "code": "LC-06-11351797",
      "countryId": 3576468,
      "countryCode": "LC",
      "stateCode": "LC-06",
      "latitude": 14.02772,
      "longitude": -60.95059
    },
    {
      "id": 11351791,
      "name": "Grande Riviere/Ingle Woods",
      "nativeName": "Grande Riviere/Ingle Woods",
      "code": "LC-06-11351791",
      "countryId": 3576468,
      "countryCode": "LC",
      "stateCode": "LC-06",
      "latitude": 14.03091,
      "longitude": -60.95592
    },
    {
      "id": 11351792,
      "name": "Grande Riviere/Morne Elwin",
      "nativeName": "Grande Riviere/Morne Elwin",
      "code": "LC-06-11351792",
      "countryId": 3576468,
      "countryCode": "LC",
      "stateCode": "LC-06",
      "latitude": 14.02927,
      "longitude": -60.95567
    },
    {
      "id": 11351789,
      "name": "Grande Riviere/Morne Serpent",
      "nativeName": "Grande Riviere/Morne Serpent",
      "code": "LC-06-11351789",
      "countryId": 3576468,
      "countryCode": "LC",
      "stateCode": "LC-06",
      "latitude": 14.03509,
      "longitude": -60.9606
    },
    {
      "id": 11351744,
      "name": "Grande Riviere/Norbert",
      "nativeName": "Grande Riviere/Norbert",
      "code": "LC-06-11351744",
      "countryId": 3576468,
      "countryCode": "LC",
      "stateCode": "LC-06",
      "latitude": 14.04317,
      "longitude": -60.94933
    },
    {
      "id": 11351796,
      "name": "Grande Riviere/Piat",
      "nativeName": "Grande Riviere/Piat",
      "code": "LC-06-11351796",
      "countryId": 3576468,
      "countryCode": "LC",
      "stateCode": "LC-06",
      "latitude": 14.03926,
      "longitude": -60.94361
    },
    {
      "id": 11351785,
      "name": "Grande Riviere/Postlewaithe",
      "nativeName": "Grande Riviere/Postlewaithe",
      "code": "LC-06-11351785",
      "countryId": 3576468,
      "countryCode": "LC",
      "stateCode": "LC-06",
      "latitude": 14.04172,
      "longitude": -60.95206
    },
    {
      "id": 11351780,
      "name": "Grande Riviere/White Rock",
      "nativeName": "Grande Riviere/White Rock",
      "code": "LC-06-11351780",
      "countryId": 3576468,
      "countryCode": "LC",
      "stateCode": "LC-06",
      "latitude": 14.03618,
      "longitude": -60.95556
    },
    {
      "id": 11351827,
      "name": "Gros Islet Town",
      "nativeName": "Gros Islet Town",
      "code": "LC-06-11351827",
      "countryId": 3576468,
      "countryCode": "LC",
      "stateCode": "LC-06",
      "latitude": 14.0808,
      "longitude": -60.95312
    },
    {
      "id": 11351828,
      "name": "Gros Islet/Edge Water",
      "nativeName": "Gros Islet/Edge Water",
      "code": "LC-06-11351828",
      "countryId": 3576468,
      "countryCode": "LC",
      "stateCode": "LC-06",
      "latitude": 14.07912,
      "longitude": -60.94973
    },
    {
      "id": 11351787,
      "name": "L'Hermitage",
      "nativeName": "L'Hermitage",
      "code": "LC-06-11351787",
      "countryId": 3576468,
      "countryCode": "LC",
      "stateCode": "LC-06",
      "latitude": 14.06521,
      "longitude": -60.93967
    },
    {
      "id": 11351799,
      "name": "La Croix Chabourgh",
      "nativeName": "La Croix Chabourgh",
      "code": "LC-06-11351799",
      "countryId": 3576468,
      "countryCode": "LC",
      "stateCode": "LC-06",
      "latitude": 14.01147,
      "longitude": -60.94025
    },
    {
      "id": 11351801,
      "name": "La Guerre",
      "nativeName": "La Guerre",
      "code": "LC-06-11351801",
      "countryId": 3576468,
      "countryCode": "LC",
      "stateCode": "LC-06",
      "latitude": 14.02191,
      "longitude": -60.92491
    },
    {
      "id": 11351511,
      "name": "La Guerre/Chicken Back Street",
      "nativeName": "La Guerre/Chicken Back Street",
      "code": "LC-06-11351511",
      "countryId": 3576468,
      "countryCode": "LC",
      "stateCode": "LC-06",
      "latitude": 14.02387,
      "longitude": -60.93108
    },
    {
      "id": 11351460,
      "name": "Marisule",
      "nativeName": "Marisule",
      "code": "LC-06-11351460",
      "countryId": 3576468,
      "countryCode": "LC",
      "stateCode": "LC-06",
      "latitude": 14.04621,
      "longitude": -60.97063
    },
    {
      "id": 11351802,
      "name": "Marisule/Bon Air",
      "nativeName": "Marisule/Bon Air",
      "code": "LC-06-11351802",
      "countryId": 3576468,
      "countryCode": "LC",
      "stateCode": "LC-06",
      "latitude": 14.05062,
      "longitude": -60.97124
    },
    {
      "id": 11351793,
      "name": "Marisule/East Winds",
      "nativeName": "Marisule/East Winds",
      "code": "LC-06-11351793",
      "countryId": 3576468,
      "countryCode": "LC",
      "stateCode": "LC-06",
      "latitude": 14.05407,
      "longitude": -60.96849
    },
    {
      "id": 11351803,
      "name": "Marisule/La Brellotte",
      "nativeName": "Marisule/La Brellotte",
      "code": "LC-06-11351803",
      "countryId": 3576468,
      "countryCode": "LC",
      "stateCode": "LC-06",
      "latitude": 14.0571,
      "longitude": -60.97183
    },
    {
      "id": 11351804,
      "name": "Marisule/Top Of The World",
      "nativeName": "Marisule/Top Of The World",
      "code": "LC-06-11351804",
      "countryId": 3576468,
      "countryCode": "LC",
      "stateCode": "LC-06",
      "latitude": 14.04385,
      "longitude": -60.96885
    },
    {
      "id": 11351798,
      "name": "Marisule/Top Of The World/Belle Ville",
      "nativeName": "Marisule/Top Of The World/Belle Ville",
      "code": "LC-06-11351798",
      "countryId": 3576468,
      "countryCode": "LC",
      "stateCode": "LC-06",
      "latitude": 14.04381,
      "longitude": -60.96689
    },
    {
      "id": 11351426,
      "name": "Marquis Estate",
      "nativeName": "Marquis Estate",
      "code": "LC-06-11351426",
      "countryId": 3576468,
      "countryCode": "LC",
      "stateCode": "LC-06",
      "latitude": 14.0296,
      "longitude": -60.90732
    },
    {
      "id": 11351806,
      "name": "Massade",
      "nativeName": "Massade",
      "code": "LC-06-11351806",
      "countryId": 3576468,
      "countryCode": "LC",
      "stateCode": "LC-06",
      "latitude": 14.08292,
      "longitude": -60.94946
    },
    {
      "id": 11351524,
      "name": "Monchy",
      "nativeName": "Monchy",
      "code": "LC-06-11351524",
      "countryId": 3576468,
      "countryCode": "LC",
      "stateCode": "LC-06",
      "latitude": 14.05502,
      "longitude": -60.92623
    },
    {
      "id": 11351821,
      "name": "Monchy/Cardinal",
      "nativeName": "Monchy/Cardinal",
      "code": "LC-06-11351821",
      "countryId": 3576468,
      "countryCode": "LC",
      "stateCode": "LC-06",
      "latitude": 14.06157,
      "longitude": -60.92001
    },
    {
      "id": 11351808,
      "name": "Monchy/Careffe",
      "nativeName": "Monchy/Careffe",
      "code": "LC-06-11351808",
      "countryId": 3576468,
      "countryCode": "LC",
      "stateCode": "LC-06",
      "latitude": 14.0593,
      "longitude": -60.95069
    },
    {
      "id": 11351809,
      "name": "Monchy/Cletus Village",
      "nativeName": "Monchy/Cletus Village",
      "code": "LC-06-11351809",
      "countryId": 3576468,
      "countryCode": "LC",
      "stateCode": "LC-06",
      "latitude": 14.05137,
      "longitude": -60.9238
    },
    {
      "id": 11351461,
      "name": "Monchy/La Borne",
      "nativeName": "Monchy/La Borne",
      "code": "LC-06-11351461",
      "countryId": 3576468,
      "countryCode": "LC",
      "stateCode": "LC-06",
      "latitude": 14.04628,
      "longitude": -60.91961
    },
    {
      "id": 11351563,
      "name": "Monchy/La Borne/Sans Souci",
      "nativeName": "Monchy/La Borne/Sans Souci",
      "code": "LC-06-11351563",
      "countryId": 3576468,
      "countryCode": "LC",
      "stateCode": "LC-06",
      "latitude": 14.04504,
      "longitude": -60.89961
    },
    {
      "id": 11351810,
      "name": "Monchy/La Retraite",
      "nativeName": "Monchy/La Retraite",
      "code": "LC-06-11351810",
      "countryId": 3576468,
      "countryCode": "LC",
      "stateCode": "LC-06",
      "latitude": 14.06421,
      "longitude": -60.94564
    },
    {
      "id": 11351505,
      "name": "Monchy/Lafeuillee",
      "nativeName": "Monchy/Lafeuillee",
      "code": "LC-06-11351505",
      "countryId": 3576468,
      "countryCode": "LC",
      "stateCode": "LC-06",
      "latitude": 14.0595,
      "longitude": -60.94086
    },
    {
      "id": 11351817,
      "name": "Monchy/Lawi Fwen",
      "nativeName": "Monchy/Lawi Fwen",
      "code": "LC-06-11351817",
      "countryId": 3576468,
      "countryCode": "LC",
      "stateCode": "LC-06",
      "latitude": 14.05802,
      "longitude": -60.92906
    },
    {
      "id": 11351417,
      "name": "Monchy/Malgretoute",
      "nativeName": "Monchy/Malgretoute",
      "code": "LC-06-11351417",
      "countryId": 3576468,
      "countryCode": "LC",
      "stateCode": "LC-06",
      "latitude": 14.04108,
      "longitude": -60.91912
    },
    {
      "id": 11351807,
      "name": "Monchy/Moulin A Vent",
      "nativeName": "Monchy/Moulin A Vent",
      "code": "LC-06-11351807",
      "countryId": 3576468,
      "countryCode": "LC",
      "stateCode": "LC-06",
      "latitude": 14.06283,
      "longitude": -60.95025
    },
    {
      "id": 11351480,
      "name": "Monchy/Mount Layau",
      "nativeName": "Monchy/Mount Layau",
      "code": "LC-06-11351480",
      "countryId": 3576468,
      "countryCode": "LC",
      "stateCode": "LC-06",
      "latitude": 14.06921,
      "longitude": -60.92241
    },
    {
      "id": 11351795,
      "name": "Monchy/Ravine Macock",
      "nativeName": "Monchy/Ravine Macock",
      "code": "LC-06-11351795",
      "countryId": 3576468,
      "countryCode": "LC",
      "stateCode": "LC-06",
      "latitude": 14.04789,
      "longitude": -60.92511
    },
    {
      "id": 11351515,
      "name": "Monchy/Riviere Mitan",
      "nativeName": "Monchy/Riviere Mitan",
      "code": "LC-06-11351515",
      "countryId": 3576468,
      "countryCode": "LC",
      "stateCode": "LC-06",
      "latitude": 14.04987,
      "longitude": -60.94029
    },
    {
      "id": 11351815,
      "name": "Monchy/Ti Dauphin",
      "nativeName": "Monchy/Ti Dauphin",
      "code": "LC-06-11351815",
      "countryId": 3576468,
      "countryCode": "LC",
      "stateCode": "LC-06",
      "latitude": 14.04081,
      "longitude": -60.93225
    },
    {
      "id": 11351816,
      "name": "Monchy/Vieux Sucreic",
      "nativeName": "Monchy/Vieux Sucreic",
      "code": "LC-06-11351816",
      "countryId": 3576468,
      "countryCode": "LC",
      "stateCode": "LC-06",
      "latitude": 14.04996,
      "longitude": -60.94992
    },
    {
      "id": 11351818,
      "name": "Monchy/Vieux Sucreic/Bois D'Inde",
      "nativeName": "Monchy/Vieux Sucreic/Bois D'Inde",
      "code": "LC-06-11351818",
      "countryId": 3576468,
      "countryCode": "LC",
      "stateCode": "LC-06",
      "latitude": 14.05613,
      "longitude": -60.95151
    },
    {
      "id": 11351812,
      "name": "Monchy/Vieux Sucreic/Careffe",
      "nativeName": "Monchy/Vieux Sucreic/Careffe",
      "code": "LC-06-11351812",
      "countryId": 3576468,
      "countryCode": "LC",
      "stateCode": "LC-06",
      "latitude": 14.05652,
      "longitude": -60.94948
    },
    {
      "id": 11351819,
      "name": "Mongiraud",
      "nativeName": "Mongiraud",
      "code": "LC-06-11351819",
      "countryId": 3576468,
      "countryCode": "LC",
      "stateCode": "LC-06",
      "latitude": 14.06287,
      "longitude": -60.95722
    },
    {
      "id": 11351822,
      "name": "Monier",
      "nativeName": "Monier",
      "code": "LC-06-11351822",
      "countryId": 3576468,
      "countryCode": "LC",
      "stateCode": "LC-06",
      "latitude": 14.02951,
      "longitude": -60.94098
    },
    {
      "id": 11351800,
      "name": "Morne Citon",
      "nativeName": "Morne Citon",
      "code": "LC-06-11351800",
      "countryId": 3576468,
      "countryCode": "LC",
      "stateCode": "LC-06",
      "latitude": 14.03004,
      "longitude": -60.92813
    },
    {
      "id": 11351760,
      "name": "Paix Bouche",
      "nativeName": "Paix Bouche",
      "code": "LC-06-11351760",
      "countryId": 3576468,
      "countryCode": "LC",
      "stateCode": "LC-06",
      "latitude": 14.01755,
      "longitude": -60.93852
    },
    {
      "id": 11351400,
      "name": "Pigeon Island",
      "nativeName": "Pigeon Island",
      "code": "LC-06-11351400",
      "countryId": 3576468,
      "countryCode": "LC",
      "stateCode": "LC-06",
      "latitude": 14.08965,
      "longitude": -60.95724
    },
    {
      "id": 11351813,
      "name": "Plateau",
      "nativeName": "Plateau",
      "code": "LC-06-11351813",
      "countryId": 3576468,
      "countryCode": "LC",
      "stateCode": "LC-06",
      "latitude": 14.02612,
      "longitude": -60.93474
    },
    {
      "id": 11351824,
      "name": "Reduit",
      "nativeName": "Reduit",
      "code": "LC-06-11351824",
      "countryId": 3576468,
      "countryCode": "LC",
      "stateCode": "LC-06",
      "latitude": 14.06829,
      "longitude": -60.96145
    },
    {
      "id": 11351825,
      "name": "Reduit Orchard",
      "nativeName": "Reduit Orchard",
      "code": "LC-06-11351825",
      "countryId": 3576468,
      "countryCode": "LC",
      "stateCode": "LC-06",
      "latitude": 14.06594,
      "longitude": -60.9534
    },
    {
      "id": 11351820,
      "name": "Reduit Park",
      "nativeName": "Reduit Park",
      "code": "LC-06-11351820",
      "countryId": 3576468,
      "countryCode": "LC",
      "stateCode": "LC-06",
      "latitude": 14.06622,
      "longitude": -60.9556
    },
    {
      "id": 11351425,
      "name": "Rodney Bay",
      "nativeName": "Rodney Bay",
      "code": "LC-06-11351425",
      "countryId": 3576468,
      "countryCode": "LC",
      "stateCode": "LC-06",
      "latitude": 14.07292,
      "longitude": -60.95443
    },
    {
      "id": 11351814,
      "name": "Rodney Heights",
      "nativeName": "Rodney Heights",
      "code": "LC-06-11351814",
      "countryId": 3576468,
      "countryCode": "LC",
      "stateCode": "LC-06",
      "latitude": 14.06731,
      "longitude": -60.94906
    },
    {
      "id": 11351406,
      "name": "Union",
      "nativeName": "Union",
      "code": "LC-06-11351406",
      "countryId": 3576468,
      "countryCode": "LC",
      "stateCode": "LC-06",
      "latitude": 14.02907,
      "longitude": -60.9648
    },
    {
      "id": 11351823,
      "name": "Union Terrace",
      "nativeName": "Union Terrace",
      "code": "LC-06-11351823",
      "countryId": 3576468,
      "countryCode": "LC",
      "stateCode": "LC-06",
      "latitude": 14.02654,
      "longitude": -60.9571
    },
    {
      "id": 11351830,
      "name": "Union/Ti Morne",
      "nativeName": "Union/Ti Morne",
      "code": "LC-06-11351830",
      "countryId": 3576468,
      "countryCode": "LC",
      "stateCode": "LC-06",
      "latitude": 14.02283,
      "longitude": -60.95272
    }
  ]
}