{
  "stateId": 3576810,
  "stateCode": "LC-02",
  "countryCode": "LC",
  "cities": [
    {
      "id": 11351670,
      "name": "Active Hill",
      "nativeName": "Active Hill",
      "code": "LC-02-11351670",
      "countryId": 3576468,
      "countryCode": "LC",
      "stateCode": "LC-02",
      "latitude": 14.0194,
      "longitude": -60.97767
    },
    {
      "id": 11351681,
      "name": "Agard Lands/Morne Dudon",
      "nativeName": "Agard Lands/Morne Dudon",
      "code": "LC-02-11351681",
      "countryId": 3576468,
      "countryCode": "LC",
      "stateCode": "LC-02",
      "latitude": 14.00768,
      "longitude": -60.96462
    },
    {
      "id": 11351414,
      "name": "Almondale",
      "nativeName": "Almondale",
      "code": "LC-02-11351414",
      "countryId": 3576468,
      "countryCode": "LC",
      "stateCode": "LC-02",
      "latitude": 14.01848,
      "longitude": -60.96162
    },
    {
      "id": 11351656,
      "name": "Aurendel Hill",
      "nativeName": "Aurendel Hill",
      "code": "LC-02-11351656",
      "countryId": 3576468,
      "countryCode": "LC",
      "stateCode": "LC-02",
      "latitude": 14.00069,
      "longitude": -60.9867
    },
    {
      "id": 11351499,
      "name": "Babonneau Proper",
      "nativeName": "Babonneau Proper",
      "code": "LC-02-11351499",
      "countryId": 3576468,
      "countryCode": "LC",
      "stateCode": "LC-02",
      "latitude": 14.00535,
      "longitude": -60.9464
    },
    {
      "id": 11351658,
      "name": "Bagatelle",
      "nativeName": "Bagatelle",
      "code": "LC-02-11351658",
      "countryId": 3576468,
      "countryCode": "LC",
      "stateCode": "LC-02",
      "latitude": 13.99797,
      "longitude": -60.98156
    },
    {
      "id": 11351405,
      "name": "Balata",
      "nativeName": "Balata",
      "code": "LC-02-11351405",
      "countryId": 3576468,
      "countryCode": "LC",
      "stateCode": "LC-02",
      "latitude": 14.01471,
      "longitude": -60.95167
    },
    {
      "id": 11351616,
      "name": "Banannes Bay",
      "nativeName": "Banannes Bay",
      "code": "LC-02-11351616",
      "countryId": 3576468,
      "countryCode": "LC",
      "stateCode": "LC-02",
      "latitude": 14.01087,
      "longitude": -61.00135
    },
    {
      "id": 11351451,
      "name": "Barnard Hill",
      "nativeName": "Barnard Hill",
      "code": "LC-02-11351451",
      "countryId": 3576468,
      "countryCode": "LC",
      "stateCode": "LC-02",
      "latitude": 14.01423,
      "longitude": -60.98924
    },
    {
      "id": 11351687,
      "name": "Barre Denis",
      "nativeName": "Barre Denis",
      "code": "LC-02-11351687",
      "countryId": 3576468,
      "countryCode": "LC",
      "stateCode": "LC-02",
      "latitude": 13.96809,
      "longitude": -60.99073
    },
    {
      "id": 11351703,
      "name": "Barre Duchaussee",
      "nativeName": "Barre Duchaussee",
      "code": "LC-02-11351703",
      "countryId": 3576468,
      "countryCode": "LC",
      "stateCode": "LC-02",
      "latitude": 13.9619,
      "longitude": -60.99678
    },
    {
      "id": 11351601,
      "name": "Barre St.Joseph",
      "nativeName": "Barre St.Joseph",
      "code": "LC-02-11351601",
      "countryId": 3576468,
      "countryCode": "LC",
      "stateCode": "LC-02",
      "latitude": 13.97247,
      "longitude": -61.01829
    },
    {
      "id": 11351712,
      "name": "Belair",
      "nativeName": "Belair",
      "code": "LC-02-11351712",
      "countryId": 3576468,
      "countryCode": "LC",
      "stateCode": "LC-02",
      "latitude": 13.95283,
      "longitude": -60.99747
    },
    {
      "id": 11351486,
      "name": "Bella Rosa",
      "nativeName": "Bella Rosa",
      "code": "LC-02-11351486",
      "countryId": 3576468,
      "countryCode": "LC",
      "stateCode": "LC-02",
      "latitude": 14.00777,
      "longitude": -60.99628
    },
    {
      "id": 11351599,
      "name": "Bexon",
      "nativeName": "Bexon",
      "code": "LC-02-11351599",
      "countryId": 3576468,
      "countryCode": "LC",
      "stateCode": "LC-02",
      "latitude": 13.96077,
      "longitude": -60.97497
    },
    {
      "id": 11351660,
      "name": "Bishop'S Gap",
      "nativeName": "Bishop'S Gap",
      "code": "LC-02-11351660",
      "countryId": 3576468,
      "countryCode": "LC",
      "stateCode": "LC-02",
      "latitude": 14.00019,
      "longitude": -60.98498
    },
    {
      "id": 11351659,
      "name": "Bissee",
      "nativeName": "Bissee",
      "code": "LC-02-11351659",
      "countryId": 3576468,
      "countryCode": "LC",
      "stateCode": "LC-02",
      "latitude": 14.02255,
      "longitude": -60.97489
    },
    {
      "id": 11351657,
      "name": "Black Mallet",
      "nativeName": "Black Mallet",
      "code": "LC-02-11351657",
      "countryId": 3576468,
      "countryCode": "LC",
      "stateCode": "LC-02",
      "latitude": 14.00457,
      "longitude": -60.98811
    },
    {
      "id": 11351662,
      "name": "Bocage",
      "nativeName": "Bocage",
      "code": "LC-02-11351662",
      "countryId": 3576468,
      "countryCode": "LC",
      "stateCode": "LC-02",
      "latitude": 14.00199,
      "longitude": -60.96954
    },
    {
      "id": 11351512,
      "name": "Bois Catchet",
      "nativeName": "Bois Catchet",
      "code": "LC-02-11351512",
      "countryId": 3576468,
      "countryCode": "LC",
      "stateCode": "LC-02",
      "latitude": 14.00399,
      "longitude": -60.99437
    },
    {
      "id": 11351671,
      "name": "Bois Patat",
      "nativeName": "Bois Patat",
      "code": "LC-02-11351671",
      "countryId": 3576468,
      "countryCode": "LC",
      "stateCode": "LC-02",
      "latitude": 14.00892,
      "longitude": -60.98214
    },
    {
      "id": 11351500,
      "name": "Cabiche/Babonneau",
      "nativeName": "Cabiche/Babonneau",
      "code": "LC-02-11351500",
      "countryId": 3576468,
      "countryCode": "LC",
      "stateCode": "LC-02",
      "latitude": 14.00583,
      "longitude": -60.95432
    },
    {
      "id": 11351471,
      "name": "Cacoa/Babonneau",
      "nativeName": "Cacoa/Babonneau",
      "code": "LC-02-11351471",
      "countryId": 3576468,
      "countryCode": "LC",
      "stateCode": "LC-02",
      "latitude": 13.98875,
      "longitude": -60.95113
    },
    {
      "id": 11351623,
      "name": "Calvary",
      "nativeName": "Calvary",
      "code": "LC-02-11351623",
      "countryId": 3576468,
      "countryCode": "LC",
      "stateCode": "LC-02",
      "latitude": 14.01391,
      "longitude": -60.98664
    },
    {
      "id": 11351478,
      "name": "Capital Hill",
      "nativeName": "Capital Hill",
      "code": "LC-02-11351478",
      "countryId": 3576468,
      "countryCode": "LC",
      "stateCode": "LC-02",
      "latitude": 13.99307,
      "longitude": -60.99097
    },
    {
      "id": 11351663,
      "name": "Carellie",
      "nativeName": "Carellie",
      "code": "LC-02-11351663",
      "countryId": 3576468,
      "countryCode": "LC",
      "stateCode": "LC-02",
      "latitude": 14.01889,
      "longitude": -60.96851
    },
    {
      "id": 11351628,
      "name": "Castries City",
      "nativeName": "Castries City",
      "code": "LC-02-11351628",
      "countryId": 3576468,
      "countryCode": "LC",
      "stateCode": "LC-02",
      "latitude": 14.00946,
      "longitude": -60.99027
    },
    {
      "id": 11351619,
      "name": "Cedars",
      "nativeName": "Cedars",
      "code": "LC-02-11351619",
      "countryId": 3576468,
      "countryCode": "LC",
      "stateCode": "LC-02",
      "latitude": 14.00601,
      "longitude": -60.98232
    },
    {
      "id": 11351674,
      "name": "Chase Gardens",
      "nativeName": "Chase Gardens",
      "code": "LC-02-11351674",
      "countryId": 3576468,
      "countryCode": "LC",
      "stateCode": "LC-02",
      "latitude": 14.01481,
      "longitude": -60.97395
    },
    {
      "id": 11351497,
      "name": "Chassin/Babonneau",
      "nativeName": "Chassin/Babonneau",
      "code": "LC-02-11351497",
      "countryId": 3576468,
      "countryCode": "LC",
      "stateCode": "LC-02",
      "latitude": 13.991,
      "longitude": -60.92187
    },
    {
      "id": 11351576,
      "name": "Choc",
      "nativeName": "Choc",
      "code": "LC-02-11351576",
      "countryId": 3576468,
      "countryCode": "LC",
      "stateCode": "LC-02",
      "latitude": 14.03121,
      "longitude": -60.97652
    },
    {
      "id": 11351640,
      "name": "Choppin Ridge/Sarot",
      "nativeName": "Choppin Ridge/Sarot",
      "code": "LC-02-11351640",
      "countryId": 3576468,
      "countryCode": "LC",
      "stateCode": "LC-02",
      "latitude": 13.95597,
      "longitude": -60.98624
    },
    {
      "id": 11351456,
      "name": "Ciceron",
      "nativeName": "Ciceron",
      "code": "LC-02-11351456",
      "countryId": 3576468,
      "countryCode": "LC",
      "stateCode": "LC-02",
      "latitude": 13.99296,
      "longitude": -61.00878
    },
    {
      "id": 11351635,
      "name": "City Gate/La Clery",
      "nativeName": "City Gate/La Clery",
      "code": "LC-02-11351635",
      "countryId": 3576468,
      "countryCode": "LC",
      "stateCode": "LC-02",
      "latitude": 14.02124,
      "longitude": -60.98149
    },
    {
      "id": 11351519,
      "name": "Conway/Waterfront",
      "nativeName": "Conway/Waterfront",
      "code": "LC-02-11351519",
      "countryId": 3576468,
      "countryCode": "LC",
      "stateCode": "LC-02",
      "latitude": 14.01389,
      "longitude": -60.99055
    },
    {
      "id": 11351636,
      "name": "Coolie Town",
      "nativeName": "Coolie Town",
      "code": "LC-02-11351636",
      "countryId": 3576468,
      "countryCode": "LC",
      "stateCode": "LC-02",
      "latitude": 13.95684,
      "longitude": -61.01437
    },
    {
      "id": 11351490,
      "name": "Coubaril",
      "nativeName": "Coubaril",
      "code": "LC-02-11351490",
      "countryId": 3576468,
      "countryCode": "LC",
      "stateCode": "LC-02",
      "latitude": 14.00223,
      "longitude": -61.00919
    },
    {
      "id": 11351590,
      "name": "Crownlands/Marc",
      "nativeName": "Crownlands/Marc",
      "code": "LC-02-11351590",
      "countryId": 3576468,
      "countryCode": "LC",
      "stateCode": "LC-02",
      "latitude": 13.95174,
      "longitude": -60.9715
    },
    {
      "id": 11351442,
      "name": "Cul De Sac",
      "nativeName": "Cul De Sac",
      "code": "LC-02-11351442",
      "countryId": 3576468,
      "countryCode": "LC",
      "stateCode": "LC-02",
      "latitude": 13.98084,
      "longitude": -61.00645
    },
    {
      "id": 11351602,
      "name": "Darling Road",
      "nativeName": "Darling Road",
      "code": "LC-02-11351602",
      "countryId": 3576468,
      "countryCode": "LC",
      "stateCode": "LC-02",
      "latitude": 14.01355,
      "longitude": -60.98779
    },
    {
      "id": 11351701,
      "name": "Deglos",
      "nativeName": "Deglos",
      "code": "LC-02-11351701",
      "countryId": 3576468,
      "countryCode": "LC",
      "stateCode": "LC-02",
      "latitude": 13.97727,
      "longitude": -60.97329
    },
    {
      "id": 11351520,
      "name": "Derierre Fort/Old Victoria Road",
      "nativeName": "Derierre Fort/Old Victoria Road",
      "code": "LC-02-11351520",
      "countryId": 3576468,
      "countryCode": "LC",
      "stateCode": "LC-02",
      "latitude": 13.99474,
      "longitude": -60.98513
    },
    {
      "id": 11351661,
      "name": "Dubrassay",
      "nativeName": "Dubrassay",
      "code": "LC-02-11351661",
      "countryId": 3576468,
      "countryCode": "LC",
      "stateCode": "LC-02",
      "latitude": 13.98382,
      "longitude": -60.97154
    },
    {
      "id": 11351392,
      "name": "En Pois Doux/Babonneau",
      "nativeName": "En Pois Doux/Babonneau",
      "code": "LC-02-11351392",
      "countryId": 3576468,
      "countryCode": "LC",
      "stateCode": "LC-02",
      "latitude": 13.98853,
      "longitude": -60.94099
    },
    {
      "id": 11351668,
      "name": "Entrepot",
      "nativeName": "Entrepot",
      "code": "LC-02-11351668",
      "countryId": 3576468,
      "countryCode": "LC",
      "stateCode": "LC-02",
      "latitude": 13.99978,
      "longitude": -60.97953
    },
    {
      "id": 11351612,
      "name": "Faux A Chaud",
      "nativeName": "Faux A Chaud",
      "code": "LC-02-11351612",
      "countryId": 3576468,
      "countryCode": "LC",
      "stateCode": "LC-02",
      "latitude": 14.00878,
      "longitude": -60.99558
    },
    {
      "id": 11351698,
      "name": "Ferrand",
      "nativeName": "Ferrand",
      "code": "LC-02-11351698",
      "countryId": 3576468,
      "countryCode": "LC",
      "stateCode": "LC-02",
      "latitude": 13.98684,
      "longitude": -60.98494
    },
    {
      "id": 11351692,
      "name": "Floissac/Marc",
      "nativeName": "Floissac/Marc",
      "code": "LC-02-11351692",
      "countryId": 3576468,
      "countryCode": "LC",
      "stateCode": "LC-02",
      "latitude": 13.96283,
      "longitude": -60.9588
    },
    {
      "id": 11351448,
      "name": "Fond Assau/Babonneau",
      "nativeName": "Fond Assau/Babonneau",
      "code": "LC-02-11351448",
      "countryId": 3576468,
      "countryCode": "LC",
      "stateCode": "LC-02",
      "latitude": 13.99491,
      "longitude": -60.93626
    },
    {
      "id": 11351496,
      "name": "Fond Canie",
      "nativeName": "Fond Canie",
      "code": "LC-02-11351496",
      "countryId": 3576468,
      "countryCode": "LC",
      "stateCode": "LC-02",
      "latitude": 13.99195,
      "longitude": -60.95954
    },
    {
      "id": 11351516,
      "name": "Fond Manger",
      "nativeName": "Fond Manger",
      "code": "LC-02-11351516",
      "countryId": 3576468,
      "countryCode": "LC",
      "stateCode": "LC-02",
      "latitude": 13.96413,
      "longitude": -61.00877
    },
    {
      "id": 11351409,
      "name": "Forest Reserve",
      "nativeName": "Forest Reserve",
      "code": "LC-02-11351409",
      "countryId": 3576468,
      "countryCode": "LC",
      "stateCode": "LC-02",
      "latitude": 13.9772,
      "longitude": -60.93135
    },
    {
      "id": 11351567,
      "name": "Forestiere",
      "nativeName": "Forestiere",
      "code": "LC-02-11351567",
      "countryId": 3576468,
      "countryCode": "LC",
      "stateCode": "LC-02",
      "latitude": 13.97775,
      "longitude": -60.95766
    },
    {
      "id": 11351568,
      "name": "George Charles Boulevard",
      "nativeName": "George Charles Boulevard",
      "code": "LC-02-11351568",
      "countryId": 3576468,
      "countryCode": "LC",
      "stateCode": "LC-02",
      "latitude": 14.00499,
      "longitude": -60.98673
    },
    {
      "id": 11351501,
      "name": "Girard",
      "nativeName": "Girard",
      "code": "LC-02-11351501",
      "countryId": 3576468,
      "countryCode": "LC",
      "stateCode": "LC-02",
      "latitude": 14.00004,
      "longitude": -60.9596
    },
    {
      "id": 11351678,
      "name": "Goergeville",
      "nativeName": "Goergeville",
      "code": "LC-02-11351678",
      "countryId": 3576468,
      "countryCode": "LC",
      "stateCode": "LC-02",
      "latitude": 14.01311,
      "longitude": -60.98446
    },
    {
      "id": 11351647,
      "name": "Goodlands",
      "nativeName": "Goodlands",
      "code": "LC-02-11351647",
      "countryId": 3576468,
      "countryCode": "LC",
      "stateCode": "LC-02",
      "latitude": 13.99121,
      "longitude": -60.9984
    },
    {
      "id": 11351629,
      "name": "Grass Street",
      "nativeName": "Grass Street",
      "code": "LC-02-11351629",
      "countryId": 3576468,
      "countryCode": "LC",
      "stateCode": "LC-02",
      "latitude": 14.00706,
      "longitude": -60.98763
    },
    {
      "id": 11351691,
      "name": "Green Gold",
      "nativeName": "Green Gold",
      "code": "LC-02-11351691",
      "countryId": 3576468,
      "countryCode": "LC",
      "stateCode": "LC-02",
      "latitude": 13.99603,
      "longitude": -60.95284
    },
    {
      "id": 11351470,
      "name": "Guesneau",
      "nativeName": "Guesneau",
      "code": "LC-02-11351470",
      "countryId": 3576468,
      "countryCode": "LC",
      "stateCode": "LC-02",
      "latitude": 13.99084,
      "longitude": -60.96486
    },
    {
      "id": 11351686,
      "name": "Hill 20/Babonneau",
      "nativeName": "Hill 20/Babonneau",
      "code": "LC-02-11351686",
      "countryId": 3576468,
      "countryCode": "LC",
      "stateCode": "LC-02",
      "latitude": 13.99941,
      "longitude": -60.94988
    },
    {
      "id": 11351553,
      "name": "Hillcrest Gardens",
      "nativeName": "Hillcrest Gardens",
      "code": "LC-02-11351553",
      "countryId": 3576468,
      "countryCode": "LC",
      "stateCode": "LC-02",
      "latitude": 14.01115,
      "longitude": -60.97083
    },
    {
      "id": 11351437,
      "name": "Hospital Road",
      "nativeName": "Hospital Road",
      "code": "LC-02-11351437",
      "countryId": 3576468,
      "countryCode": "LC",
      "stateCode": "LC-02",
      "latitude": 14.00914,
      "longitude": -60.99906
    },
    {
      "id": 11351669,
      "name": "Independence City",
      "nativeName": "Independence City",
      "code": "LC-02-11351669",
      "countryId": 3576468,
      "countryCode": "LC",
      "stateCode": "LC-02",
      "latitude": 14.00199,
      "longitude": -60.97879
    },
    {
      "id": 11351487,
      "name": "John Compton Highway",
      "nativeName": "John Compton Highway",
      "code": "LC-02-11351487",
      "countryId": 3576468,
      "countryCode": "LC",
      "stateCode": "LC-02",
      "latitude": 14.01909,
      "longitude": -60.9911
    },
    {
      "id": 11351684,
      "name": "L'Anse Road",
      "nativeName": "L'Anse Road",
      "code": "LC-02-11351684",
      "countryId": 3576468,
      "countryCode": "LC",
      "stateCode": "LC-02",
      "latitude": 14.01875,
      "longitude": -60.98799
    },
    {
      "id": 11351689,
      "name": "La Carierre",
      "nativeName": "La Carierre",
      "code": "LC-02-11351689",
      "countryId": 3576468,
      "countryCode": "LC",
      "stateCode": "LC-02",
      "latitude": 14.01806,
      "longitude": -60.98723
    },
    {
      "id": 11351667,
      "name": "La Clery",
      "nativeName": "La Clery",
      "code": "LC-02-11351667",
      "countryId": 3576468,
      "countryCode": "LC",
      "stateCode": "LC-02",
      "latitude": 14.01846,
      "longitude": -60.98422
    },
    {
      "id": 11351702,
      "name": "La Croix Maingot",
      "nativeName": "La Croix Maingot",
      "code": "LC-02-11351702",
      "countryId": 3576468,
      "countryCode": "LC",
      "stateCode": "LC-02",
      "latitude": 13.96569,
      "longitude": -61.00582
    },
    {
      "id": 11351677,
      "name": "La Pansee",
      "nativeName": "La Pansee",
      "code": "LC-02-11351677",
      "countryId": 3576468,
      "countryCode": "LC",
      "stateCode": "LC-02",
      "latitude": 14.01368,
      "longitude": -60.98187
    },
    {
      "id": 11351493,
      "name": "La Toc",
      "nativeName": "La Toc",
      "code": "LC-02-11351493",
      "countryId": 3576468,
      "countryCode": "LC",
      "stateCode": "LC-02",
      "latitude": 14.00824,
      "longitude": -61.00404
    },
    {
      "id": 11351696,
      "name": "Labayee",
      "nativeName": "Labayee",
      "code": "LC-02-11351696",
      "countryId": 3576468,
      "countryCode": "LC",
      "stateCode": "LC-02",
      "latitude": 13.94044,
      "longitude": -60.97316
    },
    {
      "id": 11351642,
      "name": "Lastic Hill",
      "nativeName": "Lastic Hill",
      "code": "LC-02-11351642",
      "countryId": 3576468,
      "countryCode": "LC",
      "stateCode": "LC-02",
      "latitude": 14.00755,
      "longitude": -60.98321
    },
    {
      "id": 11351679,
      "name": "Leslie Land",
      "nativeName": "Leslie Land",
      "code": "LC-02-11351679",
      "countryId": 3576468,
      "countryCode": "LC",
      "stateCode": "LC-02",
      "latitude": 14.00752,
      "longitude": -60.98674
    },
    {
      "id": 11351697,
      "name": "Marc",
      "nativeName": "Marc",
      "code": "LC-02-11351697",
      "countryId": 3576468,
      "countryCode": "LC",
      "stateCode": "LC-02",
      "latitude": 13.95688,
      "longitude": -60.95724
    },
    {
      "id": 11351680,
      "name": "Marchand",
      "nativeName": "Marchand",
      "code": "LC-02-11351680",
      "countryId": 3576468,
      "countryCode": "LC",
      "stateCode": "LC-02",
      "latitude": 14.00415,
      "longitude": -60.98532
    },
    {
      "id": 11351410,
      "name": "Marigot",
      "nativeName": "Marigot",
      "code": "LC-02-11351410",
      "countryId": 3576468,
      "countryCode": "LC",
      "stateCode": "LC-02",
      "latitude": 13.96212,
      "longitude": -61.02205
    },
    {
      "id": 11351664,
      "name": "Maynard Hill",
      "nativeName": "Maynard Hill",
      "code": "LC-02-11351664",
      "countryId": 3576468,
      "countryCode": "LC",
      "stateCode": "LC-02",
      "latitude": 14.00314,
      "longitude": -60.98966
    },
    {
      "id": 11351494,
      "name": "Miami/Bexon",
      "nativeName": "Miami/Bexon",
      "code": "LC-02-11351494",
      "countryId": 3576468,
      "countryCode": "LC",
      "stateCode": "LC-02",
      "latitude": 13.92295,
      "longitude": -60.96945
    },
    {
      "id": 11351666,
      "name": "Monkey Town Ciceron",
      "nativeName": "Monkey Town Ciceron",
      "code": "LC-02-11351666",
      "countryId": 3576468,
      "countryCode": "LC",
      "stateCode": "LC-02",
      "latitude": 13.98885,
      "longitude": -61.00615
    },
    {
      "id": 11351571,
      "name": "Morne Assau/Babonneau",
      "nativeName": "Morne Assau/Babonneau",
      "code": "LC-02-11351571",
      "countryId": 3576468,
      "countryCode": "LC",
      "stateCode": "LC-02",
      "latitude": 13.99079,
      "longitude": -60.93241
    },
    {
      "id": 11351600,
      "name": "Morne Dudon",
      "nativeName": "Morne Dudon",
      "code": "LC-02-11351600",
      "countryId": 3576468,
      "countryCode": "LC",
      "stateCode": "LC-02",
      "latitude": 14.01194,
      "longitude": -60.96378
    },
    {
      "id": 11351676,
      "name": "Morne Road",
      "nativeName": "Morne Road",
      "code": "LC-02-11351676",
      "countryId": 3576468,
      "countryCode": "LC",
      "stateCode": "LC-02",
      "latitude": 14.00544,
      "longitude": -60.99693
    },
    {
      "id": 11351573,
      "name": "Morne Rouge/Marc",
      "nativeName": "Morne Rouge/Marc",
      "code": "LC-02-11351573",
      "countryId": 3576468,
      "countryCode": "LC",
      "stateCode": "LC-02",
      "latitude": 13.95838,
      "longitude": -60.96972
    },
    {
      "id": 11351562,
      "name": "Mount Pleasant",
      "nativeName": "Mount Pleasant",
      "code": "LC-02-11351562",
      "countryId": 3576468,
      "countryCode": "LC",
      "stateCode": "LC-02",
      "latitude": 14.01494,
      "longitude": -60.98576
    },
    {
      "id": 11351638,
      "name": "New Village",
      "nativeName": "New Village",
      "code": "LC-02-11351638",
      "countryId": 3576468,
      "countryCode": "LC",
      "stateCode": "LC-02",
      "latitude": 14.01104,
      "longitude": -60.98456
    },
    {
      "id": 11351479,
      "name": "Odsan",
      "nativeName": "Odsan",
      "code": "LC-02-11351479",
      "countryId": 3576468,
      "countryCode": "LC",
      "stateCode": "LC-02",
      "latitude": 13.97479,
      "longitude": -60.98319
    },
    {
      "id": 11351510,
      "name": "Parker'S Hill",
      "nativeName": "Parker'S Hill",
      "code": "LC-02-11351510",
      "countryId": 3576468,
      "countryCode": "LC",
      "stateCode": "LC-02",
      "latitude": 14.00378,
      "longitude": -60.99049
    },
    {
      "id": 11351650,
      "name": "Patterson'S Gap",
      "nativeName": "Patterson'S Gap",
      "code": "LC-02-11351650",
      "countryId": 3576468,
      "countryCode": "LC",
      "stateCode": "LC-02",
      "latitude": 14.00655,
      "longitude": -60.98473
    },
    {
      "id": 11351646,
      "name": "Pavee",
      "nativeName": "Pavee",
      "code": "LC-02-11351646",
      "countryId": 3576468,
      "countryCode": "LC",
      "stateCode": "LC-02",
      "latitude": 14.00282,
      "longitude": -60.99191
    },
    {
      "id": 11351465,
      "name": "Peart'S Gap",
      "nativeName": "Peart'S Gap",
      "code": "LC-02-11351465",
      "countryId": 3576468,
      "countryCode": "LC",
      "stateCode": "LC-02",
      "latitude": 14.01035,
      "longitude": -60.98598
    },
    {
      "id": 11351700,
      "name": "Perou",
      "nativeName": "Perou",
      "code": "LC-02-11351700",
      "countryId": 3576468,
      "countryCode": "LC",
      "stateCode": "LC-02",
      "latitude": 13.9596,
      "longitude": -61.00726
    },
    {
      "id": 11351427,
      "name": "Piton Flore",
      "nativeName": "Piton Flore",
      "code": "LC-02-11351427",
      "countryId": 3576468,
      "countryCode": "LC",
      "stateCode": "LC-02",
      "latitude": 13.96504,
      "longitude": -60.94517
    },
    {
      "id": 11351651,
      "name": "Pointe Seraphine",
      "nativeName": "Pointe Seraphine",
      "code": "LC-02-11351651",
      "countryId": 3576468,
      "countryCode": "LC",
      "stateCode": "LC-02",
      "latitude": 14.01575,
      "longitude": -60.99305
    },
    {
      "id": 11351705,
      "name": "Quarte Chemins",
      "nativeName": "Quarte Chemins",
      "code": "LC-02-11351705",
      "countryId": 3576468,
      "countryCode": "LC",
      "stateCode": "LC-02",
      "latitude": 13.99136,
      "longitude": -60.9763
    },
    {
      "id": 11351665,
      "name": "Ravine Chabot",
      "nativeName": "Ravine Chabot",
      "code": "LC-02-11351665",
      "countryId": 3576468,
      "countryCode": "LC",
      "stateCode": "LC-02",
      "latitude": 14.00051,
      "longitude": -60.97617
    },
    {
      "id": 11351610,
      "name": "Ravine Poisson",
      "nativeName": "Ravine Poisson",
      "code": "LC-02-11351610",
      "countryId": 3576468,
      "countryCode": "LC",
      "stateCode": "LC-02",
      "latitude": 13.93156,
      "longitude": -60.96849
    },
    {
      "id": 11351488,
      "name": "Ravine Touterelle",
      "nativeName": "Ravine Touterelle",
      "code": "LC-02-11351488",
      "countryId": 3576468,
      "countryCode": "LC",
      "stateCode": "LC-02",
      "latitude": 14.00325,
      "longitude": -60.98806
    },
    {
      "id": 11351561,
      "name": "Resinard/Babonneau",
      "nativeName": "Resinard/Babonneau",
      "code": "LC-02-11351561",
      "countryId": 3576468,
      "countryCode": "LC",
      "stateCode": "LC-02",
      "latitude": 14.00289,
      "longitude": -60.942
    },
    {
      "id": 11351682,
      "name": "Rock Hall",
      "nativeName": "Rock Hall",
      "code": "LC-02-11351682",
      "countryId": 3576468,
      "countryCode": "LC",
      "stateCode": "LC-02",
      "latitude": 14.00009,
      "longitude": -60.98928
    },
    {
      "id": 11351652,
      "name": "Rose Hill",
      "nativeName": "Rose Hill",
      "code": "LC-02-11351652",
      "countryId": 3576468,
      "countryCode": "LC",
      "stateCode": "LC-02",
      "latitude": 14.00816,
      "longitude": -60.9856
    },
    {
      "id": 11351683,
      "name": "San Soucis",
      "nativeName": "San Soucis",
      "code": "LC-02-11351683",
      "countryId": 3576468,
      "countryCode": "LC",
      "stateCode": "LC-02",
      "latitude": 14.01695,
      "longitude": -60.98985
    },
    {
      "id": 11351695,
      "name": "Sand De Feu",
      "nativeName": "Sand De Feu",
      "code": "LC-02-11351695",
      "countryId": 3576468,
      "countryCode": "LC",
      "stateCode": "LC-02",
      "latitude": 13.92781,
      "longitude": -60.98026
    },
    {
      "id": 11351694,
      "name": "Sarot",
      "nativeName": "Sarot",
      "code": "LC-02-11351694",
      "countryId": 3576468,
      "countryCode": "LC",
      "stateCode": "LC-02",
      "latitude": 13.94212,
      "longitude": -60.98489
    },
    {
      "id": 11351699,
      "name": "Soucis",
      "nativeName": "Soucis",
      "code": "LC-02-11351699",
      "countryId": 3576468,
      "countryCode": "LC",
      "stateCode": "LC-02",
      "latitude": 13.9768,
      "longitude": -60.99878
    },
    {
      "id": 11351685,
      "name": "Summersdale",
      "nativeName": "Summersdale",
      "code": "LC-02-11351685",
      "countryId": 3576468,
      "countryCode": "LC",
      "stateCode": "LC-02",
      "latitude": 14.02582,
      "longitude": -60.97644
    },
    {
      "id": 11351633,
      "name": "Sunbilt",
      "nativeName": "Sunbilt",
      "code": "LC-02-11351633",
      "countryId": 3576468,
      "countryCode": "LC",
      "stateCode": "LC-02",
      "latitude": 14.00561,
      "longitude": -60.97922
    },
    {
      "id": 11351672,
      "name": "Sunny Acres",
      "nativeName": "Sunny Acres",
      "code": "LC-02-11351672",
      "countryId": 3576468,
      "countryCode": "LC",
      "stateCode": "LC-02",
      "latitude": 14.0281,
      "longitude": -60.97361
    },
    {
      "id": 11351498,
      "name": "Talvern",
      "nativeName": "Talvern",
      "code": "LC-02-11351498",
      "countryId": 3576468,
      "countryCode": "LC",
      "stateCode": "LC-02",
      "latitude": 13.99578,
      "longitude": -60.9441
    },
    {
      "id": 11351525,
      "name": "Tapion",
      "nativeName": "Tapion",
      "code": "LC-02-11351525",
      "countryId": 3576468,
      "countryCode": "LC",
      "stateCode": "LC-02",
      "latitude": 14.01383,
      "longitude": -61.00489
    },
    {
      "id": 11351653,
      "name": "The Morne",
      "nativeName": "The Morne",
      "code": "LC-02-11351653",
      "countryId": 3576468,
      "countryCode": "LC",
      "stateCode": "LC-02",
      "latitude": 13.99778,
      "longitude": -60.9962
    },
    {
      "id": 11351706,
      "name": "Ti Colon",
      "nativeName": "Ti Colon",
      "code": "LC-02-11351706",
      "countryId": 3576468,
      "countryCode": "LC",
      "stateCode": "LC-02",
      "latitude": 13.97071,
      "longitude": -61.00229
    },
    {
      "id": 11351707,
      "name": "Ti Rocher",
      "nativeName": "Ti Rocher",
      "code": "LC-02-11351707",
      "countryId": 3576468,
      "countryCode": "LC",
      "stateCode": "LC-02",
      "latitude": 13.9949,
      "longitude": -60.9711
    },
    {
      "id": 11351704,
      "name": "Tourat/Soucis",
      "nativeName": "Tourat/Soucis",
      "code": "LC-02-11351704",
      "countryId": 3576468,
      "countryCode": "LC",
      "stateCode": "LC-02",
      "latitude": 13.97346,
      "longitude": -60.99773
    },
    {
      "id": 11351709,
      "name": "Trois Piton",
      "nativeName": "Trois Piton",
      "code": "LC-02-11351709",
      "countryId": 3576468,
      "countryCode": "LC",
      "stateCode": "LC-02",
      "latitude": 13.9889,
      "longitude": -60.97259
    },
    {
      "id": 11351688,
      "name": "Trou Cochan/Marc",
      "nativeName": "Trou Cochan/Marc",
      "code": "LC-02-11351688",
      "countryId": 3576468,
      "countryCode": "LC",
      "stateCode": "LC-02",
      "latitude": 13.9422,
      "longitude": -60.96199
    },
    {
      "id": 11351644,
      "name": "Trou Florent/Marc",
      "nativeName": "Trou Florent/Marc",
      "code": "LC-02-11351644",
      "countryId": 3576468,
      "countryCode": "LC",
      "stateCode": "LC-02",
      "latitude": 13.94525,
      "longitude": -60.95382
    },
    {
      "id": 11351522,
      "name": "Trou Rouge",
      "nativeName": "Trou Rouge",
      "code": "LC-02-11351522",
      "countryId": 3576468,
      "countryCode": "LC",
      "stateCode": "LC-02",
      "latitude": 14.00602,
      "longitude": -60.9895
    },
    {
      "id": 11351690,
      "name": "Vide Bouteille",
      "nativeName": "Vide Bouteille",
      "code": "LC-02-11351690",
      "countryId": 3576468,
      "countryCode": "LC",
      "stateCode": "LC-02",
      "latitude": 14.02439,
      "longitude": -60.98066
    },
    {
      "id": 11351560,
      "name": "Vigie",
      "nativeName": "Vigie",
      "code": "LC-02-11351560",
      "countryId": 3576468,
      "countryCode": "LC",
      "stateCode": "LC-02",
      "latitude": 14.02053,
      "longitude": -60.99611
    },
    {
      "id": 11351654,
      "name": "Waterworks",
      "nativeName": "Waterworks",
      "code": "LC-02-11351654",
      "countryId": 3576468,
      "countryCode": "LC",
      "stateCode": "LC-02",
      "latitude": 14.00498,
      "longitude": -60.97635
    },
    {
      "id": 11351655,
      "name": "Wilton'S Yard/Grave Yard",
      "nativeName": "Wilton'S Yard/Grave Yard",
      "code": "LC-02-11351655",
      "countryId": 3576468,
      "countryCode": "LC",
      "stateCode": "LC-02",
      "latitude": 14.00968,
      "longitude": -60.98639
    },
    {
      "id": 11351675,
      "name": "Yorke Hill",
      "nativeName": "Yorke Hill",
      "code": "LC-02-11351675",
      "countryId": 3576468,
      "countryCode": "LC",
      "stateCode": "LC-02",
      "latitude": 14.01694,
      "longitude": -60.97919
    }
  ]
}