{
  "stateId": 3576413,
  "stateCode": "LC-11",
  "countryCode": "LC",
  "cities": [
    {
      "id": 11351853,
      "name": "Anse De Sables/Beane Field",
      "nativeName": "Anse De Sables/Beane Field",
      "code": "LC-11-11351853",
      "countryId": 3576468,
      "countryCode": "LC",
      "stateCode": "LC-11",
      "latitude": 13.73154,
      "longitude": -60.94079
    },
    {
      "id": 11351909,
      "name": "Augier",
      "nativeName": "Augier",
      "code": "LC-11-11351909",
      "countryId": 3576468,
      "countryCode": "LC",
      "stateCode": "LC-11",
      "latitude": 13.76669,
      "longitude": -60.98063
    },
    {
      "id": 11351913,
      "name": "Beane Field",
      "nativeName": "Beane Field",
      "code": "LC-11-11351913",
      "countryId": 3576468,
      "countryCode": "LC",
      "stateCode": "LC-11",
      "latitude": 13.73976,
      "longitude": -60.94741
    },
    {
      "id": 11351914,
      "name": "Beausejour",
      "nativeName": "Beausejour",
      "code": "LC-11-11351914",
      "countryId": 3576468,
      "countryCode": "LC",
      "stateCode": "LC-11",
      "latitude": 13.75229,
      "longitude": -60.95519
    },
    {
      "id": 11351905,
      "name": "Belle Vue",
      "nativeName": "Belle Vue",
      "code": "LC-11-11351905",
      "countryId": 3576468,
      "countryCode": "LC",
      "stateCode": "LC-11",
      "latitude": 13.79218,
      "longitude": -60.95379
    },
    {
      "id": 11351440,
      "name": "Black Bay",
      "nativeName": "Black Bay",
      "code": "LC-11-11351440",
      "countryId": 3576468,
      "countryCode": "LC",
      "stateCode": "LC-11",
      "latitude": 13.7433,
      "longitude": -60.98272
    },
    {
      "id": 11351929,
      "name": "Bruceville/Shanty Town",
      "nativeName": "Bruceville/Shanty Town",
      "code": "LC-11-11351929",
      "countryId": 3576468,
      "countryCode": "LC",
      "stateCode": "LC-11",
      "latitude": 13.72558,
      "longitude": -60.94907
    },
    {
      "id": 11351508,
      "name": "Cacoa",
      "nativeName": "Cacoa",
      "code": "LC-11-11351508",
      "countryId": 3576468,
      "countryCode": "LC",
      "stateCode": "LC-11",
      "latitude": 13.77889,
      "longitude": -60.93862
    },
    {
      "id": 11351915,
      "name": "Cantonement",
      "nativeName": "Cantonement",
      "code": "LC-11-11351915",
      "countryId": 3576468,
      "countryCode": "LC",
      "stateCode": "LC-11",
      "latitude": 13.75665,
      "longitude": -60.97662
    },
    {
      "id": 11351911,
      "name": "Carierre",
      "nativeName": "Carierre",
      "code": "LC-11-11351911",
      "countryId": 3576468,
      "countryCode": "LC",
      "stateCode": "LC-11",
      "latitude": 13.78514,
      "longitude": -60.96721
    },
    {
      "id": 11351541,
      "name": "Catin",
      "nativeName": "Catin",
      "code": "LC-11-11351541",
      "countryId": 3576468,
      "countryCode": "LC",
      "stateCode": "LC-11",
      "latitude": 13.77694,
      "longitude": -60.97973
    },
    {
      "id": 11351906,
      "name": "Cocoa Dan",
      "nativeName": "Cocoa Dan",
      "code": "LC-11-11351906",
      "countryId": 3576468,
      "countryCode": "LC",
      "stateCode": "LC-11",
      "latitude": 13.73087,
      "longitude": -60.97195
    },
    {
      "id": 11351912,
      "name": "Coolie Town",
      "nativeName": "Coolie Town",
      "code": "LC-11-11351912",
      "countryId": 3576468,
      "countryCode": "LC",
      "stateCode": "LC-11",
      "latitude": 13.76911,
      "longitude": -60.9668
    },
    {
      "id": 11351918,
      "name": "De Mailly",
      "nativeName": "De Mailly",
      "code": "LC-11-11351918",
      "countryId": 3576468,
      "countryCode": "LC",
      "stateCode": "LC-11",
      "latitude": 13.79649,
      "longitude": -60.94938
    },
    {
      "id": 11351910,
      "name": "Derierre Bois",
      "nativeName": "Derierre Bois",
      "code": "LC-11-11351910",
      "countryId": 3576468,
      "countryCode": "LC",
      "stateCode": "LC-11",
      "latitude": 13.76807,
      "longitude": -60.97725
    },
    {
      "id": 11351919,
      "name": "Derierre Morne",
      "nativeName": "Derierre Morne",
      "code": "LC-11-11351919",
      "countryId": 3576468,
      "countryCode": "LC",
      "stateCode": "LC-11",
      "latitude": 13.74126,
      "longitude": -60.96057
    },
    {
      "id": 11351923,
      "name": "Docamel/La Resource",
      "nativeName": "Docamel/La Resource",
      "code": "LC-11-11351923",
      "countryId": 3576468,
      "countryCode": "LC",
      "stateCode": "LC-11",
      "latitude": 13.74202,
      "longitude": -60.95604
    },
    {
      "id": 11351468,
      "name": "Eau Piquant/St Urbain",
      "nativeName": "Eau Piquant/St Urbain",
      "code": "LC-11-11351468",
      "countryId": 3576468,
      "countryCode": "LC",
      "stateCode": "LC-11",
      "latitude": 13.76025,
      "longitude": -60.94012
    },
    {
      "id": 11351517,
      "name": "En Bamboo",
      "nativeName": "En Bamboo",
      "code": "LC-11-11351517",
      "countryId": 3576468,
      "countryCode": "LC",
      "stateCode": "LC-11",
      "latitude": 13.78155,
      "longitude": -60.94763
    },
    {
      "id": 11351916,
      "name": "Esperance",
      "nativeName": "Esperance",
      "code": "LC-11-11351916",
      "countryId": 3576468,
      "countryCode": "LC",
      "stateCode": "LC-11",
      "latitude": 13.78854,
      "longitude": -60.96108
    },
    {
      "id": 11351937,
      "name": "Fond Capeche",
      "nativeName": "Fond Capeche",
      "code": "LC-11-11351937",
      "countryId": 3576468,
      "countryCode": "LC",
      "stateCode": "LC-11",
      "latitude": 13.77449,
      "longitude": -60.94835
    },
    {
      "id": 11351917,
      "name": "Fond Sabot",
      "nativeName": "Fond Sabot",
      "code": "LC-11-11351917",
      "countryId": 3576468,
      "countryCode": "LC",
      "stateCode": "LC-11",
      "latitude": 13.77659,
      "longitude": -60.95546
    },
    {
      "id": 11351925,
      "name": "Grace",
      "nativeName": "Grace",
      "code": "LC-11-11351925",
      "countryId": 3576468,
      "countryCode": "LC",
      "stateCode": "LC-11",
      "latitude": 13.77678,
      "longitude": -60.96637
    },
    {
      "id": 11351921,
      "name": "Hewanorra Orchard",
      "nativeName": "Hewanorra Orchard",
      "code": "LC-11-11351921",
      "countryId": 3576468,
      "countryCode": "LC",
      "stateCode": "LC-11",
      "latitude": 13.74486,
      "longitude": -60.97284
    },
    {
      "id": 11351920,
      "name": "Hope Estate",
      "nativeName": "Hope Estate",
      "code": "LC-11-11351920",
      "countryId": 3576468,
      "countryCode": "LC",
      "stateCode": "LC-11",
      "latitude": 13.76477,
      "longitude": -60.95831
    },
    {
      "id": 11351521,
      "name": "Industrial Estate",
      "nativeName": "Industrial Estate",
      "code": "LC-11-11351521",
      "countryId": 3576468,
      "countryCode": "LC",
      "stateCode": "LC-11",
      "latitude": 13.74096,
      "longitude": -60.97393
    },
    {
      "id": 11351922,
      "name": "Joyeux",
      "nativeName": "Joyeux",
      "code": "LC-11-11351922",
      "countryId": 3576468,
      "countryCode": "LC",
      "stateCode": "LC-11",
      "latitude": 13.78313,
      "longitude": -60.96068
    },
    {
      "id": 11351441,
      "name": "La Resource",
      "nativeName": "La Resource",
      "code": "LC-11-11351441",
      "countryId": 3576468,
      "countryCode": "LC",
      "stateCode": "LC-11",
      "latitude": 13.74799,
      "longitude": -60.96237
    },
    {
      "id": 11351394,
      "name": "La Retraite",
      "nativeName": "La Retraite",
      "code": "LC-11-11351394",
      "countryId": 3576468,
      "countryCode": "LC",
      "stateCode": "LC-11",
      "latitude": 13.75944,
      "longitude": -60.96632
    },
    {
      "id": 11351926,
      "name": "La Tourney/Cedar Heights",
      "nativeName": "La Tourney/Cedar Heights",
      "code": "LC-11-11351926",
      "countryId": 3576468,
      "countryCode": "LC",
      "stateCode": "LC-11",
      "latitude": 13.74114,
      "longitude": -60.96517
    },
    {
      "id": 11351927,
      "name": "Maganier",
      "nativeName": "Maganier",
      "code": "LC-11-11351927",
      "countryId": 3576468,
      "countryCode": "LC",
      "stateCode": "LC-11",
      "latitude": 13.7945,
      "longitude": -60.98513
    },
    {
      "id": 11351928,
      "name": "Morne Cayenne",
      "nativeName": "Morne Cayenne",
      "code": "LC-11-11351928",
      "countryId": 3576468,
      "countryCode": "LC",
      "stateCode": "LC-11",
      "latitude": 13.78349,
      "longitude": -60.95506
    },
    {
      "id": 11351930,
      "name": "Morne Vert",
      "nativeName": "Morne Vert",
      "code": "LC-11-11351930",
      "countryId": 3576468,
      "countryCode": "LC",
      "stateCode": "LC-11",
      "latitude": 13.77899,
      "longitude": -60.97617
    },
    {
      "id": 11351476,
      "name": "Moule A Chique",
      "nativeName": "Moule A Chique",
      "code": "LC-11-11351476",
      "countryId": 3576468,
      "countryCode": "LC",
      "stateCode": "LC-11",
      "latitude": 13.71458,
      "longitude": -60.94835
    },
    {
      "id": 11351907,
      "name": "Obrier",
      "nativeName": "Obrier",
      "code": "LC-11-11351907",
      "countryId": 3576468,
      "countryCode": "LC",
      "stateCode": "LC-11",
      "latitude": 13.76831,
      "longitude": -60.97313
    },
    {
      "id": 11351931,
      "name": "Pierrot",
      "nativeName": "Pierrot",
      "code": "LC-11-11351931",
      "countryId": 3576468,
      "countryCode": "LC",
      "stateCode": "LC-11",
      "latitude": 13.76857,
      "longitude": -60.94381
    },
    {
      "id": 11351924,
      "name": "Plut",
      "nativeName": "Plut",
      "code": "LC-11-11351924",
      "countryId": 3576468,
      "countryCode": "LC",
      "stateCode": "LC-11",
      "latitude": 13.77417,
      "longitude": -60.96076
    },
    {
      "id": 11351933,
      "name": "Pomme",
      "nativeName": "Pomme",
      "code": "LC-11-11351933",
      "countryId": 3576468,
      "countryCode": "LC",
      "stateCode": "LC-11",
      "latitude": 13.75792,
      "longitude": -60.98147
    },
    {
      "id": 11351934,
      "name": "St Jude'S Highway",
      "nativeName": "St Jude'S Highway",
      "code": "LC-11-11351934",
      "countryId": 3576468,
      "countryCode": "LC",
      "stateCode": "LC-11",
      "latitude": 13.75867,
      "longitude": -60.9736
    },
    {
      "id": 11351932,
      "name": "Tete Morne/Morne Andrew",
      "nativeName": "Tete Morne/Morne Andrew",
      "code": "LC-11-11351932",
      "countryId": 3576468,
      "countryCode": "LC",
      "stateCode": "LC-11",
      "latitude": 13.77114,
      "longitude": -60.95194
    },
    {
      "id": 11351935,
      "name": "Town",
      "nativeName": "Town",
      "code": "LC-11-11351935",
      "countryId": 3576468,
      "countryCode": "LC",
      "stateCode": "LC-11",
      "latitude": 13.72835,
      "longitude": -60.95408
    },
    {
      "id": 11351413,
      "name": "Viancelle",
      "nativeName": "Viancelle",
      "code": "LC-11-11351413",
      "countryId": 3576468,
      "countryCode": "LC",
      "stateCode": "LC-11",
      "latitude": 13.81269,
      "longitude": -60.97399
    },
    {
      "id": 11351936,
      "name": "Vieux Fort/Laborie Highway",
      "nativeName": "Vieux Fort/Laborie Highway",
      "code": "LC-11-11351936",
      "countryId": 3576468,
      "countryCode": "LC",
      "stateCode": "LC-11",
      "latitude": 13.73197,
      "longitude": -60.95477
    },
    {
      "id": 11351450,
      "name": "Vige'",
      "nativeName": "Vige'",
      "code": "LC-11-11351450",
      "countryId": 3576468,
      "countryCode": "LC",
      "stateCode": "LC-11",
      "latitude": 13.78692,
      "longitude": -60.9355
    },
    {
      "id": 11351542,
      "name": "Westall Group/The Mangue",
      "nativeName": "Westall Group/The Mangue",
      "code": "LC-11-11351542",
      "countryId": 3576468,
      "countryCode": "LC",
      "stateCode": "LC-11",
      "latitude": 13.72707,
      "longitude": -60.95312
    },
    {
      "id": 11351587,
      "name": "Woodlands",
      "nativeName": "Woodlands",
      "code": "LC-11-11351587",
      "countryId": 3576468,
      "countryCode": "LC",
      "stateCode": "LC-11",
      "latitude": 13.79923,
      "longitude": -60.98052
    }
  ]
}