{
  "stateId": 2208265,
  "stateCode": "VU-MAP",
  "countryCode": "VU",
  "cities": [
    {
      "id": 2136697,
      "name": "Lakatoro",
      "nativeName": "Lakatoro",
      "code": "VU-MAP-2136697",
      "countryId": 2134431,
      "countryCode": "VU",
      "stateCode": "VU-MAP",
      "latitude": -16.09992,
      "longitude": 167.41636
    },
    {
      "id": 2137602,
      "name": "Akam",
      "nativeName": "Akam",
      "code": "VU-MAP-2137602",
      "countryId": 2134431,
      "countryCode": "VU",
      "stateCode": "VU-MAP",
      "latitude": -16.51667,
      "longitude": 167.65
    },
    {
      "id": 2137597,
      "name": "Alavas",
      "nativeName": "Alavas",
      "code": "VU-MAP-2137597",
      "countryId": 2134431,
      "countryCode": "VU",
      "stateCode": "VU-MAP",
      "latitude": -15.88333,
      "longitude": 167.23333
    },
    {
      "id": 2137457,
      "name": "Aulua",
      "nativeName": "Aulua",
      "code": "VU-MAP-2137457",
      "countryId": 2134431,
      "countryCode": "VU",
      "stateCode": "VU-MAP",
      "latitude": -16.33333,
      "longitude": 167.71667
    },
    {
      "id": 2137443,
      "name": "Baalap",
      "nativeName": "Baalap",
      "code": "VU-MAP-2137443",
      "countryId": 2134431,
      "countryCode": "VU",
      "stateCode": "VU-MAP",
      "latitude": -16.28333,
      "longitude": 167.95
    },
    {
      "id": 2137401,
      "name": "Batambou",
      "nativeName": "Batambou",
      "code": "VU-MAP-2137401",
      "countryId": 2134431,
      "countryCode": "VU",
      "stateCode": "VU-MAP",
      "latitude": -16.21667,
      "longitude": 167.58333
    },
    {
      "id": 2137227,
      "name": "Brennwé",
      "nativeName": "Brennwé",
      "code": "VU-MAP-2137227",
      "countryId": 2134431,
      "countryCode": "VU",
      "stateCode": "VU-MAP",
      "latitude": -16.13333,
      "longitude": 167.28333
    },
    {
      "id": 2137152,
      "name": "Drivaï",
      "nativeName": "Drivaï",
      "code": "VU-MAP-2137152",
      "countryId": 2134431,
      "countryCode": "VU",
      "stateCode": "VU-MAP",
      "latitude": -16.45,
      "longitude": 167.81667
    },
    {
      "id": 2137109,
      "name": "Emiotouan",
      "nativeName": "Emiotouan",
      "code": "VU-MAP-2137109",
      "countryId": 2134431,
      "countryCode": "VU",
      "stateCode": "VU-MAP",
      "latitude": -16.26667,
      "longitude": 167.98333
    },
    {
      "id": 2137104,
      "name": "Endou",
      "nativeName": "Endou",
      "code": "VU-MAP-2137104",
      "countryId": 2134431,
      "countryCode": "VU",
      "stateCode": "VU-MAP",
      "latitude": -16.26667,
      "longitude": 168.25
    },
    {
      "id": 2137036,
      "name": "Fanla",
      "nativeName": "Fanla",
      "code": "VU-MAP-2137036",
      "countryId": 2134431,
      "countryCode": "VU",
      "stateCode": "VU-MAP",
      "latitude": -16.13333,
      "longitude": 168.13333
    },
    {
      "id": 2136681,
      "name": "Lalembou",
      "nativeName": "Lalembou",
      "code": "VU-MAP-2136681",
      "countryId": 2134431,
      "countryCode": "VU",
      "stateCode": "VU-MAP",
      "latitude": -16.35,
      "longitude": 168.06667
    },
    {
      "id": 2136678,
      "name": "Lalinda",
      "nativeName": "Lalinda",
      "code": "VU-MAP-2136678",
      "countryId": 2134431,
      "countryCode": "VU",
      "stateCode": "VU-MAP",
      "latitude": -16.3408,
      "longitude": 168.0559
    },
    {
      "id": 2136652,
      "name": "Lamap",
      "nativeName": "Lamap",
      "code": "VU-MAP-2136652",
      "countryId": 2134431,
      "countryCode": "VU",
      "stateCode": "VU-MAP",
      "latitude": -16.43333,
      "longitude": 167.8
    },
    {
      "id": 2136656,
      "name": "Lamboulpatouey",
      "nativeName": "Lamboulpatouey",
      "code": "VU-MAP-2136656",
      "countryId": 2134431,
      "countryCode": "VU",
      "stateCode": "VU-MAP",
      "latitude": -16.35,
      "longitude": 167.73333
    },
    {
      "id": 2136649,
      "name": "Lamengo",
      "nativeName": "Lamengo",
      "code": "VU-MAP-2136649",
      "countryId": 2134431,
      "countryCode": "VU",
      "stateCode": "VU-MAP",
      "latitude": -16.49889,
      "longitude": 167.43203
    },
    {
      "id": 2136645,
      "name": "Lamniat",
      "nativeName": "Lamniat",
      "code": "VU-MAP-2136645",
      "countryId": 2134431,
      "countryCode": "VU",
      "stateCode": "VU-MAP",
      "latitude": -15.91667,
      "longitude": 167.3
    },
    {
      "id": 2136641,
      "name": "Lampétiar",
      "nativeName": "Lampétiar",
      "code": "VU-MAP-2136641",
      "countryId": 2134431,
      "countryCode": "VU",
      "stateCode": "VU-MAP",
      "latitude": -15.88333,
      "longitude": 167.23333
    },
    {
      "id": 2136629,
      "name": "Lanour",
      "nativeName": "Lanour",
      "code": "VU-MAP-2136629",
      "countryId": 2134431,
      "countryCode": "VU",
      "stateCode": "VU-MAP",
      "latitude": -16.53333,
      "longitude": 167.56667
    },
    {
      "id": 2136604,
      "name": "Larévet",
      "nativeName": "Larévet",
      "code": "VU-MAP-2136604",
      "countryId": 2134431,
      "countryCode": "VU",
      "stateCode": "VU-MAP",
      "latitude": -16.18333,
      "longitude": 167.35
    },
    {
      "id": 2136574,
      "name": "Lavalsal",
      "nativeName": "Lavalsal",
      "code": "VU-MAP-2136574",
      "countryId": 2134431,
      "countryCode": "VU",
      "stateCode": "VU-MAP",
      "latitude": -15.95,
      "longitude": 167.31667
    },
    {
      "id": 2136512,
      "name": "Lembinwen",
      "nativeName": "Lembinwen",
      "code": "VU-MAP-2136512",
      "countryId": 2134431,
      "countryCode": "VU",
      "stateCode": "VU-MAP",
      "latitude": -16.5,
      "longitude": 167.41667
    },
    {
      "id": 2136482,
      "name": "Lepersivir",
      "nativeName": "Lepersivir",
      "code": "VU-MAP-2136482",
      "countryId": 2134431,
      "countryCode": "VU",
      "stateCode": "VU-MAP",
      "latitude": -16.36667,
      "longitude": 167.76667
    },
    {
      "id": 2136444,
      "name": "Leve",
      "nativeName": "Leve",
      "code": "VU-MAP-2136444",
      "countryId": 2134431,
      "countryCode": "VU",
      "stateCode": "VU-MAP",
      "latitude": -16.3,
      "longitude": 167.95
    },
    {
      "id": 2136422,
      "name": "Likon",
      "nativeName": "Likon",
      "code": "VU-MAP-2136422",
      "countryId": 2134431,
      "countryCode": "VU",
      "stateCode": "VU-MAP",
      "latitude": -16.11667,
      "longitude": 168.13333
    },
    {
      "id": 2136418,
      "name": "Limap",
      "nativeName": "Limap",
      "code": "VU-MAP-2136418",
      "countryId": 2134431,
      "countryCode": "VU",
      "stateCode": "VU-MAP",
      "latitude": -16.23333,
      "longitude": 167.51667
    },
    {
      "id": 2136409,
      "name": "Linarar",
      "nativeName": "Linarar",
      "code": "VU-MAP-2136409",
      "countryId": 2134431,
      "countryCode": "VU",
      "stateCode": "VU-MAP",
      "latitude": -16.18333,
      "longitude": 167.46667
    },
    {
      "id": 2136408,
      "name": "Linboul",
      "nativeName": "Linboul",
      "code": "VU-MAP-2136408",
      "countryId": 2134431,
      "countryCode": "VU",
      "stateCode": "VU-MAP",
      "latitude": -16.13333,
      "longitude": 168.11667
    },
    {
      "id": 2136396,
      "name": "Liro",
      "nativeName": "Liro",
      "code": "VU-MAP-2136396",
      "countryId": 2134431,
      "countryCode": "VU",
      "stateCode": "VU-MAP",
      "latitude": -16.45078,
      "longitude": 168.22605
    },
    {
      "id": 2136390,
      "name": "Litzlitz",
      "nativeName": "Litzlitz",
      "code": "VU-MAP-2136390",
      "countryId": 2134431,
      "countryCode": "VU",
      "stateCode": "VU-MAP",
      "latitude": -16.11667,
      "longitude": 167.43333
    },
    {
      "id": 2136362,
      "name": "Loliboulo",
      "nativeName": "Loliboulo",
      "code": "VU-MAP-2136362",
      "countryId": 2134431,
      "countryCode": "VU",
      "stateCode": "VU-MAP",
      "latitude": -16.25,
      "longitude": 167.95
    },
    {
      "id": 2136359,
      "name": "Lolibwé",
      "nativeName": "Lolibwé",
      "code": "VU-MAP-2136359",
      "countryId": 2134431,
      "countryCode": "VU",
      "stateCode": "VU-MAP",
      "latitude": -16.13333,
      "longitude": 168.15
    },
    {
      "id": 2136358,
      "name": "Lolimari",
      "nativeName": "Lolimari",
      "code": "VU-MAP-2136358",
      "countryId": 2134431,
      "countryCode": "VU",
      "stateCode": "VU-MAP",
      "latitude": -16.25,
      "longitude": 167.91667
    },
    {
      "id": 2136324,
      "name": "Loluerkon",
      "nativeName": "Loluerkon",
      "code": "VU-MAP-2136324",
      "countryId": 2134431,
      "countryCode": "VU",
      "stateCode": "VU-MAP",
      "latitude": -16.16667,
      "longitude": 168.08333
    },
    {
      "id": 2136301,
      "name": "Lonbarnié",
      "nativeName": "Lonbarnié",
      "code": "VU-MAP-2136301",
      "countryId": 2134431,
      "countryCode": "VU",
      "stateCode": "VU-MAP",
      "latitude": -16.11667,
      "longitude": 168.15
    },
    {
      "id": 2136312,
      "name": "Lonepan",
      "nativeName": "Lonepan",
      "code": "VU-MAP-2136312",
      "countryId": 2134431,
      "countryCode": "VU",
      "stateCode": "VU-MAP",
      "latitude": -16.16667,
      "longitude": 168.08333
    },
    {
      "id": 2136286,
      "name": "Lonha",
      "nativeName": "Lonha",
      "code": "VU-MAP-2136286",
      "countryId": 2134431,
      "countryCode": "VU",
      "stateCode": "VU-MAP",
      "latitude": -16.1,
      "longitude": 168.15
    },
    {
      "id": 2136284,
      "name": "Lonmink",
      "nativeName": "Lonmink",
      "code": "VU-MAP-2136284",
      "countryId": 2134431,
      "countryCode": "VU",
      "stateCode": "VU-MAP",
      "latitude": -16.31667,
      "longitude": 167.38333
    },
    {
      "id": 2136280,
      "name": "Lononwei",
      "nativeName": "Lononwei",
      "code": "VU-MAP-2136280",
      "countryId": 2134431,
      "countryCode": "VU",
      "stateCode": "VU-MAP",
      "latitude": -16.33333,
      "longitude": 168.03333
    },
    {
      "id": 2136276,
      "name": "Lonré",
      "nativeName": "Lonré",
      "code": "VU-MAP-2136276",
      "countryId": 2134431,
      "countryCode": "VU",
      "stateCode": "VU-MAP",
      "latitude": -16.13333,
      "longitude": 168.13333
    },
    {
      "id": 2136274,
      "name": "Lonsal",
      "nativeName": "Lonsal",
      "code": "VU-MAP-2136274",
      "countryId": 2134431,
      "countryCode": "VU",
      "stateCode": "VU-MAP",
      "latitude": -16.16667,
      "longitude": 168.11667
    },
    {
      "id": 2136269,
      "name": "Lonwar",
      "nativeName": "Lonwar",
      "code": "VU-MAP-2136269",
      "countryId": 2134431,
      "countryCode": "VU",
      "stateCode": "VU-MAP",
      "latitude": -16.13333,
      "longitude": 168.16667
    },
    {
      "id": 2136265,
      "name": "Lonwel",
      "nativeName": "Lonwel",
      "code": "VU-MAP-2136265",
      "countryId": 2134431,
      "countryCode": "VU",
      "stateCode": "VU-MAP",
      "latitude": -16.16667,
      "longitude": 168.1
    },
    {
      "id": 2136263,
      "name": "Lonyemyem",
      "nativeName": "Lonyemyem",
      "code": "VU-MAP-2136263",
      "countryId": 2134431,
      "countryCode": "VU",
      "stateCode": "VU-MAP",
      "latitude": -16.11667,
      "longitude": 168.15
    },
    {
      "id": 2136219,
      "name": "Loua",
      "nativeName": "Loua",
      "code": "VU-MAP-2136219",
      "countryId": 2134431,
      "countryCode": "VU",
      "stateCode": "VU-MAP",
      "latitude": -15.93333,
      "longitude": 167.31667
    },
    {
      "id": 2136210,
      "name": "Loulep",
      "nativeName": "Loulep",
      "code": "VU-MAP-2136210",
      "countryId": 2134431,
      "countryCode": "VU",
      "stateCode": "VU-MAP",
      "latitude": -16.46366,
      "longitude": 168.25274
    },
    {
      "id": 2136209,
      "name": "Louli",
      "nativeName": "Louli",
      "code": "VU-MAP-2136209",
      "countryId": 2134431,
      "countryCode": "VU",
      "stateCode": "VU-MAP",
      "latitude": -16.44823,
      "longitude": 168.25531
    },
    {
      "id": 2136200,
      "name": "Louoïmalakaï",
      "nativeName": "Louoïmalakaï",
      "code": "VU-MAP-2136200",
      "countryId": 2134431,
      "countryCode": "VU",
      "stateCode": "VU-MAP",
      "latitude": -16.51667,
      "longitude": 167.66667
    },
    {
      "id": 2136191,
      "name": "Lovis",
      "nativeName": "Lovis",
      "code": "VU-MAP-2136191",
      "countryId": 2134431,
      "countryCode": "VU",
      "stateCode": "VU-MAP",
      "latitude": -16.43333,
      "longitude": 167.8
    },
    {
      "id": 2136184,
      "name": "Lowa",
      "nativeName": "Lowa",
      "code": "VU-MAP-2136184",
      "countryId": 2134431,
      "countryCode": "VU",
      "stateCode": "VU-MAP",
      "latitude": -16.45,
      "longitude": 167.41667
    },
    {
      "id": 2136525,
      "name": "Lélé",
      "nativeName": "Lélé",
      "code": "VU-MAP-2136525",
      "countryId": 2134431,
      "countryCode": "VU",
      "stateCode": "VU-MAP",
      "latitude": -16.26667,
      "longitude": 167.95
    },
    {
      "id": 2136506,
      "name": "Lémettou",
      "nativeName": "Lémettou",
      "code": "VU-MAP-2136506",
      "countryId": 2134431,
      "countryCode": "VU",
      "stateCode": "VU-MAP",
      "latitude": -16.08333,
      "longitude": 167.15
    },
    {
      "id": 2136487,
      "name": "Lénor",
      "nativeName": "Lénor",
      "code": "VU-MAP-2136487",
      "countryId": 2134431,
      "countryCode": "VU",
      "stateCode": "VU-MAP",
      "latitude": -16.6,
      "longitude": 167.46667
    },
    {
      "id": 2136473,
      "name": "Léronron",
      "nativeName": "Léronron",
      "code": "VU-MAP-2136473",
      "countryId": 2134431,
      "countryCode": "VU",
      "stateCode": "VU-MAP",
      "latitude": -15.9,
      "longitude": 167.18333
    },
    {
      "id": 2136469,
      "name": "Lésarmalras",
      "nativeName": "Lésarmalras",
      "code": "VU-MAP-2136469",
      "countryId": 2134431,
      "countryCode": "VU",
      "stateCode": "VU-MAP",
      "latitude": -15.9,
      "longitude": 167.2
    },
    {
      "id": 2136441,
      "name": "Léviamp",
      "nativeName": "Léviamp",
      "code": "VU-MAP-2136441",
      "countryId": 2134431,
      "countryCode": "VU",
      "stateCode": "VU-MAP",
      "latitude": -16.15,
      "longitude": 167.21667
    },
    {
      "id": 2136101,
      "name": "Malfakal",
      "nativeName": "Malfakal",
      "code": "VU-MAP-2136101",
      "countryId": 2134431,
      "countryCode": "VU",
      "stateCode": "VU-MAP",
      "latitude": -16.55,
      "longitude": 167.56667
    },
    {
      "id": 2136068,
      "name": "Malvér",
      "nativeName": "Malvér",
      "code": "VU-MAP-2136068",
      "countryId": 2134431,
      "countryCode": "VU",
      "stateCode": "VU-MAP",
      "latitude": -16.28333,
      "longitude": 167.93333
    },
    {
      "id": 2136044,
      "name": "Mapkinkin",
      "nativeName": "Mapkinkin",
      "code": "VU-MAP-2136044",
      "countryId": 2134431,
      "countryCode": "VU",
      "stateCode": "VU-MAP",
      "latitude": -16.28333,
      "longitude": 167.98333
    },
    {
      "id": 2136029,
      "name": "Marembako",
      "nativeName": "Marembako",
      "code": "VU-MAP-2136029",
      "countryId": 2134431,
      "countryCode": "VU",
      "stateCode": "VU-MAP",
      "latitude": -16.55,
      "longitude": 167.73333
    },
    {
      "id": 2136021,
      "name": "Maronron",
      "nativeName": "Maronron",
      "code": "VU-MAP-2136021",
      "countryId": 2134431,
      "countryCode": "VU",
      "stateCode": "VU-MAP",
      "latitude": -16.16667,
      "longitude": 168.1
    },
    {
      "id": 2136013,
      "name": "Mat",
      "nativeName": "Mat",
      "code": "VU-MAP-2136013",
      "countryId": 2134431,
      "countryCode": "VU",
      "stateCode": "VU-MAP",
      "latitude": -16.35,
      "longitude": 168.26667
    },
    {
      "id": 2135992,
      "name": "Matanvat",
      "nativeName": "Matanvat",
      "code": "VU-MAP-2135992",
      "countryId": 2134431,
      "countryCode": "VU",
      "stateCode": "VU-MAP",
      "latitude": -15.93333,
      "longitude": 167.16667
    },
    {
      "id": 2135975,
      "name": "Matié",
      "nativeName": "Matié",
      "code": "VU-MAP-2135975",
      "countryId": 2134431,
      "countryCode": "VU",
      "stateCode": "VU-MAP",
      "latitude": -16.3,
      "longitude": 168.28333
    },
    {
      "id": 2135979,
      "name": "Maténoua",
      "nativeName": "Maténoua",
      "code": "VU-MAP-2135979",
      "countryId": 2134431,
      "countryCode": "VU",
      "stateCode": "VU-MAP",
      "latitude": -16.25,
      "longitude": 167.61667
    },
    {
      "id": 2135962,
      "name": "Mavora",
      "nativeName": "Mavora",
      "code": "VU-MAP-2135962",
      "countryId": 2134431,
      "countryCode": "VU",
      "stateCode": "VU-MAP",
      "latitude": -16.3,
      "longitude": 168.3
    },
    {
      "id": 2136141,
      "name": "Maé",
      "nativeName": "Maé",
      "code": "VU-MAP-2136141",
      "countryId": 2134431,
      "countryCode": "VU",
      "stateCode": "VU-MAP",
      "latitude": -16.05959,
      "longitude": 167.3719
    },
    {
      "id": 2135949,
      "name": "Melbulbul",
      "nativeName": "Melbulbul",
      "code": "VU-MAP-2135949",
      "countryId": 2134431,
      "countryCode": "VU",
      "stateCode": "VU-MAP",
      "latitude": -16.11667,
      "longitude": 168.15
    },
    {
      "id": 2135925,
      "name": "Melto",
      "nativeName": "Melto",
      "code": "VU-MAP-2135925",
      "countryId": 2134431,
      "countryCode": "VU",
      "stateCode": "VU-MAP",
      "latitude": -16.18333,
      "longitude": 168.08333
    },
    {
      "id": 2135928,
      "name": "Meltébin",
      "nativeName": "Meltébin",
      "code": "VU-MAP-2135928",
      "countryId": 2134431,
      "countryCode": "VU",
      "stateCode": "VU-MAP",
      "latitude": -16.31667,
      "longitude": 168
    },
    {
      "id": 2135922,
      "name": "Melwar",
      "nativeName": "Melwar",
      "code": "VU-MAP-2135922",
      "countryId": 2134431,
      "countryCode": "VU",
      "stateCode": "VU-MAP",
      "latitude": -16.13333,
      "longitude": 168.11667
    },
    {
      "id": 2135856,
      "name": "Molorhaï",
      "nativeName": "Molorhaï",
      "code": "VU-MAP-2135856",
      "countryId": 2134431,
      "countryCode": "VU",
      "stateCode": "VU-MAP",
      "latitude": -16.55,
      "longitude": 167.83333
    },
    {
      "id": 2135848,
      "name": "Morou",
      "nativeName": "Morou",
      "code": "VU-MAP-2135848",
      "countryId": 2134431,
      "countryCode": "VU",
      "stateCode": "VU-MAP",
      "latitude": -16.36667,
      "longitude": 168.25
    },
    {
      "id": 2135956,
      "name": "Mégam",
      "nativeName": "Mégam",
      "code": "VU-MAP-2135956",
      "countryId": 2134431,
      "countryCode": "VU",
      "stateCode": "VU-MAP",
      "latitude": -16.1,
      "longitude": 168.13333
    },
    {
      "id": 2135941,
      "name": "Mélibwé",
      "nativeName": "Mélibwé",
      "code": "VU-MAP-2135941",
      "countryId": 2134431,
      "countryCode": "VU",
      "stateCode": "VU-MAP",
      "latitude": -16.16667,
      "longitude": 168.1
    },
    {
      "id": 2135940,
      "name": "Mélip",
      "nativeName": "Mélip",
      "code": "VU-MAP-2135940",
      "countryId": 2134431,
      "countryCode": "VU",
      "stateCode": "VU-MAP",
      "latitude": -16.58333,
      "longitude": 167.48333
    },
    {
      "id": 2135927,
      "name": "Mélten",
      "nativeName": "Mélten",
      "code": "VU-MAP-2135927",
      "countryId": 2134431,
      "countryCode": "VU",
      "stateCode": "VU-MAP",
      "latitude": -16.26667,
      "longitude": 167.93333
    },
    {
      "id": 2135904,
      "name": "Mériver",
      "nativeName": "Mériver",
      "code": "VU-MAP-2135904",
      "countryId": 2134431,
      "countryCode": "VU",
      "stateCode": "VU-MAP",
      "latitude": -16.43333,
      "longitude": 167.78333
    },
    {
      "id": 2135895,
      "name": "Métamli",
      "nativeName": "Métamli",
      "code": "VU-MAP-2135895",
      "countryId": 2134431,
      "countryCode": "VU",
      "stateCode": "VU-MAP",
      "latitude": -16.13333,
      "longitude": 168.13333
    },
    {
      "id": 2135891,
      "name": "Métanwar",
      "nativeName": "Métanwar",
      "code": "VU-MAP-2135891",
      "countryId": 2134431,
      "countryCode": "VU",
      "stateCode": "VU-MAP",
      "latitude": -16.11667,
      "longitude": 168.13333
    },
    {
      "id": 2135888,
      "name": "Métavèn",
      "nativeName": "Métavèn",
      "code": "VU-MAP-2135888",
      "countryId": 2134431,
      "countryCode": "VU",
      "stateCode": "VU-MAP",
      "latitude": -16.16667,
      "longitude": 167.48333
    },
    {
      "id": 2135762,
      "name": "Nanamorou",
      "nativeName": "Nanamorou",
      "code": "VU-MAP-2135762",
      "countryId": 2134431,
      "countryCode": "VU",
      "stateCode": "VU-MAP",
      "latitude": -16.48333,
      "longitude": 167.81667
    },
    {
      "id": 2135728,
      "name": "Naous",
      "nativeName": "Naous",
      "code": "VU-MAP-2135728",
      "countryId": 2134431,
      "countryCode": "VU",
      "stateCode": "VU-MAP",
      "latitude": -15.95,
      "longitude": 167.33333
    },
    {
      "id": 2135718,
      "name": "Napoul",
      "nativeName": "Napoul",
      "code": "VU-MAP-2135718",
      "countryId": 2134431,
      "countryCode": "VU",
      "stateCode": "VU-MAP",
      "latitude": -16.5,
      "longitude": 168.21667
    },
    {
      "id": 2135652,
      "name": "Nayo",
      "nativeName": "Nayo",
      "code": "VU-MAP-2135652",
      "countryId": 2134431,
      "countryCode": "VU",
      "stateCode": "VU-MAP",
      "latitude": -16.05,
      "longitude": 167.16667
    },
    {
      "id": 2135633,
      "name": "Nehatlin",
      "nativeName": "Nehatlin",
      "code": "VU-MAP-2135633",
      "countryId": 2134431,
      "countryCode": "VU",
      "stateCode": "VU-MAP",
      "latitude": -16.13333,
      "longitude": 168.13333
    },
    {
      "id": 2135603,
      "name": "Neubul",
      "nativeName": "Neubul",
      "code": "VU-MAP-2135603",
      "countryId": 2134431,
      "countryCode": "VU",
      "stateCode": "VU-MAP",
      "latitude": -16.11667,
      "longitude": 168.13333
    },
    {
      "id": 2135549,
      "name": "Noboros",
      "nativeName": "Noboros",
      "code": "VU-MAP-2135549",
      "countryId": 2134431,
      "countryCode": "VU",
      "stateCode": "VU-MAP",
      "latitude": -16.15,
      "longitude": 167.46667
    },
    {
      "id": 2135530,
      "name": "Noou",
      "nativeName": "Noou",
      "code": "VU-MAP-2135530",
      "countryId": 2134431,
      "countryCode": "VU",
      "stateCode": "VU-MAP",
      "latitude": -16.46667,
      "longitude": 168.21667
    },
    {
      "id": 2135517,
      "name": "Norsup",
      "nativeName": "Norsup",
      "code": "VU-MAP-2135517",
      "countryId": 2134431,
      "countryCode": "VU",
      "stateCode": "VU-MAP",
      "latitude": -16.06536,
      "longitude": 167.39714
    },
    {
      "id": 2135502,
      "name": "Nountor",
      "nativeName": "Nountor",
      "code": "VU-MAP-2135502",
      "countryId": 2134431,
      "countryCode": "VU",
      "stateCode": "VU-MAP",
      "latitude": -16.15,
      "longitude": 168.11667
    },
    {
      "id": 2135496,
      "name": "Npénanavèt",
      "nativeName": "Npénanavèt",
      "code": "VU-MAP-2135496",
      "countryId": 2134431,
      "countryCode": "VU",
      "stateCode": "VU-MAP",
      "latitude": -16.01667,
      "longitude": 167.16667
    },
    {
      "id": 2135634,
      "name": "Néha",
      "nativeName": "Néha",
      "code": "VU-MAP-2135634",
      "countryId": 2134431,
      "countryCode": "VU",
      "stateCode": "VU-MAP",
      "latitude": -16.13333,
      "longitude": 168.15
    },
    {
      "id": 2135632,
      "name": "Néhatourou",
      "nativeName": "Néhatourou",
      "code": "VU-MAP-2135632",
      "countryId": 2134431,
      "countryCode": "VU",
      "stateCode": "VU-MAP",
      "latitude": -16.16667,
      "longitude": 168.11667
    },
    {
      "id": 2135487,
      "name": "Olal",
      "nativeName": "Olal",
      "code": "VU-MAP-2135487",
      "countryId": 2134431,
      "countryCode": "VU",
      "stateCode": "VU-MAP",
      "latitude": -16.1,
      "longitude": 168.15
    },
    {
      "id": 2135463,
      "name": "Orap",
      "nativeName": "Orap",
      "code": "VU-MAP-2135463",
      "countryId": 2134431,
      "countryCode": "VU",
      "stateCode": "VU-MAP",
      "latitude": -15.96667,
      "longitude": 167.33333
    },
    {
      "id": 2135457,
      "name": "Oroni",
      "nativeName": "Oroni",
      "code": "VU-MAP-2135457",
      "countryId": 2134431,
      "countryCode": "VU",
      "stateCode": "VU-MAP",
      "latitude": -15.98333,
      "longitude": 167.18333
    },
    {
      "id": 2135454,
      "name": "Otas",
      "nativeName": "Otas",
      "code": "VU-MAP-2135454",
      "countryId": 2134431,
      "countryCode": "VU",
      "stateCode": "VU-MAP",
      "latitude": -16.35,
      "longitude": 168.26667
    },
    {
      "id": 2135401,
      "name": "Oussélé",
      "nativeName": "Oussélé",
      "code": "VU-MAP-2135401",
      "countryId": 2134431,
      "countryCode": "VU",
      "stateCode": "VU-MAP",
      "latitude": -16.1,
      "longitude": 167.41667
    },
    {
      "id": 2135398,
      "name": "Outèr",
      "nativeName": "Outèr",
      "code": "VU-MAP-2135398",
      "countryId": 2134431,
      "countryCode": "VU",
      "stateCode": "VU-MAP",
      "latitude": -16,
      "longitude": 167.35
    },
    {
      "id": 2135364,
      "name": "Pamel",
      "nativeName": "Pamel",
      "code": "VU-MAP-2135364",
      "countryId": 2134431,
      "countryCode": "VU",
      "stateCode": "VU-MAP",
      "latitude": -16.33333,
      "longitude": 168.3
    },
    {
      "id": 2135339,
      "name": "Panmouwouom",
      "nativeName": "Panmouwouom",
      "code": "VU-MAP-2135339",
      "countryId": 2134431,
      "countryCode": "VU",
      "stateCode": "VU-MAP",
      "latitude": -16.25,
      "longitude": 168.38333
    },
    {
      "id": 2135331,
      "name": "Paouléli",
      "nativeName": "Paouléli",
      "code": "VU-MAP-2135331",
      "countryId": 2134431,
      "countryCode": "VU",
      "stateCode": "VU-MAP",
      "latitude": -16.5,
      "longitude": 168.21667
    },
    {
      "id": 2135287,
      "name": "Pellonk",
      "nativeName": "Pellonk",
      "code": "VU-MAP-2135287",
      "countryId": 2134431,
      "countryCode": "VU",
      "stateCode": "VU-MAP",
      "latitude": -16.53333,
      "longitude": 167.81667
    },
    {
      "id": 2135257,
      "name": "Pesia",
      "nativeName": "Pesia",
      "code": "VU-MAP-2135257",
      "countryId": 2134431,
      "countryCode": "VU",
      "stateCode": "VU-MAP",
      "latitude": -16.31667,
      "longitude": 168.05
    },
    {
      "id": 2135256,
      "name": "Peskarüs",
      "nativeName": "Peskarüs",
      "code": "VU-MAP-2135256",
      "countryId": 2134431,
      "countryCode": "VU",
      "stateCode": "VU-MAP",
      "latitude": -16.53333,
      "longitude": 167.81667
    },
    {
      "id": 2135216,
      "name": "Pinaloum",
      "nativeName": "Pinaloum",
      "code": "VU-MAP-2135216",
      "countryId": 2134431,
      "countryCode": "VU",
      "stateCode": "VU-MAP",
      "latitude": -16.01667,
      "longitude": 167.4
    },
    {
      "id": 2135214,
      "name": "Pinambo",
      "nativeName": "Pinambo",
      "code": "VU-MAP-2135214",
      "countryId": 2134431,
      "countryCode": "VU",
      "stateCode": "VU-MAP",
      "latitude": -16.03333,
      "longitude": 167.16667
    },
    {
      "id": 2135213,
      "name": "Pinapel",
      "nativeName": "Pinapel",
      "code": "VU-MAP-2135213",
      "countryId": 2134431,
      "countryCode": "VU",
      "stateCode": "VU-MAP",
      "latitude": -16.35,
      "longitude": 168.28333
    },
    {
      "id": 2135209,
      "name": "Plamaé",
      "nativeName": "Plamaé",
      "code": "VU-MAP-2135209",
      "countryId": 2134431,
      "countryCode": "VU",
      "stateCode": "VU-MAP",
      "latitude": -16.05,
      "longitude": 167.36667
    },
    {
      "id": 2135207,
      "name": "Poal",
      "nativeName": "Poal",
      "code": "VU-MAP-2135207",
      "countryId": 2134431,
      "countryCode": "VU",
      "stateCode": "VU-MAP",
      "latitude": -16.26667,
      "longitude": 168.23333
    },
    {
      "id": 2135197,
      "name": "Poliba",
      "nativeName": "Poliba",
      "code": "VU-MAP-2135197",
      "countryId": 2134431,
      "countryCode": "VU",
      "stateCode": "VU-MAP",
      "latitude": -16.3,
      "longitude": 167.95
    },
    {
      "id": 2135173,
      "name": "Port-Stanley",
      "nativeName": "Port-Stanley",
      "code": "VU-MAP-2135173",
      "countryId": 2134431,
      "countryCode": "VU",
      "stateCode": "VU-MAP",
      "latitude": -16.15,
      "longitude": 167.45
    },
    {
      "id": 2135172,
      "name": "Port-Vato",
      "nativeName": "Port-Vato",
      "code": "VU-MAP-2135172",
      "countryId": 2134431,
      "countryCode": "VU",
      "stateCode": "VU-MAP",
      "latitude": -16.33333,
      "longitude": 168.03333
    },
    {
      "id": 2135158,
      "name": "Potovrou",
      "nativeName": "Potovrou",
      "code": "VU-MAP-2135158",
      "countryId": 2134431,
      "countryCode": "VU",
      "stateCode": "VU-MAP",
      "latitude": -15.88333,
      "longitude": 167.25
    },
    {
      "id": 2135130,
      "name": "Poutoumiel",
      "nativeName": "Poutoumiel",
      "code": "VU-MAP-2135130",
      "countryId": 2134431,
      "countryCode": "VU",
      "stateCode": "VU-MAP",
      "latitude": -16.03333,
      "longitude": 167.16667
    },
    {
      "id": 2135278,
      "name": "Pénap",
      "nativeName": "Pénap",
      "code": "VU-MAP-2135278",
      "countryId": 2134431,
      "countryCode": "VU",
      "stateCode": "VU-MAP",
      "latitude": -16.45,
      "longitude": 167.81667
    },
    {
      "id": 2135273,
      "name": "Péniciès",
      "nativeName": "Péniciès",
      "code": "VU-MAP-2135273",
      "countryId": 2134431,
      "countryCode": "VU",
      "stateCode": "VU-MAP",
      "latitude": -16.43333,
      "longitude": 167.78333
    },
    {
      "id": 2135271,
      "name": "Pénoubéré",
      "nativeName": "Pénoubéré",
      "code": "VU-MAP-2135271",
      "countryId": 2134431,
      "countryCode": "VU",
      "stateCode": "VU-MAP",
      "latitude": -16.28333,
      "longitude": 167.68333
    },
    {
      "id": 2135264,
      "name": "Pépéksal",
      "nativeName": "Pépéksal",
      "code": "VU-MAP-2135264",
      "countryId": 2134431,
      "countryCode": "VU",
      "stateCode": "VU-MAP",
      "latitude": -15.98333,
      "longitude": 167.18333
    },
    {
      "id": 2135250,
      "name": "Pétel",
      "nativeName": "Pétel",
      "code": "VU-MAP-2135250",
      "countryId": 2134431,
      "countryCode": "VU",
      "stateCode": "VU-MAP",
      "latitude": -16.36667,
      "longitude": 168.25
    },
    {
      "id": 2135098,
      "name": "Rambak",
      "nativeName": "Rambak",
      "code": "VU-MAP-2135098",
      "countryId": 2134431,
      "countryCode": "VU",
      "stateCode": "VU-MAP",
      "latitude": -16.05,
      "longitude": 167.15
    },
    {
      "id": 2135096,
      "name": "Rambouan",
      "nativeName": "Rambouan",
      "code": "VU-MAP-2135096",
      "countryId": 2134431,
      "countryCode": "VU",
      "stateCode": "VU-MAP",
      "latitude": -16.43333,
      "longitude": 167.8
    },
    {
      "id": 2135086,
      "name": "Ranbili",
      "nativeName": "Ranbili",
      "code": "VU-MAP-2135086",
      "countryId": 2134431,
      "countryCode": "VU",
      "stateCode": "VU-MAP",
      "latitude": -16.25,
      "longitude": 168.21667
    },
    {
      "id": 2135083,
      "name": "Ranbwé",
      "nativeName": "Ranbwé",
      "code": "VU-MAP-2135083",
      "countryId": 2134431,
      "countryCode": "VU",
      "stateCode": "VU-MAP",
      "latitude": -16.15,
      "longitude": 168.1
    },
    {
      "id": 2135078,
      "name": "Ranhor",
      "nativeName": "Ranhor",
      "code": "VU-MAP-2135078",
      "countryId": 2134431,
      "countryCode": "VU",
      "stateCode": "VU-MAP",
      "latitude": -16.13333,
      "longitude": 168.13333
    },
    {
      "id": 2135074,
      "name": "Ranmouhou",
      "nativeName": "Ranmouhou",
      "code": "VU-MAP-2135074",
      "countryId": 2134431,
      "countryCode": "VU",
      "stateCode": "VU-MAP",
      "latitude": -16.1,
      "longitude": 168.13333
    },
    {
      "id": 2135070,
      "name": "Ranon",
      "nativeName": "Ranon",
      "code": "VU-MAP-2135070",
      "countryId": 2134431,
      "countryCode": "VU",
      "stateCode": "VU-MAP",
      "latitude": -16.15,
      "longitude": 168.11667
    },
    {
      "id": 2135065,
      "name": "Ransaré",
      "nativeName": "Ransaré",
      "code": "VU-MAP-2135065",
      "countryId": 2134431,
      "countryCode": "VU",
      "stateCode": "VU-MAP",
      "latitude": -16.21667,
      "longitude": 167.56667
    },
    {
      "id": 2135061,
      "name": "Ranuetlam",
      "nativeName": "Ranuetlam",
      "code": "VU-MAP-2135061",
      "countryId": 2134431,
      "countryCode": "VU",
      "stateCode": "VU-MAP",
      "latitude": -16.16667,
      "longitude": 168.08333
    },
    {
      "id": 2135060,
      "name": "Ranvérékon",
      "nativeName": "Ranvérékon",
      "code": "VU-MAP-2135060",
      "countryId": 2134431,
      "countryCode": "VU",
      "stateCode": "VU-MAP",
      "latitude": -16.2,
      "longitude": 167.98333
    },
    {
      "id": 2135057,
      "name": "Ranwilinto",
      "nativeName": "Ranwilinto",
      "code": "VU-MAP-2135057",
      "countryId": 2134431,
      "countryCode": "VU",
      "stateCode": "VU-MAP",
      "latitude": -16.18333,
      "longitude": 168.1
    },
    {
      "id": 2135033,
      "name": "Remèp",
      "nativeName": "Remèp",
      "code": "VU-MAP-2135033",
      "countryId": 2134431,
      "countryCode": "VU",
      "stateCode": "VU-MAP",
      "latitude": -16.35,
      "longitude": 167.76667
    },
    {
      "id": 2135030,
      "name": "Renmar",
      "nativeName": "Renmar",
      "code": "VU-MAP-2135030",
      "countryId": 2134431,
      "countryCode": "VU",
      "stateCode": "VU-MAP",
      "latitude": -15.9,
      "longitude": 167.2
    },
    {
      "id": 2135025,
      "name": "Rerep",
      "nativeName": "Rerep",
      "code": "VU-MAP-2135025",
      "countryId": 2134431,
      "countryCode": "VU",
      "stateCode": "VU-MAP",
      "latitude": -16.28333,
      "longitude": 167.66667
    },
    {
      "id": 2134987,
      "name": "Robago",
      "nativeName": "Robago",
      "code": "VU-MAP-2134987",
      "countryId": 2134431,
      "countryCode": "VU",
      "stateCode": "VU-MAP",
      "latitude": -16.2,
      "longitude": 167.55
    },
    {
      "id": 2134983,
      "name": "Roghuros",
      "nativeName": "Roghuros",
      "code": "VU-MAP-2134983",
      "countryId": 2134431,
      "countryCode": "VU",
      "stateCode": "VU-MAP",
      "latitude": -16.23333,
      "longitude": 167.6
    },
    {
      "id": 2134976,
      "name": "Rongétra",
      "nativeName": "Rongétra",
      "code": "VU-MAP-2134976",
      "countryId": 2134431,
      "countryCode": "VU",
      "stateCode": "VU-MAP",
      "latitude": -16.23333,
      "longitude": 167.6
    },
    {
      "id": 2134960,
      "name": "Rovo",
      "nativeName": "Rovo",
      "code": "VU-MAP-2134960",
      "countryId": 2134431,
      "countryCode": "VU",
      "stateCode": "VU-MAP",
      "latitude": -16.3,
      "longitude": 168.3
    },
    {
      "id": 2135028,
      "name": "Répanbitipbonour",
      "nativeName": "Répanbitipbonour",
      "code": "VU-MAP-2135028",
      "countryId": 2134431,
      "countryCode": "VU",
      "stateCode": "VU-MAP",
      "latitude": -16.3,
      "longitude": 167.66667
    },
    {
      "id": 2135016,
      "name": "Rétour",
      "nativeName": "Rétour",
      "code": "VU-MAP-2135016",
      "countryId": 2134431,
      "countryCode": "VU",
      "stateCode": "VU-MAP",
      "latitude": -16.36667,
      "longitude": 167.76667
    },
    {
      "id": 2134920,
      "name": "Sam̄éo",
      "nativeName": "Sam̄éo",
      "code": "VU-MAP-2134920",
      "countryId": 2134431,
      "countryCode": "VU",
      "stateCode": "VU-MAP",
      "latitude": -16.3,
      "longitude": 168.28333
    },
    {
      "id": 2134909,
      "name": "Sanasoup",
      "nativeName": "Sanasoup",
      "code": "VU-MAP-2134909",
      "countryId": 2134431,
      "countryCode": "VU",
      "stateCode": "VU-MAP",
      "latitude": -16.33333,
      "longitude": 168
    },
    {
      "id": 2134903,
      "name": "Sankay",
      "nativeName": "Sankay",
      "code": "VU-MAP-2134903",
      "countryId": 2134431,
      "countryCode": "VU",
      "stateCode": "VU-MAP",
      "latitude": -16.46667,
      "longitude": 168.23333
    },
    {
      "id": 2134896,
      "name": "Sanwar",
      "nativeName": "Sanwar",
      "code": "VU-MAP-2134896",
      "countryId": 2134431,
      "countryCode": "VU",
      "stateCode": "VU-MAP",
      "latitude": -15.98333,
      "longitude": 167.35
    },
    {
      "id": 2134871,
      "name": "Sarmette",
      "nativeName": "Sarmette",
      "code": "VU-MAP-2134871",
      "countryId": 2134431,
      "countryCode": "VU",
      "stateCode": "VU-MAP",
      "latitude": -16.2,
      "longitude": 167.53333
    },
    {
      "id": 2134943,
      "name": "Saé",
      "nativeName": "Saé",
      "code": "VU-MAP-2134943",
      "countryId": 2134431,
      "countryCode": "VU",
      "stateCode": "VU-MAP",
      "latitude": -16.36667,
      "longitude": 168.25
    },
    {
      "id": 2134821,
      "name": "Slelouré",
      "nativeName": "Slelouré",
      "code": "VU-MAP-2134821",
      "countryId": 2134431,
      "countryCode": "VU",
      "stateCode": "VU-MAP",
      "latitude": -16.06667,
      "longitude": 167.4
    },
    {
      "id": 2134819,
      "name": "Slétassimal",
      "nativeName": "Slétassimal",
      "code": "VU-MAP-2134819",
      "countryId": 2134431,
      "countryCode": "VU",
      "stateCode": "VU-MAP",
      "latitude": -16.06667,
      "longitude": 167.4
    },
    {
      "id": 2134813,
      "name": "Sonrha",
      "nativeName": "Sonrha",
      "code": "VU-MAP-2134813",
      "countryId": 2134431,
      "countryCode": "VU",
      "stateCode": "VU-MAP",
      "latitude": -15.91667,
      "longitude": 167.16667
    },
    {
      "id": 2134850,
      "name": "Sénal",
      "nativeName": "Sénal",
      "code": "VU-MAP-2134850",
      "countryId": 2134431,
      "countryCode": "VU",
      "stateCode": "VU-MAP",
      "latitude": -16.1,
      "longitude": 167.41667
    },
    {
      "id": 2137403,
      "name": "Sésivi",
      "nativeName": "Sésivi",
      "code": "VU-MAP-2137403",
      "countryId": 2134431,
      "countryCode": "VU",
      "stateCode": "VU-MAP",
      "latitude": -16.31667,
      "longitude": 167.98333
    },
    {
      "id": 2134760,
      "name": "Taal Nétan",
      "nativeName": "Taal Nétan",
      "code": "VU-MAP-2134760",
      "countryId": 2134431,
      "countryCode": "VU",
      "stateCode": "VU-MAP",
      "latitude": -16.5,
      "longitude": 168.2
    },
    {
      "id": 2134747,
      "name": "Tabwé",
      "nativeName": "Tabwé",
      "code": "VU-MAP-2134747",
      "countryId": 2134431,
      "countryCode": "VU",
      "stateCode": "VU-MAP",
      "latitude": -16.43436,
      "longitude": 168.23643
    },
    {
      "id": 2134737,
      "name": "Tafoualé",
      "nativeName": "Tafoualé",
      "code": "VU-MAP-2134737",
      "countryId": 2134431,
      "countryCode": "VU",
      "stateCode": "VU-MAP",
      "latitude": -16.48333,
      "longitude": 168.21667
    },
    {
      "id": 2134735,
      "name": "Tahi",
      "nativeName": "Tahi",
      "code": "VU-MAP-2134735",
      "countryId": 2134431,
      "countryCode": "VU",
      "stateCode": "VU-MAP",
      "latitude": -16.46749,
      "longitude": 168.21995
    },
    {
      "id": 2134706,
      "name": "Tamlilip",
      "nativeName": "Tamlilip",
      "code": "VU-MAP-2134706",
      "countryId": 2134431,
      "countryCode": "VU",
      "stateCode": "VU-MAP",
      "latitude": -15.98333,
      "longitude": 167.23333
    },
    {
      "id": 2134672,
      "name": "Taoutou",
      "nativeName": "Taoutou",
      "code": "VU-MAP-2134672",
      "countryId": 2134431,
      "countryCode": "VU",
      "stateCode": "VU-MAP",
      "latitude": -16.08333,
      "longitude": 167.41667
    },
    {
      "id": 2134639,
      "name": "Tavendroua",
      "nativeName": "Tavendroua",
      "code": "VU-MAP-2134639",
      "countryId": 2134431,
      "countryCode": "VU",
      "stateCode": "VU-MAP",
      "latitude": -16.35,
      "longitude": 167.36667
    },
    {
      "id": 2134637,
      "name": "Taviac",
      "nativeName": "Taviac",
      "code": "VU-MAP-2134637",
      "countryId": 2134431,
      "countryCode": "VU",
      "stateCode": "VU-MAP",
      "latitude": -16.36667,
      "longitude": 168.23333
    },
    {
      "id": 2134628,
      "name": "Tawor",
      "nativeName": "Tawor",
      "code": "VU-MAP-2134628",
      "countryId": 2134431,
      "countryCode": "VU",
      "stateCode": "VU-MAP",
      "latitude": -16.11667,
      "longitude": 168.15
    },
    {
      "id": 2134610,
      "name": "Tellit",
      "nativeName": "Tellit",
      "code": "VU-MAP-2134610",
      "countryId": 2134431,
      "countryCode": "VU",
      "stateCode": "VU-MAP",
      "latitude": -16.16667,
      "longitude": 168.1
    },
    {
      "id": 2134598,
      "name": "Tenmarou",
      "nativeName": "Tenmarou",
      "code": "VU-MAP-2134598",
      "countryId": 2134431,
      "countryCode": "VU",
      "stateCode": "VU-MAP",
      "latitude": -16.03333,
      "longitude": 167.16667
    },
    {
      "id": 2134596,
      "name": "Tenmial",
      "nativeName": "Tenmial",
      "code": "VU-MAP-2134596",
      "countryId": 2134431,
      "countryCode": "VU",
      "stateCode": "VU-MAP",
      "latitude": -15.95,
      "longitude": 167.18333
    },
    {
      "id": 2134597,
      "name": "Tenmérer",
      "nativeName": "Tenmérer",
      "code": "VU-MAP-2134597",
      "countryId": 2134431,
      "countryCode": "VU",
      "stateCode": "VU-MAP",
      "latitude": -15.9,
      "longitude": 167.26667
    },
    {
      "id": 2134594,
      "name": "Tentaréssak",
      "nativeName": "Tentaréssak",
      "code": "VU-MAP-2134594",
      "countryId": 2134431,
      "countryCode": "VU",
      "stateCode": "VU-MAP",
      "latitude": -15.93333,
      "longitude": 167.16667
    },
    {
      "id": 2134593,
      "name": "Tentaréssoup",
      "nativeName": "Tentaréssoup",
      "code": "VU-MAP-2134593",
      "countryId": 2134431,
      "countryCode": "VU",
      "stateCode": "VU-MAP",
      "latitude": -15.91667,
      "longitude": 167.16667
    },
    {
      "id": 2134579,
      "name": "Tichlélamboué",
      "nativeName": "Tichlélamboué",
      "code": "VU-MAP-2134579",
      "countryId": 2134431,
      "countryCode": "VU",
      "stateCode": "VU-MAP",
      "latitude": -16,
      "longitude": 167.36667
    },
    {
      "id": 2134564,
      "name": "Tisbel",
      "nativeName": "Tisbel",
      "code": "VU-MAP-2134564",
      "countryId": 2134431,
      "countryCode": "VU",
      "stateCode": "VU-MAP",
      "latitude": -16.26667,
      "longitude": 167.4
    },
    {
      "id": 2134558,
      "name": "Tivel",
      "nativeName": "Tivel",
      "code": "VU-MAP-2134558",
      "countryId": 2134431,
      "countryCode": "VU",
      "stateCode": "VU-MAP",
      "latitude": -16.05,
      "longitude": 167.4
    },
    {
      "id": 2134555,
      "name": "Toak",
      "nativeName": "Toak",
      "code": "VU-MAP-2134555",
      "countryId": 2134431,
      "countryCode": "VU",
      "stateCode": "VU-MAP",
      "latitude": -16.35,
      "longitude": 168.28333
    },
    {
      "id": 2134553,
      "name": "Tobol",
      "nativeName": "Tobol",
      "code": "VU-MAP-2134553",
      "countryId": 2134431,
      "countryCode": "VU",
      "stateCode": "VU-MAP",
      "latitude": -16.11667,
      "longitude": 168.15
    },
    {
      "id": 2134537,
      "name": "Tomboul",
      "nativeName": "Tomboul",
      "code": "VU-MAP-2134537",
      "countryId": 2134431,
      "countryCode": "VU",
      "stateCode": "VU-MAP",
      "latitude": -16,
      "longitude": 167.33333
    },
    {
      "id": 2134526,
      "name": "Toou",
      "nativeName": "Toou",
      "code": "VU-MAP-2134526",
      "countryId": 2134431,
      "countryCode": "VU",
      "stateCode": "VU-MAP",
      "latitude": -16.23333,
      "longitude": 167.95
    },
    {
      "id": 2134608,
      "name": "Tématou",
      "nativeName": "Tématou",
      "code": "VU-MAP-2134608",
      "countryId": 2134431,
      "countryCode": "VU",
      "stateCode": "VU-MAP",
      "latitude": -16.48333,
      "longitude": 168.31667
    },
    {
      "id": 2134586,
      "name": "Tétavalé",
      "nativeName": "Tétavalé",
      "code": "VU-MAP-2134586",
      "countryId": 2134431,
      "countryCode": "VU",
      "stateCode": "VU-MAP",
      "latitude": -16.36667,
      "longitude": 168.23333
    },
    {
      "id": 2135436,
      "name": "Ulei",
      "nativeName": "Ulei",
      "code": "VU-MAP-2135436",
      "countryId": 2134431,
      "countryCode": "VU",
      "stateCode": "VU-MAP",
      "latitude": -16.33333,
      "longitude": 168.28333
    },
    {
      "id": 2134267,
      "name": "Wakon",
      "nativeName": "Wakon",
      "code": "VU-MAP-2134267",
      "countryId": 2134431,
      "countryCode": "VU",
      "stateCode": "VU-MAP",
      "latitude": -16.23333,
      "longitude": 167.91667
    },
    {
      "id": 2134257,
      "name": "Wall",
      "nativeName": "Wall",
      "code": "VU-MAP-2134257",
      "countryId": 2134431,
      "countryCode": "VU",
      "stateCode": "VU-MAP",
      "latitude": -16,
      "longitude": 167.18333
    },
    {
      "id": 2134272,
      "name": "Waïlep",
      "nativeName": "Waïlep",
      "code": "VU-MAP-2134272",
      "countryId": 2134431,
      "countryCode": "VU",
      "stateCode": "VU-MAP",
      "latitude": -16.5,
      "longitude": 168.21667
    },
    {
      "id": 2134180,
      "name": "Wihel",
      "nativeName": "Wihel",
      "code": "VU-MAP-2134180",
      "countryId": 2134431,
      "countryCode": "VU",
      "stateCode": "VU-MAP",
      "latitude": -16.15,
      "longitude": 167.2
    },
    {
      "id": 2134176,
      "name": "Wilir",
      "nativeName": "Wilir",
      "code": "VU-MAP-2134176",
      "countryId": 2134431,
      "countryCode": "VU",
      "stateCode": "VU-MAP",
      "latitude": -16.1,
      "longitude": 167.16667
    },
    {
      "id": 2134174,
      "name": "Wilit",
      "nativeName": "Wilit",
      "code": "VU-MAP-2134174",
      "countryId": 2134431,
      "countryCode": "VU",
      "stateCode": "VU-MAP",
      "latitude": -16.13333,
      "longitude": 168.18333
    },
    {
      "id": 2134172,
      "name": "Wilmèt",
      "nativeName": "Wilmèt",
      "code": "VU-MAP-2134172",
      "countryId": 2134431,
      "countryCode": "VU",
      "stateCode": "VU-MAP",
      "latitude": -16.05,
      "longitude": 167.2
    },
    {
      "id": 2134167,
      "name": "Win",
      "nativeName": "Win",
      "code": "VU-MAP-2134167",
      "countryId": 2134431,
      "countryCode": "VU",
      "stateCode": "VU-MAP",
      "latitude": -16.08333,
      "longitude": 167.15
    },
    {
      "id": 2134157,
      "name": "Wintua",
      "nativeName": "Wintua",
      "code": "VU-MAP-2134157",
      "countryId": 2134431,
      "countryCode": "VU",
      "stateCode": "VU-MAP",
      "latitude": -16.48111,
      "longitude": 167.4461
    },
    {
      "id": 2134155,
      "name": "Witaba",
      "nativeName": "Witaba",
      "code": "VU-MAP-2134155",
      "countryId": 2134431,
      "countryCode": "VU",
      "stateCode": "VU-MAP",
      "latitude": -16.55,
      "longitude": 167.43333
    },
    {
      "id": 2134138,
      "name": "Woo",
      "nativeName": "Woo",
      "code": "VU-MAP-2134138",
      "countryId": 2134431,
      "countryCode": "VU",
      "stateCode": "VU-MAP",
      "latitude": -16.11667,
      "longitude": 168.15
    },
    {
      "id": 2134126,
      "name": "Worlembraki",
      "nativeName": "Worlembraki",
      "code": "VU-MAP-2134126",
      "countryId": 2134431,
      "countryCode": "VU",
      "stateCode": "VU-MAP",
      "latitude": -16,
      "longitude": 167.36667
    },
    {
      "id": 2134125,
      "name": "Worlissliss",
      "nativeName": "Worlissliss",
      "code": "VU-MAP-2134125",
      "countryId": 2134431,
      "countryCode": "VU",
      "stateCode": "VU-MAP",
      "latitude": -16.51667,
      "longitude": 167.43333
    },
    {
      "id": 2134120,
      "name": "Wornambek",
      "nativeName": "Wornambek",
      "code": "VU-MAP-2134120",
      "countryId": 2134431,
      "countryCode": "VU",
      "stateCode": "VU-MAP",
      "latitude": -16.01667,
      "longitude": 167.16667
    },
    {
      "id": 2134118,
      "name": "Wortatcha",
      "nativeName": "Wortatcha",
      "code": "VU-MAP-2134118",
      "countryId": 2134431,
      "countryCode": "VU",
      "stateCode": "VU-MAP",
      "latitude": -15.98333,
      "longitude": 167.36667
    },
    {
      "id": 2134111,
      "name": "Woulélé",
      "nativeName": "Woulélé",
      "code": "VU-MAP-2134111",
      "countryId": 2134431,
      "countryCode": "VU",
      "stateCode": "VU-MAP",
      "latitude": -16.23333,
      "longitude": 167.55
    },
    {
      "id": 2134104,
      "name": "Wounaout",
      "nativeName": "Wounaout",
      "code": "VU-MAP-2134104",
      "countryId": 2134431,
      "countryCode": "VU",
      "stateCode": "VU-MAP",
      "latitude": -15.95,
      "longitude": 167.31667
    },
    {
      "id": 2134073,
      "name": "Wowo",
      "nativeName": "Wowo",
      "code": "VU-MAP-2134073",
      "countryId": 2134431,
      "countryCode": "VU",
      "stateCode": "VU-MAP",
      "latitude": -15.88333,
      "longitude": 167.2
    },
    {
      "id": 2134067,
      "name": "Wuro",
      "nativeName": "Wuro",
      "code": "VU-MAP-2134067",
      "countryId": 2134431,
      "countryCode": "VU",
      "stateCode": "VU-MAP",
      "latitude": -16.26626,
      "longitude": 167.92324
    },
    {
      "id": 2134033,
      "name": "Yélowouwou",
      "nativeName": "Yélowouwou",
      "code": "VU-MAP-2134033",
      "countryId": 2134431,
      "countryCode": "VU",
      "stateCode": "VU-MAP",
      "latitude": -16.28333,
      "longitude": 167.96667
    },
    {
      "id": 2134035,
      "name": "Yéléwar",
      "nativeName": "Yéléwar",
      "code": "VU-MAP-2134035",
      "countryId": 2134431,
      "countryCode": "VU",
      "stateCode": "VU-MAP",
      "latitude": -16.28333,
      "longitude": 167.15
    },
    {
      "id": 2134030,
      "name": "Yéno",
      "nativeName": "Yéno",
      "code": "VU-MAP-2134030",
      "countryId": 2134431,
      "countryCode": "VU",
      "stateCode": "VU-MAP",
      "latitude": -16.25,
      "longitude": 167.98333
    },
    {
      "id": 8521602,
      "name": "Craig Cove",
      "nativeName": "Craig Cove",
      "code": "VU-MAP-8521602",
      "countryId": 2134431,
      "countryCode": "VU",
      "stateCode": "VU-MAP",
      "latitude": -16.25823,
      "longitude": 167.92139
    }
  ]
}