{
  "stateId": 426271,
  "stateCode": "BI-GI",
  "countryCode": "BI",
  "cities": [
    {
      "id": 7670933,
      "name": "Bugendana",
      "nativeName": "Bugendana",
      "code": "BI-GI-7670933",
      "countryId": 433561,
      "countryCode": "BI",
      "stateCode": "BI-GI",
      "latitude": -3.252,
      "longitude": 29.947
    },
    {
      "id": 9171845,
      "name": "Bukirasazi",
      "nativeName": "Bukirasazi",
      "code": "BI-GI-9171845",
      "countryId": 433561,
      "countryCode": "BI",
      "stateCode": "BI-GI",
      "latitude": -3.70177,
      "longitude": 29.96675
    },
    {
      "id": 7670589,
      "name": "Buraza",
      "nativeName": "Buraza",
      "code": "BI-GI-7670589",
      "countryId": 433561,
      "countryCode": "BI",
      "stateCode": "BI-GI",
      "latitude": -3.75753,
      "longitude": 29.91198
    },
    {
      "id": 8692994,
      "name": "Commune of Itaba",
      "nativeName": "Commune of Itaba",
      "code": "BI-GI-8692994",
      "countryId": 433561,
      "countryCode": "BI",
      "stateCode": "BI-GI",
      "latitude": -3.65434,
      "longitude": 30.01501
    },
    {
      "id": 7670931,
      "name": "Giheta",
      "nativeName": "Giheta",
      "code": "BI-GI-7670931",
      "countryId": 433561,
      "countryCode": "BI",
      "stateCode": "BI-GI",
      "latitude": -3.341,
      "longitude": 29.891
    },
    {
      "id": 9171843,
      "name": "Gishubi",
      "nativeName": "Gishubi",
      "code": "BI-GI-9171843",
      "countryId": 433561,
      "countryCode": "BI",
      "stateCode": "BI-GI",
      "latitude": -3.6153,
      "longitude": 29.89018
    },
    {
      "id": 7670597,
      "name": "Gitega",
      "nativeName": "Gitega",
      "code": "BI-GI-7670597",
      "countryId": 433561,
      "countryCode": "BI",
      "stateCode": "BI-GI",
      "latitude": -3.43813,
      "longitude": 29.95481
    },
    {
      "id": 424739,
      "name": "Makebuko",
      "nativeName": "Makebuko",
      "code": "BI-GI-424739",
      "countryId": 433561,
      "countryCode": "BI",
      "stateCode": "BI-GI",
      "latitude": -3.59667,
      "longitude": 30.00194
    },
    {
      "id": 7670823,
      "name": "Mutaho",
      "nativeName": "Mutaho",
      "code": "BI-GI-7670823",
      "countryId": 433561,
      "countryCode": "BI",
      "stateCode": "BI-GI",
      "latitude": -3.14405,
      "longitude": 29.87012
    },
    {
      "id": 9171842,
      "name": "Nyarusange",
      "nativeName": "Nyarusange",
      "code": "BI-GI-9171842",
      "countryId": 433561,
      "countryCode": "BI",
      "stateCode": "BI-GI",
      "latitude": -3.56808,
      "longitude": 29.83019
    },
    {
      "id": 7874080,
      "name": "Ryansoro",
      "nativeName": "Ryansoro",
      "code": "BI-GI-7874080",
      "countryId": 433561,
      "countryCode": "BI",
      "stateCode": "BI-GI",
      "latitude": -3.72291,
      "longitude": 29.79829
    }
  ]
}