{
  "stateId": 858787,
  "stateCode": "PL-14",
  "countryCode": "PL",
  "cities": [
    {
      "id": 7530923,
      "name": "Białobrzegi County",
      "nativeName": "Powiat białobrzeski",
      "code": "PL-14-7530923",
      "countryId": 798544,
      "countryCode": "PL",
      "stateCode": "PL-14",
      "latitude": 51.62102,
      "longitude": 20.94328
    },
    {
      "id": 7530924,
      "name": "Ciechanów County",
      "nativeName": "Powiat ciechanowski",
      "code": "PL-14-7530924",
      "countryId": 798544,
      "countryCode": "PL",
      "stateCode": "PL-14",
      "latitude": 52.90207,
      "longitude": 20.57631
    },
    {
      "id": 7531031,
      "name": "Garwolin County",
      "nativeName": "Powiat garwoliński",
      "code": "PL-14-7531031",
      "countryId": 798544,
      "countryCode": "PL",
      "stateCode": "PL-14",
      "latitude": 51.82657,
      "longitude": 21.61615
    },
    {
      "id": 7530928,
      "name": "Gostynin County",
      "nativeName": "Powiat gostyniński",
      "code": "PL-14-7530928",
      "countryId": 798544,
      "countryCode": "PL",
      "stateCode": "PL-14",
      "latitude": 52.38988,
      "longitude": 19.62187
    },
    {
      "id": 7530925,
      "name": "Grodzisk Mazowiecki County",
      "nativeName": "Powiat grodziski",
      "code": "PL-14-7530925",
      "countryId": 798544,
      "countryCode": "PL",
      "stateCode": "PL-14",
      "latitude": 52.06391,
      "longitude": 20.59408
    },
    {
      "id": 7530757,
      "name": "Grójec County",
      "nativeName": "Powiat grójecki",
      "code": "PL-14-7530757",
      "countryId": 798544,
      "countryCode": "PL",
      "stateCode": "PL-14",
      "latitude": 51.75742,
      "longitude": 20.83661
    },
    {
      "id": 7530747,
      "name": "Kozienice County",
      "nativeName": "Powiat kozienicki",
      "code": "PL-14-7530747",
      "countryId": 798544,
      "countryCode": "PL",
      "stateCode": "PL-14",
      "latitude": 51.63946,
      "longitude": 21.4958
    },
    {
      "id": 7530926,
      "name": "Legionowo County",
      "nativeName": "Powiat legionowski",
      "code": "PL-14-7530926",
      "countryId": 798544,
      "countryCode": "PL",
      "stateCode": "PL-14",
      "latitude": 52.45179,
      "longitude": 20.94356
    },
    {
      "id": 7530891,
      "name": "Lipsko County",
      "nativeName": "Powiat lipski",
      "code": "PL-14-7530891",
      "countryId": 798544,
      "countryCode": "PL",
      "stateCode": "PL-14",
      "latitude": 51.15879,
      "longitude": 21.56753
    },
    {
      "id": 7530875,
      "name": "Maków County",
      "nativeName": "Powiat makowski",
      "code": "PL-14-7530875",
      "countryId": 798544,
      "countryCode": "PL",
      "stateCode": "PL-14",
      "latitude": 52.9477,
      "longitude": 21.1795
    },
    {
      "id": 7530877,
      "name": "Mińsk County",
      "nativeName": "Powiat miński",
      "code": "PL-14-7530877",
      "countryId": 798544,
      "countryCode": "PL",
      "stateCode": "PL-14",
      "latitude": 52.18429,
      "longitude": 21.60893
    },
    {
      "id": 7530880,
      "name": "Mława County",
      "nativeName": "Powiat mławski",
      "code": "PL-14-7530880",
      "countryId": 798544,
      "countryCode": "PL",
      "stateCode": "PL-14",
      "latitude": 53.05496,
      "longitude": 20.37708
    },
    {
      "id": 7530879,
      "name": "Nowy Dwór County",
      "nativeName": "Powiat nowodworski",
      "code": "PL-14-7530879",
      "countryId": 798544,
      "countryCode": "PL",
      "stateCode": "PL-14",
      "latitude": 52.46585,
      "longitude": 20.66405
    },
    {
      "id": 7530974,
      "name": "Ostrołęka",
      "nativeName": "Ostrołęka",
      "code": "PL-14-7530974",
      "countryId": 798544,
      "countryCode": "PL",
      "stateCode": "PL-14",
      "latitude": 53.07785,
      "longitude": 21.58906
    },
    {
      "id": 7530881,
      "name": "Ostrołęka County",
      "nativeName": "Powiat ostrołęcki",
      "code": "PL-14-7530881",
      "countryId": 798544,
      "countryCode": "PL",
      "stateCode": "PL-14",
      "latitude": 53.14001,
      "longitude": 21.50699
    },
    {
      "id": 7530882,
      "name": "Ostrów County",
      "nativeName": "Powiat ostrowski",
      "code": "PL-14-7530882",
      "countryId": 798544,
      "countryCode": "PL",
      "stateCode": "PL-14",
      "latitude": 52.79495,
      "longitude": 22.0325
    },
    {
      "id": 7530883,
      "name": "Otwock County",
      "nativeName": "Powiat otwocki",
      "code": "PL-14-7530883",
      "countryId": 798544,
      "countryCode": "PL",
      "stateCode": "PL-14",
      "latitude": 52.04898,
      "longitude": 21.37251
    },
    {
      "id": 7530876,
      "name": "Piaseczno County",
      "nativeName": "Powiat piaseczyński",
      "code": "PL-14-7530876",
      "countryId": 798544,
      "countryCode": "PL",
      "stateCode": "PL-14",
      "latitude": 52.01634,
      "longitude": 20.98319
    },
    {
      "id": 7530885,
      "name": "Pruszków County",
      "nativeName": "Powiat pruszkowski",
      "code": "PL-14-7530885",
      "countryId": 798544,
      "countryCode": "PL",
      "stateCode": "PL-14",
      "latitude": 52.10088,
      "longitude": 20.80992
    },
    {
      "id": 7530886,
      "name": "Przasnysz County",
      "nativeName": "Powiat przasnyski",
      "code": "PL-14-7530886",
      "countryId": 798544,
      "countryCode": "PL",
      "stateCode": "PL-14",
      "latitude": 53.1136,
      "longitude": 20.9394
    },
    {
      "id": 7530758,
      "name": "Przysucha County",
      "nativeName": "Powiat przysuski",
      "code": "PL-14-7530758",
      "countryId": 798544,
      "countryCode": "PL",
      "stateCode": "PL-14",
      "latitude": 51.42366,
      "longitude": 20.65098
    },
    {
      "id": 7530887,
      "name": "Pułtusk County",
      "nativeName": "Powiat pułtuski",
      "code": "PL-14-7530887",
      "countryId": 798544,
      "countryCode": "PL",
      "stateCode": "PL-14",
      "latitude": 52.67207,
      "longitude": 21.02401
    },
    {
      "id": 7530939,
      "name": "Płock",
      "nativeName": "Płock",
      "code": "PL-14-7530939",
      "countryId": 798544,
      "countryCode": "PL",
      "stateCode": "PL-14",
      "latitude": 52.53542,
      "longitude": 19.71497
    },
    {
      "id": 7530890,
      "name": "Płock County",
      "nativeName": "Powiat płocki",
      "code": "PL-14-7530890",
      "countryId": 798544,
      "countryCode": "PL",
      "stateCode": "PL-14",
      "latitude": 52.55465,
      "longitude": 19.7857
    },
    {
      "id": 7530884,
      "name": "Płońsk County",
      "nativeName": "Powiat płoński",
      "code": "PL-14-7530884",
      "countryId": 798544,
      "countryCode": "PL",
      "stateCode": "PL-14",
      "latitude": 52.63894,
      "longitude": 20.3471
    },
    {
      "id": 7530982,
      "name": "Radom",
      "nativeName": "Radom",
      "code": "PL-14-7530982",
      "countryId": 798544,
      "countryCode": "PL",
      "stateCode": "PL-14",
      "latitude": 51.41724,
      "longitude": 21.15613
    },
    {
      "id": 7530878,
      "name": "Radom County",
      "nativeName": "Powiat Radomski",
      "code": "PL-14-7530878",
      "countryId": 798544,
      "countryCode": "PL",
      "stateCode": "PL-14",
      "latitude": 51.33582,
      "longitude": 21.16193
    },
    {
      "id": 7530940,
      "name": "Siedlce",
      "nativeName": "Siedlce",
      "code": "PL-14-7530940",
      "countryId": 798544,
      "countryCode": "PL",
      "stateCode": "PL-14",
      "latitude": 52.16175,
      "longitude": 22.27575
    },
    {
      "id": 7530893,
      "name": "Siedlce County",
      "nativeName": "Powiat siedlecki",
      "code": "PL-14-7530893",
      "countryId": 798544,
      "countryCode": "PL",
      "stateCode": "PL-14",
      "latitude": 52.19186,
      "longitude": 22.30406
    },
    {
      "id": 7530929,
      "name": "Sierpc County",
      "nativeName": "Powiat sierpecki",
      "code": "PL-14-7530929",
      "countryId": 798544,
      "countryCode": "PL",
      "stateCode": "PL-14",
      "latitude": 52.83353,
      "longitude": 19.71216
    },
    {
      "id": 7530759,
      "name": "Sochaczew County",
      "nativeName": "Powiat sochaczewski",
      "code": "PL-14-7530759",
      "countryId": 798544,
      "countryCode": "PL",
      "stateCode": "PL-14",
      "latitude": 52.26689,
      "longitude": 20.21338
    },
    {
      "id": 7530888,
      "name": "Sokołów County",
      "nativeName": "Powiat sokołowski",
      "code": "PL-14-7530888",
      "countryId": 798544,
      "countryCode": "PL",
      "stateCode": "PL-14",
      "latitude": 52.49538,
      "longitude": 22.26897
    },
    {
      "id": 7530889,
      "name": "Szydłowiec County",
      "nativeName": "Powiat szydłowiecki",
      "code": "PL-14-7530889",
      "countryId": 798544,
      "countryCode": "PL",
      "stateCode": "PL-14",
      "latitude": 51.256,
      "longitude": 20.84256
    },
    {
      "id": 7531029,
      "name": "Warsaw West County",
      "nativeName": "Powiat warszawski zachodni",
      "code": "PL-14-7531029",
      "countryId": 798544,
      "countryCode": "PL",
      "stateCode": "PL-14",
      "latitude": 52.26838,
      "longitude": 20.61913
    },
    {
      "id": 6695624,
      "name": "Warszawa",
      "nativeName": "Warszawa",
      "code": "PL-14-6695624",
      "countryId": 798544,
      "countryCode": "PL",
      "stateCode": "PL-14",
      "latitude": 52.23547,
      "longitude": 21.04191
    },
    {
      "id": 7530751,
      "name": "Wołomin County",
      "nativeName": "Powiat wołomiński",
      "code": "PL-14-7530751",
      "countryId": 798544,
      "countryCode": "PL",
      "stateCode": "PL-14",
      "latitude": 52.40616,
      "longitude": 21.40121
    },
    {
      "id": 7530752,
      "name": "Wyszków County",
      "nativeName": "Powiat wyszkowski",
      "code": "PL-14-7530752",
      "countryId": 798544,
      "countryCode": "PL",
      "stateCode": "PL-14",
      "latitude": 52.65137,
      "longitude": 21.44537
    },
    {
      "id": 7530750,
      "name": "Węgrów County",
      "nativeName": "Powiat węgrowski",
      "code": "PL-14-7530750",
      "countryId": 798544,
      "countryCode": "PL",
      "stateCode": "PL-14",
      "latitude": 52.45628,
      "longitude": 21.87342
    },
    {
      "id": 7530894,
      "name": "Zwoleń County",
      "nativeName": "Powiat zwoleński",
      "code": "PL-14-7530894",
      "countryId": 798544,
      "countryCode": "PL",
      "stateCode": "PL-14",
      "latitude": 51.36079,
      "longitude": 21.59279
    },
    {
      "id": 7530892,
      "name": "Łosice County",
      "nativeName": "Powiat łosicki",
      "code": "PL-14-7530892",
      "countryId": 798544,
      "countryCode": "PL",
      "stateCode": "PL-14",
      "latitude": 52.22363,
      "longitude": 22.8451
    },
    {
      "id": 7530930,
      "name": "Żuromin County",
      "nativeName": "Powiat żuromiński",
      "code": "PL-14-7530930",
      "countryId": 798544,
      "countryCode": "PL",
      "stateCode": "PL-14",
      "latitude": 53.01658,
      "longitude": 19.89102
    },
    {
      "id": 7530760,
      "name": "Żyrardów County",
      "nativeName": "Powiat żyrardowski",
      "code": "PL-14-7530760",
      "countryId": 798544,
      "countryCode": "PL",
      "stateCode": "PL-14",
      "latitude": 52.00028,
      "longitude": 20.43275
    }
  ]
}