{
  "countryId": 798544,
  "countryCode": "PL",
  "states": [
    {
      "id": 3337498,
      "name": "Greater Poland",
      "nativeName": "Greater Poland Voivodeship",
      "code": "PL-30",
      "internalCode": "30",
      "countryId": 798544,
      "countryCode": "PL",
      "latitude": 52.3,
      "longitude": 17.2
    },
    {
      "id": 3337500,
      "name": "Kuyavian-Pomeranian",
      "nativeName": "Kuyavian-Pomeranian Voivodeship",
      "code": "PL-04",
      "internalCode": "04",
      "countryId": 798544,
      "countryCode": "PL",
      "latitude": 53.08333,
      "longitude": 18.5
    },
    {
      "id": 858786,
      "name": "Lesser Poland",
      "nativeName": "Lesser Poland Voivodeship",
      "code": "PL-12",
      "internalCode": "12",
      "countryId": 798544,
      "countryCode": "PL",
      "latitude": 49.86667,
      "longitude": 20.26667
    },
    {
      "id": 3337492,
      "name": "Lower Silesia",
      "nativeName": "Lower Silesian Voivodeship",
      "code": "PL-02",
      "internalCode": "02",
      "countryId": 798544,
      "countryCode": "PL",
      "latitude": 51.1,
      "longitude": 16.43333
    },
    {
      "id": 858785,
      "name": "Lublin",
      "nativeName": "Lublin Voivodeship",
      "code": "PL-06",
      "internalCode": "06",
      "countryId": 798544,
      "countryCode": "PL",
      "latitude": 51.23333,
      "longitude": 22.9
    },
    {
      "id": 3337494,
      "name": "Lubusz",
      "nativeName": "Lubusz Voivodeship",
      "code": "PL-08",
      "internalCode": "08",
      "countryId": 798544,
      "countryCode": "PL",
      "latitude": 52.2,
      "longitude": 15.33333
    },
    {
      "id": 858787,
      "name": "Masovian",
      "nativeName": "Masovian Voivodeship",
      "code": "PL-14",
      "internalCode": "14",
      "countryId": 798544,
      "countryCode": "PL",
      "latitude": 52.36667,
      "longitude": 21.1
    },
    {
      "id": 3337495,
      "name": "Opole Voivodeship",
      "nativeName": "Opole Voivodeship",
      "code": "PL-16",
      "internalCode": "16",
      "countryId": 798544,
      "countryCode": "PL",
      "latitude": 50.66667,
      "longitude": 17.9
    },
    {
      "id": 858789,
      "name": "Podlasie",
      "nativeName": "Podlaskie Voivodeship",
      "code": "PL-20",
      "internalCode": "20",
      "countryId": 798544,
      "countryCode": "PL",
      "latitude": 53.25,
      "longitude": 23
    },
    {
      "id": 3337496,
      "name": "Pomerania",
      "nativeName": "Pomeranian Voivodeship",
      "code": "PL-22",
      "internalCode": "22",
      "countryId": 798544,
      "countryCode": "PL",
      "latitude": 54.25,
      "longitude": 18
    },
    {
      "id": 3337497,
      "name": "Silesia",
      "nativeName": "Silesian Voivodeship",
      "code": "PL-24",
      "internalCode": "24",
      "countryId": 798544,
      "countryCode": "PL",
      "latitude": 50.33333,
      "longitude": 18.93333
    },
    {
      "id": 858788,
      "name": "Subcarpathia",
      "nativeName": "Podkarpackie Voivodeship",
      "code": "PL-18",
      "internalCode": "18",
      "countryId": 798544,
      "countryCode": "PL",
      "latitude": 50,
      "longitude": 22.16667
    },
    {
      "id": 858791,
      "name": "Warmia-Masuria",
      "nativeName": "Warmian-Masurian Voivodeship",
      "code": "PL-28",
      "internalCode": "28",
      "countryId": 798544,
      "countryCode": "PL",
      "latitude": 53.83333,
      "longitude": 20.83333
    },
    {
      "id": 3337499,
      "name": "West Pomerania",
      "nativeName": "West Pomeranian Voivodeship",
      "code": "PL-32",
      "internalCode": "32",
      "countryId": 798544,
      "countryCode": "PL",
      "latitude": 53.58333,
      "longitude": 15.58333
    },
    {
      "id": 3337493,
      "name": "Łódź Voivodeship",
      "nativeName": "Łódź Voivodeship",
      "code": "PL-10",
      "internalCode": "10",
      "countryId": 798544,
      "countryCode": "PL",
      "latitude": 51.6,
      "longitude": 19.43333
    },
    {
      "id": 858790,
      "name": "Świętokrzyskie",
      "nativeName": "Świętokrzyskie Voivodeship",
      "code": "PL-26",
      "internalCode": "26",
      "countryId": 798544,
      "countryCode": "PL",
      "latitude": 50.75,
      "longitude": 20.75
    }
  ]
}