{
  "stateId": 3606066,
  "stateCode": "HN-LE",
  "countryCode": "HN",
  "cities": [
    {
      "id": 3614802,
      "name": "Belén",
      "nativeName": "Belén",
      "code": "HN-LE-3614802",
      "countryId": 3608932,
      "countryCode": "HN",
      "stateCode": "HN-LE",
      "latitude": 14.50834,
      "longitude": -88.42819
    },
    {
      "id": 3614239,
      "name": "Candelaria",
      "nativeName": "Candelaria",
      "code": "HN-LE-3614239",
      "countryId": 3608932,
      "countryCode": "HN",
      "stateCode": "HN-LE",
      "latitude": 14.06072,
      "longitude": -88.55913
    },
    {
      "id": 3613372,
      "name": "Cololaca",
      "nativeName": "Cololaca",
      "code": "HN-LE-3613372",
      "countryId": 3608932,
      "countryCode": "HN",
      "stateCode": "HN-LE",
      "latitude": 14.31189,
      "longitude": -88.8772
    },
    {
      "id": 3609776,
      "name": "Erandique",
      "nativeName": "Erandique",
      "code": "HN-LE-3609776",
      "countryId": 3608932,
      "countryCode": "HN",
      "stateCode": "HN-LE",
      "latitude": 14.23043,
      "longitude": -88.46044
    },
    {
      "id": 3609587,
      "name": "Gracias",
      "nativeName": "Gracias",
      "code": "HN-LE-3609587",
      "countryId": 3608932,
      "countryCode": "HN",
      "stateCode": "HN-LE",
      "latitude": 14.60749,
      "longitude": -88.61554
    },
    {
      "id": 3609371,
      "name": "Gualcince",
      "nativeName": "Gualcince",
      "code": "HN-LE-3609371",
      "countryId": 3608932,
      "countryCode": "HN",
      "stateCode": "HN-LE",
      "latitude": 14.12869,
      "longitude": -88.56812
    },
    {
      "id": 3609234,
      "name": "Guarita",
      "nativeName": "Guarita",
      "code": "HN-LE-3609234",
      "countryId": 3608932,
      "countryCode": "HN",
      "stateCode": "HN-LE",
      "latitude": 14.20784,
      "longitude": -88.85161
    },
    {
      "id": 3608337,
      "name": "La Campa",
      "nativeName": "La Campa",
      "code": "HN-LE-3608337",
      "countryId": 3608932,
      "countryCode": "HN",
      "stateCode": "HN-LE",
      "latitude": 14.4728,
      "longitude": -88.5609
    },
    {
      "id": 3607729,
      "name": "La Iguala",
      "nativeName": "La Iguala",
      "code": "HN-LE-3607729",
      "countryId": 3608932,
      "countryCode": "HN",
      "stateCode": "HN-LE",
      "latitude": 14.66441,
      "longitude": -88.4636
    },
    {
      "id": 3606178,
      "name": "La Unión",
      "nativeName": "La Unión",
      "code": "HN-LE-3606178",
      "countryId": 3608932,
      "countryCode": "HN",
      "stateCode": "HN-LE",
      "latitude": 14.79931,
      "longitude": -88.42446
    },
    {
      "id": 3606098,
      "name": "La Virtud",
      "nativeName": "La Virtud",
      "code": "HN-LE-3606098",
      "countryId": 3608932,
      "countryCode": "HN",
      "stateCode": "HN-LE",
      "latitude": 14.07156,
      "longitude": -88.68584
    },
    {
      "id": 3606787,
      "name": "Las Flores",
      "nativeName": "Las Flores",
      "code": "HN-LE-3606787",
      "countryId": 3608932,
      "countryCode": "HN",
      "stateCode": "HN-LE",
      "latitude": 14.6793,
      "longitude": -88.6504
    },
    {
      "id": 3606049,
      "name": "Lepaera",
      "nativeName": "Lepaera",
      "code": "HN-LE-3606049",
      "countryId": 3608932,
      "countryCode": "HN",
      "stateCode": "HN-LE",
      "latitude": 14.8149,
      "longitude": -88.5928
    },
    {
      "id": 3605032,
      "name": "Mapulaca",
      "nativeName": "Mapulaca",
      "code": "HN-LE-3605032",
      "countryId": 3608932,
      "countryCode": "HN",
      "stateCode": "HN-LE",
      "latitude": 14.04293,
      "longitude": -88.6244
    },
    {
      "id": 3603605,
      "name": "Piraera",
      "nativeName": "Piraera",
      "code": "HN-LE-3603605",
      "countryId": 3608932,
      "countryCode": "HN",
      "stateCode": "HN-LE",
      "latitude": 14.06261,
      "longitude": -88.46319
    },
    {
      "id": 3602538,
      "name": "San Andrés",
      "nativeName": "San Andrés",
      "code": "HN-LE-3602538",
      "countryId": 3608932,
      "countryCode": "HN",
      "stateCode": "HN-LE",
      "latitude": 14.21968,
      "longitude": -88.54981
    },
    {
      "id": 3602333,
      "name": "San Francisco",
      "nativeName": "San Francisco",
      "code": "HN-LE-3602333",
      "countryId": 3608932,
      "countryCode": "HN",
      "stateCode": "HN-LE",
      "latitude": 14.12435,
      "longitude": -88.37189
    },
    {
      "id": 3601990,
      "name": "San Juan Guarita",
      "nativeName": "San Juan Guarita",
      "code": "HN-LE-3601990",
      "countryId": 3608932,
      "countryCode": "HN",
      "stateCode": "HN-LE",
      "latitude": 14.15492,
      "longitude": -88.77477
    },
    {
      "id": 3601920,
      "name": "San Manuel Colohete",
      "nativeName": "San Manuel Colohete",
      "code": "HN-LE-3601920",
      "countryId": 3608932,
      "countryCode": "HN",
      "stateCode": "HN-LE",
      "latitude": 14.44435,
      "longitude": -88.6705
    },
    {
      "id": 8062433,
      "name": "San Marcos de Caiquin",
      "nativeName": "San Marcos de Caiquin",
      "code": "HN-LE-8062433",
      "countryId": 3608932,
      "countryCode": "HN",
      "stateCode": "HN-LE",
      "latitude": 14.41614,
      "longitude": -88.60126
    },
    {
      "id": 3601778,
      "name": "San Rafael",
      "nativeName": "San Rafael",
      "code": "HN-LE-3601778",
      "countryId": 3608932,
      "countryCode": "HN",
      "stateCode": "HN-LE",
      "latitude": 14.73333,
      "longitude": -88.41667
    },
    {
      "id": 3601741,
      "name": "San Sebastián",
      "nativeName": "San Sebastián",
      "code": "HN-LE-3601741",
      "countryId": 3608932,
      "countryCode": "HN",
      "stateCode": "HN-LE",
      "latitude": 14.34594,
      "longitude": -88.73487
    },
    {
      "id": 3601674,
      "name": "Santa Cruz",
      "nativeName": "Santa Cruz",
      "code": "HN-LE-3601674",
      "countryId": 3608932,
      "countryCode": "HN",
      "stateCode": "HN-LE",
      "latitude": 14.34427,
      "longitude": -88.52684
    },
    {
      "id": 3601064,
      "name": "Talgua",
      "nativeName": "Talgua",
      "code": "HN-LE-3601064",
      "countryId": 3608932,
      "countryCode": "HN",
      "stateCode": "HN-LE",
      "latitude": 14.6811,
      "longitude": -88.728
    },
    {
      "id": 3601031,
      "name": "Tambla",
      "nativeName": "Tambla",
      "code": "HN-LE-3601031",
      "countryId": 3608932,
      "countryCode": "HN",
      "stateCode": "HN-LE",
      "latitude": 14.21276,
      "longitude": -88.76768
    },
    {
      "id": 3600687,
      "name": "Tomalá",
      "nativeName": "Tomalá",
      "code": "HN-LE-3600687",
      "countryId": 3608932,
      "countryCode": "HN",
      "stateCode": "HN-LE",
      "latitude": 14.2433,
      "longitude": -88.7314
    },
    {
      "id": 3600459,
      "name": "Valladolid",
      "nativeName": "Valladolid",
      "code": "HN-LE-3600459",
      "countryId": 3608932,
      "countryCode": "HN",
      "stateCode": "HN-LE",
      "latitude": 14.1471,
      "longitude": -88.7084
    },
    {
      "id": 3600316,
      "name": "Virginia",
      "nativeName": "Virginia",
      "code": "HN-LE-3600316",
      "countryId": 3608932,
      "countryCode": "HN",
      "stateCode": "HN-LE",
      "latitude": 14.00522,
      "longitude": -88.56193
    }
  ]
}