{
  "stateId": 389462,
  "stateCode": "QA-MS",
  "countryCode": "QA",
  "cities": [
    {
      "id": 289739,
      "name": "Madīnat ash Shamāl",
      "nativeName": "Madīnat ash Shamāl",
      "code": "QA-MS-289739",
      "countryId": 289688,
      "countryCode": "QA",
      "stateCode": "QA-MS",
      "latitude": 26.12933,
      "longitude": 51.2009
    },
    {
      "id": 290056,
      "name": "Abū Z̧ulūf",
      "nativeName": "Abū Z̧ulūf",
      "code": "QA-MS-290056",
      "countryId": 289688,
      "countryCode": "QA",
      "stateCode": "QA-MS",
      "latitude": 26.12403,
      "longitude": 51.18151
    },
    {
      "id": 289995,
      "name": "Al Ghashshāmīyah",
      "nativeName": "Al Ghashshāmīyah",
      "code": "QA-MS-289995",
      "countryId": 289688,
      "countryCode": "QA",
      "stateCode": "QA-MS",
      "latitude": 25.98513,
      "longitude": 51.3283
    },
    {
      "id": 289997,
      "name": "Al Ghārīyah",
      "nativeName": "Al Ghārīyah",
      "code": "QA-MS-289997",
      "countryId": 289688,
      "countryCode": "QA",
      "stateCode": "QA-MS",
      "latitude": 26.07996,
      "longitude": 51.35745
    },
    {
      "id": 289977,
      "name": "Al Judhay‘",
      "nativeName": "Al Judhay‘",
      "code": "QA-MS-289977",
      "countryId": 289688,
      "countryCode": "QA",
      "stateCode": "QA-MS",
      "latitude": 25.95149,
      "longitude": 51.34767
    },
    {
      "id": 289958,
      "name": "Al Khīsah",
      "nativeName": "Al Khīsah",
      "code": "QA-MS-289958",
      "countryId": 289688,
      "countryCode": "QA",
      "stateCode": "QA-MS",
      "latitude": 25.92442,
      "longitude": 51.33994
    },
    {
      "id": 11207111,
      "name": "Al Marrūnah",
      "nativeName": "Al Marrūnah",
      "code": "QA-MS-11207111",
      "countryId": 289688,
      "countryCode": "QA",
      "stateCode": "QA-MS",
      "latitude": 25.99483,
      "longitude": 51.39892
    },
    {
      "id": 289934,
      "name": "Al Muraydah",
      "nativeName": "Al Muraydah",
      "code": "QA-MS-289934",
      "countryId": 289688,
      "countryCode": "QA",
      "stateCode": "QA-MS",
      "latitude": 25.93951,
      "longitude": 51.30957
    },
    {
      "id": 289973,
      "name": "Al Qa‘ābīyah",
      "nativeName": "Al Qa‘ābīyah",
      "code": "QA-MS-289973",
      "countryId": 289688,
      "countryCode": "QA",
      "stateCode": "QA-MS",
      "latitude": 26.06968,
      "longitude": 51.24531
    },
    {
      "id": 406674,
      "name": "Al Wa‘b",
      "nativeName": "Al Wa‘b",
      "code": "QA-MS-406674",
      "countryId": 289688,
      "countryCode": "QA",
      "stateCode": "QA-MS",
      "latitude": 26.11561,
      "longitude": 51.22603
    },
    {
      "id": 442527,
      "name": "Al Ḩuwaylah",
      "nativeName": "Al Ḩuwaylah",
      "code": "QA-MS-442527",
      "countryId": 289688,
      "countryCode": "QA",
      "stateCode": "QA-MS",
      "latitude": 25.94889,
      "longitude": 51.46511
    },
    {
      "id": 290014,
      "name": "Al ‘Arīsh",
      "nativeName": "Al ‘Arīsh",
      "code": "QA-MS-290014",
      "countryId": 289688,
      "countryCode": "QA",
      "stateCode": "QA-MS",
      "latitude": 26.05102,
      "longitude": 51.05689
    },
    {
      "id": 406686,
      "name": "Al ‘Aşmīyah",
      "nativeName": "Al ‘Aşmīyah",
      "code": "QA-MS-406686",
      "countryId": 289688,
      "countryCode": "QA",
      "stateCode": "QA-MS",
      "latitude": 26.07644,
      "longitude": 51.16564
    },
    {
      "id": 406721,
      "name": "Ar Rakīyāt",
      "nativeName": "Ar Rakīyāt",
      "code": "QA-MS-406721",
      "countryId": 289688,
      "countryCode": "QA",
      "stateCode": "QA-MS",
      "latitude": 26.05023,
      "longitude": 51.13041
    },
    {
      "id": 289884,
      "name": "Ar Ruways",
      "nativeName": "Ar Ruways",
      "code": "QA-MS-289884",
      "countryId": 289688,
      "countryCode": "QA",
      "stateCode": "QA-MS",
      "latitude": 26.13978,
      "longitude": 51.21493
    },
    {
      "id": 289857,
      "name": "Ath Thaqab",
      "nativeName": "Ath Thaqab",
      "code": "QA-MS-289857",
      "countryId": 289688,
      "countryCode": "QA",
      "stateCode": "QA-MS",
      "latitude": 26.03153,
      "longitude": 51.11512
    },
    {
      "id": 406683,
      "name": "Az Zighāb",
      "nativeName": "Az Zighāb",
      "code": "QA-MS-406683",
      "countryId": 289688,
      "countryCode": "QA",
      "stateCode": "QA-MS",
      "latitude": 26.10778,
      "longitude": 51.23965
    },
    {
      "id": 406787,
      "name": "Fuwayriţ",
      "nativeName": "Fuwayriţ",
      "code": "QA-MS-406787",
      "countryId": 289688,
      "countryCode": "QA",
      "stateCode": "QA-MS",
      "latitude": 26.02565,
      "longitude": 51.36971
    },
    {
      "id": 11208412,
      "name": "Fuwayriţ al Qadīm",
      "nativeName": "Fuwayriţ al Qadīm",
      "code": "QA-MS-11208412",
      "countryId": 289688,
      "countryCode": "QA",
      "stateCode": "QA-MS",
      "latitude": 26.03447,
      "longitude": 51.36717
    },
    {
      "id": 289741,
      "name": "Lishā",
      "nativeName": "Lishā",
      "code": "QA-MS-289741",
      "countryId": 289688,
      "countryCode": "QA",
      "stateCode": "QA-MS",
      "latitude": 25.95784,
      "longitude": 51.07163
    },
    {
      "id": 289869,
      "name": "Makīn al Fatīyah",
      "nativeName": "Makīn al Fatīyah",
      "code": "QA-MS-289869",
      "countryId": 289688,
      "countryCode": "QA",
      "stateCode": "QA-MS",
      "latitude": 26.03293,
      "longitude": 51.1647
    },
    {
      "id": 289709,
      "name": "Musaykah",
      "nativeName": "Musaykah",
      "code": "QA-MS-289709",
      "countryId": 289688,
      "countryCode": "QA",
      "stateCode": "QA-MS",
      "latitude": 25.95911,
      "longitude": 51.09753
    },
    {
      "id": 406733,
      "name": "Sidrīyat Makīn",
      "nativeName": "Sidrīyat Makīn",
      "code": "QA-MS-406733",
      "countryId": 289688,
      "countryCode": "QA",
      "stateCode": "QA-MS",
      "latitude": 26.03361,
      "longitude": 51.16389
    },
    {
      "id": 11208370,
      "name": "Umm Jāsim",
      "nativeName": "Umm Jāsim",
      "code": "QA-MS-11208370",
      "countryId": 289688,
      "countryCode": "QA",
      "stateCode": "QA-MS",
      "latitude": 26.06693,
      "longitude": 51.15312
    },
    {
      "id": 406783,
      "name": "Umm al Ghaylam",
      "nativeName": "Umm al Ghaylam",
      "code": "QA-MS-406783",
      "countryId": 289688,
      "countryCode": "QA",
      "stateCode": "QA-MS",
      "latitude": 25.99983,
      "longitude": 51.29953
    },
    {
      "id": 406756,
      "name": "Umm al Kilāb",
      "nativeName": "Umm al Kilāb",
      "code": "QA-MS-406756",
      "countryId": 289688,
      "countryCode": "QA",
      "stateCode": "QA-MS",
      "latitude": 26.04787,
      "longitude": 51.20931
    },
    {
      "id": 406753,
      "name": "Umm al Qubūr",
      "nativeName": "Umm al Qubūr",
      "code": "QA-MS-406753",
      "countryId": 289688,
      "countryCode": "QA",
      "stateCode": "QA-MS",
      "latitude": 26.0084,
      "longitude": 51.08769
    },
    {
      "id": 406687,
      "name": "Umm aş Şūf",
      "nativeName": "Umm aş Şūf",
      "code": "QA-MS-406687",
      "countryId": 289688,
      "countryCode": "QA",
      "stateCode": "QA-MS",
      "latitude": 26.07146,
      "longitude": 51.21083
    },
    {
      "id": 406682,
      "name": "Umm Şabbāḩ",
      "nativeName": "Umm Şabbāḩ",
      "code": "QA-MS-406682",
      "countryId": 289688,
      "countryCode": "QA",
      "stateCode": "QA-MS",
      "latitude": 26.11094,
      "longitude": 51.18966
    },
    {
      "id": 290020,
      "name": "‘Adhbah",
      "nativeName": "‘Adhbah",
      "code": "QA-MS-290020",
      "countryId": 289688,
      "countryCode": "QA",
      "stateCode": "QA-MS",
      "latitude": 26.05151,
      "longitude": 51.31874
    },
    {
      "id": 11208399,
      "name": "‘Adhbah ash Shamālīyah",
      "nativeName": "‘Adhbah ash Shamālīyah",
      "code": "QA-MS-11208399",
      "countryId": 289688,
      "countryCode": "QA",
      "stateCode": "QA-MS",
      "latitude": 26.07098,
      "longitude": 51.30453
    },
    {
      "id": 289848,
      "name": "‘Ayn Sinān",
      "nativeName": "‘Ayn Sinān",
      "code": "QA-MS-289848",
      "countryId": 289688,
      "countryCode": "QA",
      "stateCode": "QA-MS",
      "latitude": 26.0083,
      "longitude": 51.3294
    },
    {
      "id": 289899,
      "name": "‘Ayn an Nu‘mān",
      "nativeName": "‘Ayn an Nu‘mān",
      "code": "QA-MS-289899",
      "countryId": 289688,
      "countryCode": "QA",
      "stateCode": "QA-MS",
      "latitude": 25.85959,
      "longitude": 51.08388
    }
  ]
}