{
  "stateId": 1841610,
  "stateCode": "KR-41",
  "countryCode": "KR",
  "cities": [
    {
      "id": 8393792,
      "name": "Ansan-si",
      "nativeName": "Ansan-si",
      "code": "KR-41-8393792",
      "countryId": 1835841,
      "countryCode": "KR",
      "stateCode": "KR-41",
      "latitude": 37.31693,
      "longitude": 126.83048
    },
    {
      "id": 1846909,
      "name": "Anseong-si",
      "nativeName": "Anseong",
      "code": "KR-41-1846909",
      "countryId": 1835841,
      "countryCode": "KR",
      "stateCode": "KR-41",
      "latitude": 37.03789,
      "longitude": 127.30057
    },
    {
      "id": 1846894,
      "name": "Anyang-si",
      "nativeName": "Anyang-si",
      "code": "KR-41-1846894",
      "countryId": 1835841,
      "countryCode": "KR",
      "stateCode": "KR-41",
      "latitude": 37.40282,
      "longitude": 126.92874
    },
    {
      "id": 1838715,
      "name": "Bucheon-si",
      "nativeName": "Bucheon-si",
      "code": "KR-41-1838715",
      "countryId": 1835841,
      "countryCode": "KR",
      "stateCode": "KR-41",
      "latitude": 37.5044,
      "longitude": 126.76625
    },
    {
      "id": 1834308,
      "name": "Dongducheon-si",
      "nativeName": "Dongducheon",
      "code": "KR-41-1834308",
      "countryId": 1835841,
      "countryCode": "KR",
      "stateCode": "KR-41",
      "latitude": 37.91889,
      "longitude": 127.06897
    },
    {
      "id": 8604790,
      "name": "Gapyeong-gun",
      "nativeName": "Gapyeong-gun",
      "code": "KR-41-8604790",
      "countryId": 1835841,
      "countryCode": "KR",
      "stateCode": "KR-41",
      "latitude": 37.8308,
      "longitude": 127.51522
    },
    {
      "id": 1842170,
      "name": "Gimpo-si",
      "nativeName": "Gimpo-si",
      "code": "KR-41-1842170",
      "countryId": 1835841,
      "countryCode": "KR",
      "stateCode": "KR-41",
      "latitude": 37.63637,
      "longitude": 126.6927
    },
    {
      "id": 1842486,
      "name": "Goyang-si",
      "nativeName": "Goyang-si",
      "code": "KR-41-1842486",
      "countryId": 1835841,
      "countryCode": "KR",
      "stateCode": "KR-41",
      "latitude": 37.66667,
      "longitude": 126.83333
    },
    {
      "id": 8393793,
      "name": "Gunpo-si",
      "nativeName": "Gunpo-si",
      "code": "KR-41-8393793",
      "countryId": 1835841,
      "countryCode": "KR",
      "stateCode": "KR-41",
      "latitude": 37.34261,
      "longitude": 126.92149
    },
    {
      "id": 8393803,
      "name": "Guri-si",
      "nativeName": "Guri-si",
      "code": "KR-41-8393803",
      "countryId": 1835841,
      "countryCode": "KR",
      "stateCode": "KR-41",
      "latitude": 37.6012,
      "longitude": 127.1338
    },
    {
      "id": 8393798,
      "name": "Gwacheon-si",
      "nativeName": "Gwacheon-si",
      "code": "KR-41-8393798",
      "countryId": 1835841,
      "countryCode": "KR",
      "stateCode": "KR-41",
      "latitude": 37.43407,
      "longitude": 126.99989
    },
    {
      "id": 1841809,
      "name": "Gwangju-si",
      "nativeName": "Gwangju-si",
      "code": "KR-41-1841809",
      "countryId": 1835841,
      "countryCode": "KR",
      "stateCode": "KR-41",
      "latitude": 37.40329,
      "longitude": 127.29855
    },
    {
      "id": 8393794,
      "name": "Gwangmyeong-si",
      "nativeName": "Gwangmyeong-si",
      "code": "KR-41-8393794",
      "countryId": 1835841,
      "countryCode": "KR",
      "stateCode": "KR-41",
      "latitude": 37.44435,
      "longitude": 126.86499
    },
    {
      "id": 8393790,
      "name": "Hanam-si",
      "nativeName": "Hanam-si",
      "code": "KR-41-8393790",
      "countryId": 1835841,
      "countryCode": "KR",
      "stateCode": "KR-41",
      "latitude": 37.53895,
      "longitude": 127.2125
    },
    {
      "id": 8604734,
      "name": "Hwaseong-si",
      "nativeName": "Hwaseong-si",
      "code": "KR-41-8604734",
      "countryId": 1835841,
      "countryCode": "KR",
      "stateCode": "KR-41",
      "latitude": 37.20025,
      "longitude": 126.82909
    },
    {
      "id": 1843700,
      "name": "Icheon-si",
      "nativeName": "Icheon-si",
      "code": "KR-41-1843700",
      "countryId": 1835841,
      "countryCode": "KR",
      "stateCode": "KR-41",
      "latitude": 37.27642,
      "longitude": 127.43692
    },
    {
      "id": 1840374,
      "name": "Namyangju-si",
      "nativeName": "Namyangju-si",
      "code": "KR-41-1840374",
      "countryId": 1835841,
      "countryCode": "KR",
      "stateCode": "KR-41",
      "latitude": 37.65217,
      "longitude": 127.2401
    },
    {
      "id": 8393795,
      "name": "Osan-si",
      "nativeName": "Osan-si",
      "code": "KR-41-8393795",
      "countryId": 1835841,
      "countryCode": "KR",
      "stateCode": "KR-41",
      "latitude": 37.1623,
      "longitude": 127.05246
    },
    {
      "id": 1839430,
      "name": "Paju-si",
      "nativeName": "Paju-si",
      "code": "KR-41-1839430",
      "countryId": 1835841,
      "countryCode": "KR",
      "stateCode": "KR-41",
      "latitude": 37.75952,
      "longitude": 126.77772
    },
    {
      "id": 1839102,
      "name": "Pocheon-si",
      "nativeName": "Pocheon-si",
      "code": "KR-41-1839102",
      "countryId": 1835841,
      "countryCode": "KR",
      "stateCode": "KR-41",
      "latitude": 37.8937,
      "longitude": 127.20028
    },
    {
      "id": 1838341,
      "name": "Pyeongtaek-si",
      "nativeName": "Pyeongtaek",
      "code": "KR-41-1838341",
      "countryId": 1835841,
      "countryCode": "KR",
      "stateCode": "KR-41",
      "latitude": 37.01372,
      "longitude": 126.98748
    },
    {
      "id": 1836091,
      "name": "Seongnam-si",
      "nativeName": "Seongnam-si",
      "code": "KR-41-1836091",
      "countryId": 1835841,
      "countryCode": "KR",
      "stateCode": "KR-41",
      "latitude": 37.41875,
      "longitude": 127.12877
    },
    {
      "id": 1837364,
      "name": "Siheung-si",
      "nativeName": "Siheung",
      "code": "KR-41-1837364",
      "countryId": 1835841,
      "countryCode": "KR",
      "stateCode": "KR-41",
      "latitude": 37.39067,
      "longitude": 126.7888
    },
    {
      "id": 1835551,
      "name": "Suwon-si",
      "nativeName": "Suwon-si",
      "code": "KR-41-1835551",
      "countryId": 1835841,
      "countryCode": "KR",
      "stateCode": "KR-41",
      "latitude": 37.28586,
      "longitude": 127.00993
    },
    {
      "id": 1833787,
      "name": "Uijeongbu-si",
      "nativeName": "Uijeongbu-si",
      "code": "KR-41-1833787",
      "countryId": 1835841,
      "countryCode": "KR",
      "stateCode": "KR-41",
      "latitude": 37.73865,
      "longitude": 127.0477
    },
    {
      "id": 8393796,
      "name": "Uiwang-si",
      "nativeName": "Uiwang-si",
      "code": "KR-41-8393796",
      "countryId": 1835841,
      "countryCode": "KR",
      "stateCode": "KR-41",
      "latitude": 37.345,
      "longitude": 126.97575
    },
    {
      "id": 8393804,
      "name": "Yangju-si",
      "nativeName": "Yangju-si",
      "code": "KR-41-8393804",
      "countryId": 1835841,
      "countryCode": "KR",
      "stateCode": "KR-41",
      "latitude": 37.81732,
      "longitude": 127.046
    },
    {
      "id": 1832832,
      "name": "Yangpyeong-gun",
      "nativeName": "Yangpyeong-gun",
      "code": "KR-41-1832832",
      "countryId": 1835841,
      "countryCode": "KR",
      "stateCode": "KR-41",
      "latitude": 37.4888,
      "longitude": 127.49222
    },
    {
      "id": 1832742,
      "name": "Yeoju-si",
      "nativeName": "Yeoju-si",
      "code": "KR-41-1832742",
      "countryId": 1835841,
      "countryCode": "KR",
      "stateCode": "KR-41",
      "latitude": 37.29562,
      "longitude": 127.63668
    },
    {
      "id": 1832697,
      "name": "Yeoncheon-gun",
      "nativeName": "Yeoncheon-gun",
      "code": "KR-41-1832697",
      "countryId": 1835841,
      "countryCode": "KR",
      "stateCode": "KR-41",
      "latitude": 38.09404,
      "longitude": 127.07577
    },
    {
      "id": 1832426,
      "name": "Yongin-si",
      "nativeName": "Yongin-si",
      "code": "KR-41-1832426",
      "countryId": 1835841,
      "countryCode": "KR",
      "stateCode": "KR-41",
      "latitude": 37.23825,
      "longitude": 127.17795
    }
  ]
}