{
  "countryId": 3575174,
  "countryCode": "KN",
  "states": [
    {
      "id": 3575476,
      "name": "Christ Church Nichola Town",
      "nativeName": "Christ Church Nichola Town",
      "code": "KN-01",
      "internalCode": "01",
      "countryId": 3575174,
      "countryCode": "KN",
      "latitude": 17.35,
      "longitude": -62.76667
    },
    {
      "id": 3575164,
      "name": "Middle Island",
      "nativeName": "Saint Thomas Middle Island",
      "code": "KN-13",
      "internalCode": "13",
      "countryId": 3575174,
      "countryCode": "KN",
      "latitude": 17.35,
      "longitude": -62.8
    },
    {
      "id": 3575183,
      "name": "Saint Anne Sandy Point",
      "nativeName": "Saint Anne Sandy Point",
      "code": "KN-02",
      "internalCode": "02",
      "countryId": 3575174,
      "countryCode": "KN",
      "latitude": 17.36667,
      "longitude": -62.83333
    },
    {
      "id": 3575180,
      "name": "Saint George Basseterre",
      "nativeName": "Saint George Basseterre",
      "code": "KN-03",
      "internalCode": "03",
      "countryId": 3575174,
      "countryCode": "KN",
      "latitude": 17.29732,
      "longitude": -62.70613
    },
    {
      "id": 3575179,
      "name": "Saint George Gingerland",
      "nativeName": "Saint George Gingerland",
      "code": "KN-04",
      "internalCode": "04",
      "countryId": 3575174,
      "countryCode": "KN",
      "latitude": 17.13333,
      "longitude": -62.56667
    },
    {
      "id": 3575177,
      "name": "Saint James Windward",
      "nativeName": "Saint James Windward",
      "code": "KN-05",
      "internalCode": "05",
      "countryId": 3575174,
      "countryCode": "KN",
      "latitude": 17.16667,
      "longitude": -62.56667
    },
    {
      "id": 3575176,
      "name": "Saint John Capesterre",
      "nativeName": "Saint John Capesterre",
      "code": "KN-06",
      "internalCode": "06",
      "countryId": 3575174,
      "countryCode": "KN",
      "latitude": 17.38333,
      "longitude": -62.8
    },
    {
      "id": 3575175,
      "name": "Saint John Figtree",
      "nativeName": "Saint John Figtree",
      "code": "KN-07",
      "internalCode": "07",
      "countryId": 3575174,
      "countryCode": "KN",
      "latitude": 17.11667,
      "longitude": -62.6
    },
    {
      "id": 3575173,
      "name": "Saint Mary Cayon",
      "nativeName": "Saint Mary Cayon",
      "code": "KN-08",
      "internalCode": "08",
      "countryId": 3575174,
      "countryCode": "KN",
      "latitude": 17.35,
      "longitude": -62.73333
    },
    {
      "id": 3575172,
      "name": "Saint Paul Capesterre",
      "nativeName": "Saint Paul Capesterre",
      "code": "KN-09",
      "internalCode": "09",
      "countryId": 3575174,
      "countryCode": "KN",
      "latitude": 17.4,
      "longitude": -62.83333
    },
    {
      "id": 3575171,
      "name": "Saint Paul Charlestown",
      "nativeName": "Saint Paul Charlestown",
      "code": "KN-10",
      "internalCode": "10",
      "countryId": 3575174,
      "countryCode": "KN",
      "latitude": 17.13456,
      "longitude": -62.61473
    },
    {
      "id": 3575168,
      "name": "Saint Peter Basseterre",
      "nativeName": "Saint Peter Basseterre",
      "code": "KN-11",
      "internalCode": "11",
      "countryId": 3575174,
      "countryCode": "KN",
      "latitude": 17.31667,
      "longitude": -62.71667
    },
    {
      "id": 3575165,
      "name": "Saint Thomas Lowland",
      "nativeName": "Saint Thomas Lowland",
      "code": "KN-12",
      "internalCode": "12",
      "countryId": 3575174,
      "countryCode": "KN",
      "latitude": 17.16667,
      "longitude": -62.6
    },
    {
      "id": 3575114,
      "name": "Trinity Palmetto Point",
      "nativeName": "Trinity Palmetto Point",
      "code": "KN-15",
      "internalCode": "15",
      "countryId": 3575174,
      "countryCode": "KN",
      "latitude": 17.30667,
      "longitude": -62.76374
    }
  ]
}