{
  "stateId": 3199393,
  "stateCode": "ME-08",
  "countryCode": "ME",
  "cities": [
    {
      "id": 3199394,
      "name": "Herceg Novi",
      "nativeName": "Herceg Novi",
      "code": "ME-08-3199394",
      "countryId": 3194884,
      "countryCode": "ME",
      "stateCode": "ME-08",
      "latitude": 42.45306,
      "longitude": 18.5375
    },
    {
      "id": 3339163,
      "name": "Andrići",
      "nativeName": "Andrići",
      "code": "ME-08-3339163",
      "countryId": 3194884,
      "countryCode": "ME",
      "stateCode": "ME-08",
      "latitude": 42.48,
      "longitude": 18.49667
    },
    {
      "id": 3341124,
      "name": "Babunci",
      "nativeName": "Babunci",
      "code": "ME-08-3341124",
      "countryId": 3194884,
      "countryCode": "ME",
      "stateCode": "ME-08",
      "latitude": 42.40167,
      "longitude": 18.61472
    },
    {
      "id": 3204602,
      "name": "Bakoči",
      "nativeName": "Bakoči",
      "code": "ME-08-3204602",
      "countryId": 3194884,
      "countryCode": "ME",
      "stateCode": "ME-08",
      "latitude": 42.47639,
      "longitude": 18.60611
    },
    {
      "id": 3341914,
      "name": "Banovina",
      "nativeName": "Banovina",
      "code": "ME-08-3341914",
      "countryId": 3194884,
      "countryCode": "ME",
      "stateCode": "ME-08",
      "latitude": 42.48417,
      "longitude": 18.67417
    },
    {
      "id": 3204511,
      "name": "Baošići",
      "nativeName": "Baošići",
      "code": "ME-08-3204511",
      "countryId": 3194884,
      "countryCode": "ME",
      "stateCode": "ME-08",
      "latitude": 42.4425,
      "longitude": 18.63
    },
    {
      "id": 3204368,
      "name": "Begovići",
      "nativeName": "Begovići",
      "code": "ME-08-3204368",
      "countryId": 3194884,
      "countryCode": "ME",
      "stateCode": "ME-08",
      "latitude": 42.38694,
      "longitude": 18.61444
    },
    {
      "id": 3204214,
      "name": "Bijela",
      "nativeName": "Bijela",
      "code": "ME-08-3204214",
      "countryId": 3194884,
      "countryCode": "ME",
      "stateCode": "ME-08",
      "latitude": 42.45333,
      "longitude": 18.65556
    },
    {
      "id": 3338833,
      "name": "Brajevići",
      "nativeName": "Brajevići",
      "code": "ME-08-3338833",
      "countryId": 3194884,
      "countryCode": "ME",
      "stateCode": "ME-08",
      "latitude": 42.49028,
      "longitude": 18.47833
    },
    {
      "id": 3339180,
      "name": "Brajkovina",
      "nativeName": "Brajkovina",
      "code": "ME-08-3339180",
      "countryId": 3194884,
      "countryCode": "ME",
      "stateCode": "ME-08",
      "latitude": 42.46417,
      "longitude": 18.54972
    },
    {
      "id": 3318268,
      "name": "Brguli",
      "nativeName": "Brguli",
      "code": "ME-08-3318268",
      "countryId": 3194884,
      "countryCode": "ME",
      "stateCode": "ME-08",
      "latitude": 42.3925,
      "longitude": 18.61722
    },
    {
      "id": 3220297,
      "name": "Brković",
      "nativeName": "Brković",
      "code": "ME-08-3220297",
      "countryId": 3194884,
      "countryCode": "ME",
      "stateCode": "ME-08",
      "latitude": 42.48222,
      "longitude": 18.67333
    },
    {
      "id": 3339011,
      "name": "Bunovići",
      "nativeName": "Bunovići",
      "code": "ME-08-3339011",
      "countryId": 3194884,
      "countryCode": "ME",
      "stateCode": "ME-08",
      "latitude": 42.48556,
      "longitude": 18.59306
    },
    {
      "id": 3263598,
      "name": "Dizdarev Do",
      "nativeName": "Dizdarev Do",
      "code": "ME-08-3263598",
      "countryId": 3194884,
      "countryCode": "ME",
      "stateCode": "ME-08",
      "latitude": 42.52222,
      "longitude": 18.47889
    },
    {
      "id": 3341913,
      "name": "Donja Jošica",
      "nativeName": "Donja Jošica",
      "code": "ME-08-3341913",
      "countryId": 3194884,
      "countryCode": "ME",
      "stateCode": "ME-08",
      "latitude": 42.46361,
      "longitude": 18.67111
    },
    {
      "id": 3197580,
      "name": "Donja Kostanjica",
      "nativeName": "Donja Kostanjica",
      "code": "ME-08-3197580",
      "countryId": 3194884,
      "countryCode": "ME",
      "stateCode": "ME-08",
      "latitude": 42.48583,
      "longitude": 18.6675
    },
    {
      "id": 3201428,
      "name": "Donji Morinj",
      "nativeName": "Donji Morinj",
      "code": "ME-08-3201428",
      "countryId": 3194884,
      "countryCode": "ME",
      "stateCode": "ME-08",
      "latitude": 42.48944,
      "longitude": 18.64722
    },
    {
      "id": 3208018,
      "name": "Dragojlovići",
      "nativeName": "Dragojlovići",
      "code": "ME-08-3208018",
      "countryId": 3194884,
      "countryCode": "ME",
      "stateCode": "ME-08",
      "latitude": 42.50917,
      "longitude": 18.62917
    },
    {
      "id": 3318207,
      "name": "Dragomanovići",
      "nativeName": "Dragomanovići",
      "code": "ME-08-3318207",
      "countryId": 3194884,
      "countryCode": "ME",
      "stateCode": "ME-08",
      "latitude": 42.49111,
      "longitude": 18.6175
    },
    {
      "id": 3263595,
      "name": "Drenovac",
      "nativeName": "Drenovac",
      "code": "ME-08-3263595",
      "countryId": 3194884,
      "countryCode": "ME",
      "stateCode": "ME-08",
      "latitude": 42.52722,
      "longitude": 18.47111
    },
    {
      "id": 3341908,
      "name": "Dubravica",
      "nativeName": "Dubravica",
      "code": "ME-08-3341908",
      "countryId": 3194884,
      "countryCode": "ME",
      "stateCode": "ME-08",
      "latitude": 42.45444,
      "longitude": 18.65
    },
    {
      "id": 3263617,
      "name": "Dugi Do",
      "nativeName": "Dugi Do",
      "code": "ME-08-3263617",
      "countryId": 3194884,
      "countryCode": "ME",
      "stateCode": "ME-08",
      "latitude": 42.54278,
      "longitude": 18.4525
    },
    {
      "id": 3339131,
      "name": "Duraševići",
      "nativeName": "Duraševići",
      "code": "ME-08-3339131",
      "countryId": 3194884,
      "countryCode": "ME",
      "stateCode": "ME-08",
      "latitude": 42.39806,
      "longitude": 18.59694
    },
    {
      "id": 3339044,
      "name": "Eraci",
      "nativeName": "Eraci",
      "code": "ME-08-3339044",
      "countryId": 3194884,
      "countryCode": "ME",
      "stateCode": "ME-08",
      "latitude": 42.40278,
      "longitude": 18.59694
    },
    {
      "id": 3339033,
      "name": "Glogovik",
      "nativeName": "Glogovik",
      "code": "ME-08-3339033",
      "countryId": 3194884,
      "countryCode": "ME",
      "stateCode": "ME-08",
      "latitude": 42.46194,
      "longitude": 18.59806
    },
    {
      "id": 3205482,
      "name": "Gojkovići",
      "nativeName": "Gojkovići",
      "code": "ME-08-3205482",
      "countryId": 3194884,
      "countryCode": "ME",
      "stateCode": "ME-08",
      "latitude": 42.50722,
      "longitude": 18.49639
    },
    {
      "id": 3198580,
      "name": "Gornja Jošica",
      "nativeName": "Gornja Jošica",
      "code": "ME-08-3198580",
      "countryId": 3194884,
      "countryCode": "ME",
      "stateCode": "ME-08",
      "latitude": 42.46583,
      "longitude": 18.66333
    },
    {
      "id": 3317953,
      "name": "Gornja Kostanjica",
      "nativeName": "Gornja Kostanjica",
      "code": "ME-08-3317953",
      "countryId": 3194884,
      "countryCode": "ME",
      "stateCode": "ME-08",
      "latitude": 42.48306,
      "longitude": 18.66389
    },
    {
      "id": 3341907,
      "name": "Grabe",
      "nativeName": "Grabe",
      "code": "ME-08-3341907",
      "countryId": 3194884,
      "countryCode": "ME",
      "stateCode": "ME-08",
      "latitude": 42.44667,
      "longitude": 18.64194
    },
    {
      "id": 3199161,
      "name": "Igalo",
      "nativeName": "Igalo",
      "code": "ME-08-3199161",
      "countryId": 3194884,
      "countryCode": "ME",
      "stateCode": "ME-08",
      "latitude": 42.46007,
      "longitude": 18.50647
    },
    {
      "id": 3318220,
      "name": "Ivovići",
      "nativeName": "Ivovići",
      "code": "ME-08-3318220",
      "countryId": 3194884,
      "countryCode": "ME",
      "stateCode": "ME-08",
      "latitude": 42.45028,
      "longitude": 18.62306
    },
    {
      "id": 3208012,
      "name": "Ivovići",
      "nativeName": "Ivovići",
      "code": "ME-08-3208012",
      "countryId": 3194884,
      "countryCode": "ME",
      "stateCode": "ME-08",
      "latitude": 42.51333,
      "longitude": 18.61778
    },
    {
      "id": 3208016,
      "name": "Jančići",
      "nativeName": "Jančići",
      "code": "ME-08-3208016",
      "countryId": 3194884,
      "countryCode": "ME",
      "stateCode": "ME-08",
      "latitude": 42.51556,
      "longitude": 18.63417
    },
    {
      "id": 3339155,
      "name": "Junčevići",
      "nativeName": "Junčevići",
      "code": "ME-08-3339155",
      "countryId": 3194884,
      "countryCode": "ME",
      "stateCode": "ME-08",
      "latitude": 42.48111,
      "longitude": 18.56972
    },
    {
      "id": 3339105,
      "name": "Kabala",
      "nativeName": "Kabala",
      "code": "ME-08-3339105",
      "countryId": 3194884,
      "countryCode": "ME",
      "stateCode": "ME-08",
      "latitude": 42.42417,
      "longitude": 18.56278
    },
    {
      "id": 3317962,
      "name": "Kamenari",
      "nativeName": "Kamenari",
      "code": "ME-08-3317962",
      "countryId": 3194884,
      "countryCode": "ME",
      "stateCode": "ME-08",
      "latitude": 42.46667,
      "longitude": 18.67278
    },
    {
      "id": 3198384,
      "name": "Kameno",
      "nativeName": "Kameno",
      "code": "ME-08-3198384",
      "countryId": 3194884,
      "countryCode": "ME",
      "stateCode": "ME-08",
      "latitude": 42.47694,
      "longitude": 18.52889
    },
    {
      "id": 3264328,
      "name": "Kape",
      "nativeName": "Kape",
      "code": "ME-08-3264328",
      "countryId": 3194884,
      "countryCode": "ME",
      "stateCode": "ME-08",
      "latitude": 42.56667,
      "longitude": 18.49917
    },
    {
      "id": 3263620,
      "name": "Kačunica",
      "nativeName": "Kačunica",
      "code": "ME-08-3263620",
      "countryId": 3194884,
      "countryCode": "ME",
      "stateCode": "ME-08",
      "latitude": 42.53278,
      "longitude": 18.45444
    },
    {
      "id": 3339038,
      "name": "Klinci",
      "nativeName": "Klinci",
      "code": "ME-08-3339038",
      "countryId": 3194884,
      "countryCode": "ME",
      "stateCode": "ME-08",
      "latitude": 42.42056,
      "longitude": 18.56667
    },
    {
      "id": 3338831,
      "name": "Konjevići",
      "nativeName": "Konjevići",
      "code": "ME-08-3338831",
      "countryId": 3194884,
      "countryCode": "ME",
      "stateCode": "ME-08",
      "latitude": 42.49278,
      "longitude": 18.46278
    },
    {
      "id": 3339145,
      "name": "Kosići",
      "nativeName": "Kosići",
      "code": "ME-08-3339145",
      "countryId": 3194884,
      "countryCode": "ME",
      "stateCode": "ME-08",
      "latitude": 42.49778,
      "longitude": 18.50444
    },
    {
      "id": 3338834,
      "name": "Kovači",
      "nativeName": "Kovači",
      "code": "ME-08-3338834",
      "countryId": 3194884,
      "countryCode": "ME",
      "stateCode": "ME-08",
      "latitude": 42.48972,
      "longitude": 18.48861
    },
    {
      "id": 3341080,
      "name": "Kovačina",
      "nativeName": "Kovačina",
      "code": "ME-08-3341080",
      "countryId": 3194884,
      "countryCode": "ME",
      "stateCode": "ME-08",
      "latitude": 42.45056,
      "longitude": 18.64111
    },
    {
      "id": 3204172,
      "name": "Kruševice",
      "nativeName": "Kruševice",
      "code": "ME-08-3204172",
      "countryId": 3194884,
      "countryCode": "ME",
      "stateCode": "ME-08",
      "latitude": 42.47167,
      "longitude": 18.64222
    },
    {
      "id": 3197083,
      "name": "Kruševice",
      "nativeName": "Kruševice",
      "code": "ME-08-3197083",
      "countryId": 3194884,
      "countryCode": "ME",
      "stateCode": "ME-08",
      "latitude": 42.53611,
      "longitude": 18.49194
    },
    {
      "id": 3263589,
      "name": "Kruška",
      "nativeName": "Kruška",
      "code": "ME-08-3263589",
      "countryId": 3194884,
      "countryCode": "ME",
      "stateCode": "ME-08",
      "latitude": 42.54333,
      "longitude": 18.51194
    },
    {
      "id": 3208374,
      "name": "Kumbor",
      "nativeName": "Kumbor",
      "code": "ME-08-3208374",
      "countryId": 3194884,
      "countryCode": "ME",
      "stateCode": "ME-08",
      "latitude": 42.44056,
      "longitude": 18.58583
    },
    {
      "id": 3196869,
      "name": "Kuti",
      "nativeName": "Kuti",
      "code": "ME-08-3196869",
      "countryId": 3194884,
      "countryCode": "ME",
      "stateCode": "ME-08",
      "latitude": 42.45944,
      "longitude": 18.58583
    },
    {
      "id": 3339015,
      "name": "Kvekići",
      "nativeName": "Kvekići",
      "code": "ME-08-3339015",
      "countryId": 3194884,
      "countryCode": "ME",
      "stateCode": "ME-08",
      "latitude": 42.46111,
      "longitude": 18.54667
    },
    {
      "id": 3196749,
      "name": "Lastva",
      "nativeName": "Lastva",
      "code": "ME-08-3196749",
      "countryId": 3194884,
      "countryCode": "ME",
      "stateCode": "ME-08",
      "latitude": 42.47444,
      "longitude": 18.58472
    },
    {
      "id": 3263602,
      "name": "Lazarevići",
      "nativeName": "Lazarevići",
      "code": "ME-08-3263602",
      "countryId": 3194884,
      "countryCode": "ME",
      "stateCode": "ME-08",
      "latitude": 42.50083,
      "longitude": 18.4775
    },
    {
      "id": 3263603,
      "name": "Lepetići",
      "nativeName": "Lepetići",
      "code": "ME-08-3263603",
      "countryId": 3194884,
      "countryCode": "ME",
      "stateCode": "ME-08",
      "latitude": 42.50278,
      "longitude": 18.50083
    },
    {
      "id": 3338836,
      "name": "Lučići",
      "nativeName": "Lučići",
      "code": "ME-08-3338836",
      "countryId": 3194884,
      "countryCode": "ME",
      "stateCode": "ME-08",
      "latitude": 42.48056,
      "longitude": 18.47528
    },
    {
      "id": 3339135,
      "name": "Magazini",
      "nativeName": "Magazini",
      "code": "ME-08-3339135",
      "countryId": 3194884,
      "countryCode": "ME",
      "stateCode": "ME-08",
      "latitude": 42.46139,
      "longitude": 18.57111
    },
    {
      "id": 3341073,
      "name": "Malovići",
      "nativeName": "Malovići",
      "code": "ME-08-3341073",
      "countryId": 3194884,
      "countryCode": "ME",
      "stateCode": "ME-08",
      "latitude": 42.45861,
      "longitude": 18.65222
    },
    {
      "id": 3338853,
      "name": "Malta",
      "nativeName": "Malta",
      "code": "ME-08-3338853",
      "countryId": 3194884,
      "countryCode": "ME",
      "stateCode": "ME-08",
      "latitude": 42.49694,
      "longitude": 18.45028
    },
    {
      "id": 3339039,
      "name": "Mandegaj",
      "nativeName": "Mandegaj",
      "code": "ME-08-3339039",
      "countryId": 3194884,
      "countryCode": "ME",
      "stateCode": "ME-08",
      "latitude": 42.42222,
      "longitude": 18.58278
    },
    {
      "id": 3220301,
      "name": "Mandići",
      "nativeName": "Mandići",
      "code": "ME-08-3220301",
      "countryId": 3194884,
      "countryCode": "ME",
      "stateCode": "ME-08",
      "latitude": 42.4925,
      "longitude": 18.53111
    },
    {
      "id": 3339181,
      "name": "Marići",
      "nativeName": "Marići",
      "code": "ME-08-3339181",
      "countryId": 3194884,
      "countryCode": "ME",
      "stateCode": "ME-08",
      "latitude": 42.46472,
      "longitude": 18.58389
    },
    {
      "id": 3339132,
      "name": "Marovići",
      "nativeName": "Marovići",
      "code": "ME-08-3339132",
      "countryId": 3194884,
      "countryCode": "ME",
      "stateCode": "ME-08",
      "latitude": 42.39361,
      "longitude": 18.59667
    },
    {
      "id": 3339187,
      "name": "Matkovići",
      "nativeName": "Matkovići",
      "code": "ME-08-3339187",
      "countryId": 3194884,
      "countryCode": "ME",
      "stateCode": "ME-08",
      "latitude": 42.46778,
      "longitude": 18.53306
    },
    {
      "id": 3263576,
      "name": "Meki Do",
      "nativeName": "Meki Do",
      "code": "ME-08-3263576",
      "countryId": 3194884,
      "countryCode": "ME",
      "stateCode": "ME-08",
      "latitude": 42.52583,
      "longitude": 18.59
    },
    {
      "id": 3195260,
      "name": "Meljine",
      "nativeName": "Meljine",
      "code": "ME-08-3195260",
      "countryId": 3194884,
      "countryCode": "ME",
      "stateCode": "ME-08",
      "latitude": 42.45583,
      "longitude": 18.56194
    },
    {
      "id": 3318274,
      "name": "Merdari",
      "nativeName": "Merdari",
      "code": "ME-08-3318274",
      "countryId": 3194884,
      "countryCode": "ME",
      "stateCode": "ME-08",
      "latitude": 42.38806,
      "longitude": 18.62917
    },
    {
      "id": 3263601,
      "name": "Meteriz",
      "nativeName": "Meteriz",
      "code": "ME-08-3263601",
      "countryId": 3194884,
      "countryCode": "ME",
      "stateCode": "ME-08",
      "latitude": 42.50528,
      "longitude": 18.49167
    },
    {
      "id": 3339207,
      "name": "Milovići",
      "nativeName": "Milovići",
      "code": "ME-08-3339207",
      "countryId": 3194884,
      "countryCode": "ME",
      "stateCode": "ME-08",
      "latitude": 42.48722,
      "longitude": 18.49361
    },
    {
      "id": 3339031,
      "name": "Miočevići",
      "nativeName": "Miočevići",
      "code": "ME-08-3339031",
      "countryId": 3194884,
      "countryCode": "ME",
      "stateCode": "ME-08",
      "latitude": 42.44361,
      "longitude": 18.58667
    },
    {
      "id": 3318267,
      "name": "Mitrovići",
      "nativeName": "Mitrovići",
      "code": "ME-08-3318267",
      "countryId": 3194884,
      "countryCode": "ME",
      "stateCode": "ME-08",
      "latitude": 42.42,
      "longitude": 18.60306
    },
    {
      "id": 3338842,
      "name": "Miševići",
      "nativeName": "Miševići",
      "code": "ME-08-3338842",
      "countryId": 3194884,
      "countryCode": "ME",
      "stateCode": "ME-08",
      "latitude": 42.47139,
      "longitude": 18.48667
    },
    {
      "id": 3339041,
      "name": "Mrkovi",
      "nativeName": "Mrkovi",
      "code": "ME-08-3339041",
      "countryId": 3194884,
      "countryCode": "ME",
      "stateCode": "ME-08",
      "latitude": 42.41417,
      "longitude": 18.57528
    },
    {
      "id": 3339179,
      "name": "Musići",
      "nativeName": "Musići",
      "code": "ME-08-3339179",
      "countryId": 3194884,
      "countryCode": "ME",
      "stateCode": "ME-08",
      "latitude": 42.465,
      "longitude": 18.54028
    },
    {
      "id": 3339014,
      "name": "Nakičenovići",
      "nativeName": "Nakičenovići",
      "code": "ME-08-3339014",
      "countryId": 3194884,
      "countryCode": "ME",
      "stateCode": "ME-08",
      "latitude": 42.465,
      "longitude": 18.57944
    },
    {
      "id": 3338997,
      "name": "Njivice",
      "nativeName": "Njivice",
      "code": "ME-08-3338997",
      "countryId": 3194884,
      "countryCode": "ME",
      "stateCode": "ME-08",
      "latitude": 42.43556,
      "longitude": 18.51361
    },
    {
      "id": 3339158,
      "name": "Nogulovići",
      "nativeName": "Nogulovići",
      "code": "ME-08-3339158",
      "countryId": 3194884,
      "countryCode": "ME",
      "stateCode": "ME-08",
      "latitude": 42.47222,
      "longitude": 18.57278
    },
    {
      "id": 3318214,
      "name": "Obalice",
      "nativeName": "Obalice",
      "code": "ME-08-3318214",
      "countryId": 3194884,
      "countryCode": "ME",
      "stateCode": "ME-08",
      "latitude": 42.45361,
      "longitude": 18.61083
    },
    {
      "id": 3208411,
      "name": "Obradovići",
      "nativeName": "Obradovići",
      "code": "ME-08-3208411",
      "countryId": 3194884,
      "countryCode": "ME",
      "stateCode": "ME-08",
      "latitude": 42.48278,
      "longitude": 18.53778
    },
    {
      "id": 3341910,
      "name": "Pavlovići",
      "nativeName": "Pavlovići",
      "code": "ME-08-3341910",
      "countryId": 3194884,
      "countryCode": "ME",
      "stateCode": "ME-08",
      "latitude": 42.46917,
      "longitude": 18.65472
    },
    {
      "id": 3339183,
      "name": "Pestorići",
      "nativeName": "Pestorići",
      "code": "ME-08-3339183",
      "countryId": 3194884,
      "countryCode": "ME",
      "stateCode": "ME-08",
      "latitude": 42.46222,
      "longitude": 18.59417
    },
    {
      "id": 3263599,
      "name": "Petijevići",
      "nativeName": "Petijevići",
      "code": "ME-08-3263599",
      "countryId": 3194884,
      "countryCode": "ME",
      "stateCode": "ME-08",
      "latitude": 42.51472,
      "longitude": 18.48917
    },
    {
      "id": 3341074,
      "name": "Petrovići",
      "nativeName": "Petrovići",
      "code": "ME-08-3341074",
      "countryId": 3194884,
      "countryCode": "ME",
      "stateCode": "ME-08",
      "latitude": 42.45444,
      "longitude": 18.64361
    },
    {
      "id": 3193005,
      "name": "Podi",
      "nativeName": "Podi",
      "code": "ME-08-3193005",
      "countryId": 3194884,
      "countryCode": "ME",
      "stateCode": "ME-08",
      "latitude": 42.46361,
      "longitude": 18.54333
    },
    {
      "id": 3339001,
      "name": "Porobići",
      "nativeName": "Porobići",
      "code": "ME-08-3339001",
      "countryId": 3194884,
      "countryCode": "ME",
      "stateCode": "ME-08",
      "latitude": 42.49139,
      "longitude": 18.4975
    },
    {
      "id": 3339013,
      "name": "Presjeka",
      "nativeName": "Presjeka",
      "code": "ME-08-3339013",
      "countryId": 3194884,
      "countryCode": "ME",
      "stateCode": "ME-08",
      "latitude": 42.46861,
      "longitude": 18.5725
    },
    {
      "id": 3192400,
      "name": "Prijevor",
      "nativeName": "Prijevor",
      "code": "ME-08-3192400",
      "countryId": 3194884,
      "countryCode": "ME",
      "stateCode": "ME-08",
      "latitude": 42.49389,
      "longitude": 18.45306
    },
    {
      "id": 3192360,
      "name": "Pristan",
      "nativeName": "Pristan",
      "code": "ME-08-3192360",
      "countryId": 3194884,
      "countryCode": "ME",
      "stateCode": "ME-08",
      "latitude": 42.42556,
      "longitude": 18.60167
    },
    {
      "id": 3264324,
      "name": "Prčanj",
      "nativeName": "Prčanj",
      "code": "ME-08-3264324",
      "countryId": 3194884,
      "countryCode": "ME",
      "stateCode": "ME-08",
      "latitude": 42.56806,
      "longitude": 18.48194
    },
    {
      "id": 3339002,
      "name": "Radanovići",
      "nativeName": "Radanovići",
      "code": "ME-08-3339002",
      "countryId": 3194884,
      "countryCode": "ME",
      "stateCode": "ME-08",
      "latitude": 42.49389,
      "longitude": 18.50694
    },
    {
      "id": 3341125,
      "name": "Radovanići",
      "nativeName": "Radovanići",
      "code": "ME-08-3341125",
      "countryId": 3194884,
      "countryCode": "ME",
      "stateCode": "ME-08",
      "latitude": 42.39917,
      "longitude": 18.60361
    },
    {
      "id": 3341072,
      "name": "Rake",
      "nativeName": "Rake",
      "code": "ME-08-3341072",
      "countryId": 3194884,
      "countryCode": "ME",
      "stateCode": "ME-08",
      "latitude": 42.45083,
      "longitude": 18.65
    },
    {
      "id": 3191885,
      "name": "Ratiševina",
      "nativeName": "Ratiševina",
      "code": "ME-08-3191885",
      "countryId": 3194884,
      "countryCode": "ME",
      "stateCode": "ME-08",
      "latitude": 42.47944,
      "longitude": 18.50583
    },
    {
      "id": 3339000,
      "name": "Ratkovići",
      "nativeName": "Ratkovići",
      "code": "ME-08-3339000",
      "countryId": 3194884,
      "countryCode": "ME",
      "stateCode": "ME-08",
      "latitude": 42.48139,
      "longitude": 18.51583
    },
    {
      "id": 3318211,
      "name": "Repaji",
      "nativeName": "Repaji",
      "code": "ME-08-3318211",
      "countryId": 3194884,
      "countryCode": "ME",
      "stateCode": "ME-08",
      "latitude": 42.46944,
      "longitude": 18.61222
    },
    {
      "id": 3191538,
      "name": "Rose",
      "nativeName": "Rose",
      "code": "ME-08-3191538",
      "countryId": 3194884,
      "countryCode": "ME",
      "stateCode": "ME-08",
      "latitude": 42.42722,
      "longitude": 18.55667
    },
    {
      "id": 3318213,
      "name": "Rujevo",
      "nativeName": "Rujevo",
      "code": "ME-08-3318213",
      "countryId": 3194884,
      "countryCode": "ME",
      "stateCode": "ME-08",
      "latitude": 42.45833,
      "longitude": 18.60944
    },
    {
      "id": 3338852,
      "name": "Rustovo",
      "nativeName": "Rustovo",
      "code": "ME-08-3338852",
      "countryId": 3194884,
      "countryCode": "ME",
      "stateCode": "ME-08",
      "latitude": 42.48861,
      "longitude": 18.45306
    },
    {
      "id": 3191252,
      "name": "Sasovići",
      "nativeName": "Sasovići",
      "code": "ME-08-3191252",
      "countryId": 3194884,
      "countryCode": "ME",
      "stateCode": "ME-08",
      "latitude": 42.47,
      "longitude": 18.56528
    },
    {
      "id": 3339192,
      "name": "Savina",
      "nativeName": "Savina",
      "code": "ME-08-3339192",
      "countryId": 3194884,
      "countryCode": "ME",
      "stateCode": "ME-08",
      "latitude": 42.45278,
      "longitude": 18.55417
    },
    {
      "id": 3208011,
      "name": "Savići",
      "nativeName": "Savići",
      "code": "ME-08-3208011",
      "countryId": 3194884,
      "countryCode": "ME",
      "stateCode": "ME-08",
      "latitude": 42.50972,
      "longitude": 18.61083
    },
    {
      "id": 3264248,
      "name": "Sitnica",
      "nativeName": "Sitnica",
      "code": "ME-08-3264248",
      "countryId": 3194884,
      "countryCode": "ME",
      "stateCode": "ME-08",
      "latitude": 42.55639,
      "longitude": 18.44806
    },
    {
      "id": 3339107,
      "name": "Spilice",
      "nativeName": "Spilice",
      "code": "ME-08-3339107",
      "countryId": 3194884,
      "countryCode": "ME",
      "stateCode": "ME-08",
      "latitude": 42.43139,
      "longitude": 18.57611
    },
    {
      "id": 3208412,
      "name": "Stijepčići",
      "nativeName": "Stijepčići",
      "code": "ME-08-3208412",
      "countryId": 3194884,
      "countryCode": "ME",
      "stateCode": "ME-08",
      "latitude": 42.48583,
      "longitude": 18.53833
    },
    {
      "id": 3339129,
      "name": "Stojkovići",
      "nativeName": "Stojkovići",
      "code": "ME-08-3339129",
      "countryId": 3194884,
      "countryCode": "ME",
      "stateCode": "ME-08",
      "latitude": 42.42194,
      "longitude": 18.58833
    },
    {
      "id": 3189685,
      "name": "Strp",
      "nativeName": "Strp",
      "code": "ME-08-3189685",
      "countryId": 3194884,
      "countryCode": "ME",
      "stateCode": "ME-08",
      "latitude": 42.50528,
      "longitude": 18.67028
    },
    {
      "id": 3339188,
      "name": "Sušići",
      "nativeName": "Sušići",
      "code": "ME-08-3339188",
      "countryId": 3194884,
      "countryCode": "ME",
      "stateCode": "ME-08",
      "latitude": 42.46,
      "longitude": 18.53417
    },
    {
      "id": 3189466,
      "name": "Sušćepan",
      "nativeName": "Sušćepan",
      "code": "ME-08-3189466",
      "countryId": 3194884,
      "countryCode": "ME",
      "stateCode": "ME-08",
      "latitude": 42.46806,
      "longitude": 18.5125
    },
    {
      "id": 3263600,
      "name": "Svrčuge",
      "nativeName": "Svrčuge",
      "code": "ME-08-3263600",
      "countryId": 3194884,
      "countryCode": "ME",
      "stateCode": "ME-08",
      "latitude": 42.50694,
      "longitude": 18.47806
    },
    {
      "id": 3339161,
      "name": "Tamnica",
      "nativeName": "Tamnica",
      "code": "ME-08-3339161",
      "countryId": 3194884,
      "countryCode": "ME",
      "stateCode": "ME-08",
      "latitude": 42.48194,
      "longitude": 18.53083
    },
    {
      "id": 3339147,
      "name": "Terzići",
      "nativeName": "Terzići",
      "code": "ME-08-3339147",
      "countryId": 3194884,
      "countryCode": "ME",
      "stateCode": "ME-08",
      "latitude": 42.48972,
      "longitude": 18.51611
    },
    {
      "id": 3339043,
      "name": "Tići",
      "nativeName": "Tići",
      "code": "ME-08-3339043",
      "countryId": 3194884,
      "countryCode": "ME",
      "stateCode": "ME-08",
      "latitude": 42.40722,
      "longitude": 18.58361
    },
    {
      "id": 3341079,
      "name": "Todorovići",
      "nativeName": "Todorovići",
      "code": "ME-08-3341079",
      "countryId": 3194884,
      "countryCode": "ME",
      "stateCode": "ME-08",
      "latitude": 42.4525,
      "longitude": 18.64417
    },
    {
      "id": 3263597,
      "name": "Tomaševići",
      "nativeName": "Tomaševići",
      "code": "ME-08-3263597",
      "countryId": 3194884,
      "countryCode": "ME",
      "stateCode": "ME-08",
      "latitude": 42.52917,
      "longitude": 18.4875
    },
    {
      "id": 3339190,
      "name": "Topla",
      "nativeName": "Topla",
      "code": "ME-08-3339190",
      "countryId": 3194884,
      "countryCode": "ME",
      "stateCode": "ME-08",
      "latitude": 42.45905,
      "longitude": 18.52708
    },
    {
      "id": 3188897,
      "name": "Trebesinj",
      "nativeName": "Trebesinj",
      "code": "ME-08-3188897",
      "countryId": 3194884,
      "countryCode": "ME",
      "stateCode": "ME-08",
      "latitude": 42.47222,
      "longitude": 18.52389
    },
    {
      "id": 3208343,
      "name": "Trojanovići",
      "nativeName": "Trojanovići",
      "code": "ME-08-3208343",
      "countryId": 3194884,
      "countryCode": "ME",
      "stateCode": "ME-08",
      "latitude": 42.42083,
      "longitude": 18.59694
    },
    {
      "id": 3338996,
      "name": "Tursko",
      "nativeName": "Tursko",
      "code": "ME-08-3338996",
      "countryId": 3194884,
      "countryCode": "ME",
      "stateCode": "ME-08",
      "latitude": 42.42694,
      "longitude": 18.52444
    },
    {
      "id": 3208410,
      "name": "Tušupi",
      "nativeName": "Tušupi",
      "code": "ME-08-3208410",
      "countryId": 3194884,
      "countryCode": "ME",
      "stateCode": "ME-08",
      "latitude": 42.46528,
      "longitude": 18.53056
    },
    {
      "id": 3318222,
      "name": "Vala",
      "nativeName": "Vala",
      "code": "ME-08-3318222",
      "countryId": 3194884,
      "countryCode": "ME",
      "stateCode": "ME-08",
      "latitude": 42.46194,
      "longitude": 18.64639
    },
    {
      "id": 3316968,
      "name": "Vasiljevići",
      "nativeName": "Vasiljevići",
      "code": "ME-08-3316968",
      "countryId": 3194884,
      "countryCode": "ME",
      "stateCode": "ME-08",
      "latitude": 42.5075,
      "longitude": 18.61944
    },
    {
      "id": 3339042,
      "name": "Večerići",
      "nativeName": "Večerići",
      "code": "ME-08-3339042",
      "countryId": 3194884,
      "countryCode": "ME",
      "stateCode": "ME-08",
      "latitude": 42.41139,
      "longitude": 18.57306
    },
    {
      "id": 3339208,
      "name": "Vlaovići",
      "nativeName": "Vlaovići",
      "code": "ME-08-3339208",
      "countryId": 3194884,
      "countryCode": "ME",
      "stateCode": "ME-08",
      "latitude": 42.48528,
      "longitude": 18.48333
    },
    {
      "id": 3208009,
      "name": "Vukasovići",
      "nativeName": "Vukasovići",
      "code": "ME-08-3208009",
      "countryId": 3194884,
      "countryCode": "ME",
      "stateCode": "ME-08",
      "latitude": 42.50778,
      "longitude": 18.61417
    },
    {
      "id": 3208014,
      "name": "Vukićevići",
      "nativeName": "Vukićevići",
      "code": "ME-08-3208014",
      "countryId": 3194884,
      "countryCode": "ME",
      "stateCode": "ME-08",
      "latitude": 42.51417,
      "longitude": 18.62639
    },
    {
      "id": 3220288,
      "name": "Vukovići",
      "nativeName": "Vukovići",
      "code": "ME-08-3220288",
      "countryId": 3194884,
      "countryCode": "ME",
      "stateCode": "ME-08",
      "latitude": 42.4625,
      "longitude": 18.65139
    },
    {
      "id": 3339136,
      "name": "Vučkovići",
      "nativeName": "Vučkovići",
      "code": "ME-08-3339136",
      "countryId": 3194884,
      "countryCode": "ME",
      "stateCode": "ME-08",
      "latitude": 42.47444,
      "longitude": 18.56389
    },
    {
      "id": 3339037,
      "name": "Zabrđe",
      "nativeName": "Zabrđe",
      "code": "ME-08-3339037",
      "countryId": 3194884,
      "countryCode": "ME",
      "stateCode": "ME-08",
      "latitude": 42.41917,
      "longitude": 18.59528
    },
    {
      "id": 3339084,
      "name": "Zambelići",
      "nativeName": "Zambelići",
      "code": "ME-08-3339084",
      "countryId": 3194884,
      "countryCode": "ME",
      "stateCode": "ME-08",
      "latitude": 42.39139,
      "longitude": 18.59639
    },
    {
      "id": 3341081,
      "name": "Zaušje",
      "nativeName": "Zaušje",
      "code": "ME-08-3341081",
      "countryId": 3194884,
      "countryCode": "ME",
      "stateCode": "ME-08",
      "latitude": 42.44917,
      "longitude": 18.62917
    },
    {
      "id": 3186616,
      "name": "Zelenika",
      "nativeName": "Zelenika",
      "code": "ME-08-3186616",
      "countryId": 3194884,
      "countryCode": "ME",
      "stateCode": "ME-08",
      "latitude": 42.45139,
      "longitude": 18.57667
    },
    {
      "id": 3341911,
      "name": "Zlokovići",
      "nativeName": "Zlokovići",
      "code": "ME-08-3341911",
      "countryId": 3194884,
      "countryCode": "ME",
      "stateCode": "ME-08",
      "latitude": 42.46306,
      "longitude": 18.65472
    },
    {
      "id": 3339133,
      "name": "Zmijice",
      "nativeName": "Zmijice",
      "code": "ME-08-3339133",
      "countryId": 3194884,
      "countryCode": "ME",
      "stateCode": "ME-08",
      "latitude": 42.44611,
      "longitude": 18.57806
    },
    {
      "id": 3200949,
      "name": "Ðurići",
      "nativeName": "Ðurići",
      "code": "ME-08-3200949",
      "countryId": 3194884,
      "countryCode": "ME",
      "stateCode": "ME-08",
      "latitude": 42.47111,
      "longitude": 18.67083
    },
    {
      "id": 3339138,
      "name": "Ðurovići",
      "nativeName": "Ðurovići",
      "code": "ME-08-3339138",
      "countryId": 3194884,
      "countryCode": "ME",
      "stateCode": "ME-08",
      "latitude": 42.48139,
      "longitude": 18.56139
    },
    {
      "id": 3338845,
      "name": "Čenići",
      "nativeName": "Čenići",
      "code": "ME-08-3338845",
      "countryId": 3194884,
      "countryCode": "ME",
      "stateCode": "ME-08",
      "latitude": 42.46833,
      "longitude": 18.47556
    },
    {
      "id": 8435799,
      "name": "Đenovići",
      "nativeName": "Đenovići",
      "code": "ME-08-8435799",
      "countryId": 3194884,
      "countryCode": "ME",
      "stateCode": "ME-08",
      "latitude": 42.43961,
      "longitude": 18.61404
    },
    {
      "id": 3339189,
      "name": "Španjola",
      "nativeName": "Španjola",
      "code": "ME-08-3339189",
      "countryId": 3194884,
      "countryCode": "ME",
      "stateCode": "ME-08",
      "latitude": 42.45778,
      "longitude": 18.53028
    },
    {
      "id": 3338959,
      "name": "Špilje",
      "nativeName": "Špilje",
      "code": "ME-08-3338959",
      "countryId": 3194884,
      "countryCode": "ME",
      "stateCode": "ME-08",
      "latitude": 42.45444,
      "longitude": 18.48639
    },
    {
      "id": 3339201,
      "name": "Ščepoševići",
      "nativeName": "Ščepoševići",
      "code": "ME-08-3339201",
      "countryId": 3194884,
      "countryCode": "ME",
      "stateCode": "ME-08",
      "latitude": 42.48167,
      "longitude": 18.46222
    },
    {
      "id": 3339089,
      "name": "Žanjica",
      "nativeName": "Žanjica",
      "code": "ME-08-3339089",
      "countryId": 3194884,
      "countryCode": "ME",
      "stateCode": "ME-08",
      "latitude": 42.39944,
      "longitude": 18.58111
    },
    {
      "id": 3207887,
      "name": "Ždrijelo",
      "nativeName": "Ždrijelo",
      "code": "ME-08-3207887",
      "countryId": 3194884,
      "countryCode": "ME",
      "stateCode": "ME-08",
      "latitude": 42.555,
      "longitude": 18.51056
    },
    {
      "id": 3341909,
      "name": "Želalići",
      "nativeName": "Želalići",
      "code": "ME-08-3341909",
      "countryId": 3194884,
      "countryCode": "ME",
      "stateCode": "ME-08",
      "latitude": 42.45694,
      "longitude": 18.64917
    },
    {
      "id": 3186389,
      "name": "Žlijebi",
      "nativeName": "Žlijebi",
      "code": "ME-08-3186389",
      "countryId": 3194884,
      "countryCode": "ME",
      "stateCode": "ME-08",
      "latitude": 42.48389,
      "longitude": 18.56306
    },
    {
      "id": 3338999,
      "name": "Župkovići",
      "nativeName": "Župkovići",
      "code": "ME-08-3338999",
      "countryId": 3194884,
      "countryCode": "ME",
      "stateCode": "ME-08",
      "latitude": 42.47194,
      "longitude": 18.50917
    },
    {
      "id": 3208409,
      "name": "Žvinje",
      "nativeName": "Žvinje",
      "code": "ME-08-3208409",
      "countryId": 3194884,
      "countryCode": "ME",
      "stateCode": "ME-08",
      "latitude": 42.44556,
      "longitude": 18.49917
    },
    {
      "id": 3199960,
      "name": "Gornji Morinj",
      "nativeName": "Gornji Morinj",
      "code": "ME-08-3199960",
      "countryId": 3194884,
      "countryCode": "ME",
      "stateCode": "ME-08",
      "latitude": 42.48778,
      "longitude": 18.615
    },
    {
      "id": 3207884,
      "name": "Kruševice",
      "nativeName": "Kruševice",
      "code": "ME-08-3207884",
      "countryId": 3194884,
      "countryCode": "ME",
      "stateCode": "ME-08",
      "latitude": 42.55222,
      "longitude": 18.51167
    },
    {
      "id": 3338826,
      "name": "Kuti",
      "nativeName": "Kuti",
      "code": "ME-08-3338826",
      "countryId": 3194884,
      "countryCode": "ME",
      "stateCode": "ME-08",
      "latitude": 42.46278,
      "longitude": 18.5825
    },
    {
      "id": 3339045,
      "name": "Luštica",
      "nativeName": "Luštica",
      "code": "ME-08-3339045",
      "countryId": 3194884,
      "countryCode": "ME",
      "stateCode": "ME-08",
      "latitude": 42.39667,
      "longitude": 18.60194
    },
    {
      "id": 3338830,
      "name": "Mojdež",
      "nativeName": "Mojdež",
      "code": "ME-08-3338830",
      "countryId": 3194884,
      "countryCode": "ME",
      "stateCode": "ME-08",
      "latitude": 42.48556,
      "longitude": 18.48972
    },
    {
      "id": 3194909,
      "name": "Mokrine",
      "nativeName": "Mokrine",
      "code": "ME-08-3194909",
      "countryId": 3194884,
      "countryCode": "ME",
      "stateCode": "ME-08",
      "latitude": 42.503,
      "longitude": 18.495
    },
    {
      "id": 3220271,
      "name": "Radovanići",
      "nativeName": "Radovanići",
      "code": "ME-08-3220271",
      "countryId": 3194884,
      "countryCode": "ME",
      "stateCode": "ME-08",
      "latitude": 42.39694,
      "longitude": 18.59972
    },
    {
      "id": 3264251,
      "name": "Rupe",
      "nativeName": "Rupe",
      "code": "ME-08-3264251",
      "countryId": 3194884,
      "countryCode": "ME",
      "stateCode": "ME-08",
      "latitude": 42.54333,
      "longitude": 18.46056
    },
    {
      "id": 3338844,
      "name": "Sutorina",
      "nativeName": "Sutorina",
      "code": "ME-08-3338844",
      "countryId": 3194884,
      "countryCode": "ME",
      "stateCode": "ME-08",
      "latitude": 42.47361,
      "longitude": 18.47389
    },
    {
      "id": 3188562,
      "name": "Ubli",
      "nativeName": "Ubli",
      "code": "ME-08-3188562",
      "countryId": 3194884,
      "countryCode": "ME",
      "stateCode": "ME-08",
      "latitude": 42.51139,
      "longitude": 18.62278
    },
    {
      "id": 3202096,
      "name": "Ðenovići",
      "nativeName": "Ðenovići",
      "code": "ME-08-3202096",
      "countryId": 3194884,
      "countryCode": "ME",
      "stateCode": "ME-08",
      "latitude": 42.43694,
      "longitude": 18.60222
    }
  ]
}