{
  "stateId": 3193160,
  "stateCode": "ME-14",
  "countryCode": "ME",
  "cities": [
    {
      "id": 3193161,
      "name": "Pljevlja",
      "nativeName": "Pljevlja",
      "code": "ME-14-3193161",
      "countryId": 3194884,
      "countryCode": "ME",
      "stateCode": "ME-14",
      "latitude": 43.3567,
      "longitude": 19.35843
    },
    {
      "id": 3304315,
      "name": "Alići",
      "nativeName": "Alići",
      "code": "ME-14-3304315",
      "countryId": 3194884,
      "countryCode": "ME",
      "stateCode": "ME-14",
      "latitude": 43.25583,
      "longitude": 19.35639
    },
    {
      "id": 3270986,
      "name": "Avlija",
      "nativeName": "Avlija",
      "code": "ME-14-3270986",
      "countryId": 3194884,
      "countryCode": "ME",
      "stateCode": "ME-14",
      "latitude": 43.52333,
      "longitude": 19.15722
    },
    {
      "id": 3297530,
      "name": "Bajovina",
      "nativeName": "Bajovina",
      "code": "ME-14-3297530",
      "countryId": 3194884,
      "countryCode": "ME",
      "stateCode": "ME-14",
      "latitude": 43.49139,
      "longitude": 19.14306
    },
    {
      "id": 3304017,
      "name": "Beljkovići",
      "nativeName": "Beljkovići",
      "code": "ME-14-3304017",
      "countryId": 3194884,
      "countryCode": "ME",
      "stateCode": "ME-14",
      "latitude": 43.17167,
      "longitude": 19.41583
    },
    {
      "id": 3304522,
      "name": "Bjelovo Brdo",
      "nativeName": "Bjelovo Brdo",
      "code": "ME-14-3304522",
      "countryId": 3194884,
      "countryCode": "ME",
      "stateCode": "ME-14",
      "latitude": 43.34056,
      "longitude": 19.26861
    },
    {
      "id": 3298654,
      "name": "Bjeloševina",
      "nativeName": "Bjeloševina",
      "code": "ME-14-3298654",
      "countryId": 3194884,
      "countryCode": "ME",
      "stateCode": "ME-14",
      "latitude": 43.44111,
      "longitude": 19.13306
    },
    {
      "id": 3203757,
      "name": "Boljanići",
      "nativeName": "Boljanići",
      "code": "ME-14-3203757",
      "countryId": 3194884,
      "countryCode": "ME",
      "stateCode": "ME-14",
      "latitude": 43.45556,
      "longitude": 19.21333
    },
    {
      "id": 3299066,
      "name": "Borišići",
      "nativeName": "Borišići",
      "code": "ME-14-3299066",
      "countryId": 3194884,
      "countryCode": "ME",
      "stateCode": "ME-14",
      "latitude": 43.48833,
      "longitude": 19.02
    },
    {
      "id": 3297529,
      "name": "Brekinja",
      "nativeName": "Brekinja",
      "code": "ME-14-3297529",
      "countryId": 3194884,
      "countryCode": "ME",
      "stateCode": "ME-14",
      "latitude": 43.48833,
      "longitude": 19.13417
    },
    {
      "id": 3304501,
      "name": "Brezova Ravan",
      "nativeName": "Brezova Ravan",
      "code": "ME-14-3304501",
      "countryId": 3194884,
      "countryCode": "ME",
      "stateCode": "ME-14",
      "latitude": 43.32667,
      "longitude": 19.23306
    },
    {
      "id": 11669415,
      "name": "Budechevitsa",
      "nativeName": "Budechevitsa",
      "code": "ME-14-11669415",
      "countryId": 3194884,
      "countryCode": "ME",
      "stateCode": "ME-14",
      "latitude": 43.14841,
      "longitude": 19.29169
    },
    {
      "id": 3304523,
      "name": "Bučje",
      "nativeName": "Bučje",
      "code": "ME-14-3304523",
      "countryId": 3194884,
      "countryCode": "ME",
      "stateCode": "ME-14",
      "latitude": 43.34,
      "longitude": 19.265
    },
    {
      "id": 3202686,
      "name": "Cerovci",
      "nativeName": "Cerovci",
      "code": "ME-14-3202686",
      "countryId": 3194884,
      "countryCode": "ME",
      "stateCode": "ME-14",
      "latitude": 43.38111,
      "longitude": 19.12583
    },
    {
      "id": 3297494,
      "name": "Crno Brdo",
      "nativeName": "Crno Brdo",
      "code": "ME-14-3297494",
      "countryId": 3194884,
      "countryCode": "ME",
      "stateCode": "ME-14",
      "latitude": 43.41333,
      "longitude": 19.17
    },
    {
      "id": 3304599,
      "name": "Dolinice",
      "nativeName": "Dolinice",
      "code": "ME-14-3304599",
      "countryId": 3194884,
      "countryCode": "ME",
      "stateCode": "ME-14",
      "latitude": 43.33833,
      "longitude": 19.43833
    },
    {
      "id": 3301187,
      "name": "Donja Orlja",
      "nativeName": "Donja Orlja",
      "code": "ME-14-3301187",
      "countryId": 3194884,
      "countryCode": "ME",
      "stateCode": "ME-14",
      "latitude": 43.37222,
      "longitude": 19.18417
    },
    {
      "id": 3191454,
      "name": "Donja Rudnica",
      "nativeName": "Donja Rudnica",
      "code": "ME-14-3191454",
      "countryId": 3194884,
      "countryCode": "ME",
      "stateCode": "ME-14",
      "latitude": 43.37944,
      "longitude": 19.32528
    },
    {
      "id": 3342666,
      "name": "Donje Stupine",
      "nativeName": "Donje Stupine",
      "code": "ME-14-3342666",
      "countryId": 3194884,
      "countryCode": "ME",
      "stateCode": "ME-14",
      "latitude": 43.40139,
      "longitude": 19.30222
    },
    {
      "id": 3201115,
      "name": "Donji Dubac",
      "nativeName": "Donji Dubac",
      "code": "ME-14-3201115",
      "countryId": 3194884,
      "countryCode": "ME",
      "stateCode": "ME-14",
      "latitude": 43.46722,
      "longitude": 19.09833
    },
    {
      "id": 3303997,
      "name": "Dovolja",
      "nativeName": "Dovolja",
      "code": "ME-14-3303997",
      "countryId": 3194884,
      "countryCode": "ME",
      "stateCode": "ME-14",
      "latitude": 43.12222,
      "longitude": 19.34444
    },
    {
      "id": 3201315,
      "name": "Dragaši",
      "nativeName": "Dragaši",
      "code": "ME-14-3201315",
      "countryId": 3194884,
      "countryCode": "ME",
      "stateCode": "ME-14",
      "latitude": 43.26639,
      "longitude": 19.25389
    },
    {
      "id": 3297484,
      "name": "Dublje",
      "nativeName": "Dublje",
      "code": "ME-14-3297484",
      "countryId": 3194884,
      "countryCode": "ME",
      "stateCode": "ME-14",
      "latitude": 43.43444,
      "longitude": 19.16861
    },
    {
      "id": 3342627,
      "name": "Dubrava",
      "nativeName": "Dubrava",
      "code": "ME-14-3342627",
      "countryId": 3194884,
      "countryCode": "ME",
      "stateCode": "ME-14",
      "latitude": 43.49361,
      "longitude": 19.21556
    },
    {
      "id": 3304707,
      "name": "Gajine",
      "nativeName": "Gajine",
      "code": "ME-14-3304707",
      "countryId": 3194884,
      "countryCode": "ME",
      "stateCode": "ME-14",
      "latitude": 43.395,
      "longitude": 19.28139
    },
    {
      "id": 3269444,
      "name": "Geuši",
      "nativeName": "Geuši",
      "code": "ME-14-3269444",
      "countryId": 3194884,
      "countryCode": "ME",
      "stateCode": "ME-14",
      "latitude": 43.50278,
      "longitude": 18.92417
    },
    {
      "id": 3304596,
      "name": "Golubinja",
      "nativeName": "Golubinja",
      "code": "ME-14-3304596",
      "countryId": 3194884,
      "countryCode": "ME",
      "stateCode": "ME-14",
      "latitude": 43.35917,
      "longitude": 19.38694
    },
    {
      "id": 3342667,
      "name": "Gornje Stupine",
      "nativeName": "Gornje Stupine",
      "code": "ME-14-3342667",
      "countryId": 3194884,
      "countryCode": "ME",
      "stateCode": "ME-14",
      "latitude": 43.39889,
      "longitude": 19.30722
    },
    {
      "id": 3199709,
      "name": "Gradina",
      "nativeName": "Gradina",
      "code": "ME-14-3199709",
      "countryId": 3194884,
      "countryCode": "ME",
      "stateCode": "ME-14",
      "latitude": 43.10028,
      "longitude": 19.34444
    },
    {
      "id": 3342657,
      "name": "Gradina",
      "nativeName": "Gradina",
      "code": "ME-14-3342657",
      "countryId": 3194884,
      "countryCode": "ME",
      "stateCode": "ME-14",
      "latitude": 43.39139,
      "longitude": 19.27889
    },
    {
      "id": 3295592,
      "name": "Hajlovina",
      "nativeName": "Hajlovina",
      "code": "ME-14-3295592",
      "countryId": 3194884,
      "countryCode": "ME",
      "stateCode": "ME-14",
      "latitude": 43.46667,
      "longitude": 18.97389
    },
    {
      "id": 3298442,
      "name": "Iva",
      "nativeName": "Iva",
      "code": "ME-14-3298442",
      "countryId": 3194884,
      "countryCode": "ME",
      "stateCode": "ME-14",
      "latitude": 43.3775,
      "longitude": 19.10194
    },
    {
      "id": 3198983,
      "name": "Jabuka",
      "nativeName": "Jabuka",
      "code": "ME-14-3198983",
      "countryId": 3194884,
      "countryCode": "ME",
      "stateCode": "ME-14",
      "latitude": 43.43667,
      "longitude": 19.14361
    },
    {
      "id": 3198947,
      "name": "Jagodni Do",
      "nativeName": "Jagodni Do",
      "code": "ME-14-3198947",
      "countryId": 3194884,
      "countryCode": "ME",
      "stateCode": "ME-14",
      "latitude": 43.45667,
      "longitude": 19.15056
    },
    {
      "id": 3298741,
      "name": "Jahovići",
      "nativeName": "Jahovići",
      "code": "ME-14-3298741",
      "countryId": 3194884,
      "countryCode": "ME",
      "stateCode": "ME-14",
      "latitude": 43.45,
      "longitude": 19.05917
    },
    {
      "id": 3304778,
      "name": "Jazbine",
      "nativeName": "Jazbine",
      "code": "ME-14-3304778",
      "countryId": 3194884,
      "countryCode": "ME",
      "stateCode": "ME-14",
      "latitude": 43.41917,
      "longitude": 19.27861
    },
    {
      "id": 3299031,
      "name": "Karačići",
      "nativeName": "Karačići",
      "code": "ME-14-3299031",
      "countryId": 3194884,
      "countryCode": "ME",
      "stateCode": "ME-14",
      "latitude": 43.405,
      "longitude": 19.19917
    },
    {
      "id": 3198198,
      "name": "Katun",
      "nativeName": "Katun",
      "code": "ME-14-3198198",
      "countryId": 3194884,
      "countryCode": "ME",
      "stateCode": "ME-14",
      "latitude": 43.27556,
      "longitude": 19.345
    },
    {
      "id": 3272891,
      "name": "Kave",
      "nativeName": "Kave",
      "code": "ME-14-3272891",
      "countryId": 3194884,
      "countryCode": "ME",
      "stateCode": "ME-14",
      "latitude": 43.52139,
      "longitude": 19.0175
    },
    {
      "id": 3298737,
      "name": "Klapusi",
      "nativeName": "Klapusi",
      "code": "ME-14-3298737",
      "countryId": 3194884,
      "countryCode": "ME",
      "stateCode": "ME-14",
      "latitude": 43.47833,
      "longitude": 19.0825
    },
    {
      "id": 3305548,
      "name": "Klještine",
      "nativeName": "Klještine",
      "code": "ME-14-3305548",
      "countryId": 3194884,
      "countryCode": "ME",
      "stateCode": "ME-14",
      "latitude": 43.11861,
      "longitude": 19.51639
    },
    {
      "id": 3304215,
      "name": "Klopet",
      "nativeName": "Klopet",
      "code": "ME-14-3304215",
      "countryId": 3194884,
      "countryCode": "ME",
      "stateCode": "ME-14",
      "latitude": 43.22611,
      "longitude": 19.47917
    },
    {
      "id": 3300610,
      "name": "Kolonija",
      "nativeName": "Kolonija",
      "code": "ME-14-3300610",
      "countryId": 3194884,
      "countryCode": "ME",
      "stateCode": "ME-14",
      "latitude": 43.38778,
      "longitude": 19.06528
    },
    {
      "id": 3304575,
      "name": "Komine",
      "nativeName": "Komine",
      "code": "ME-14-3304575",
      "countryId": 3194884,
      "countryCode": "ME",
      "stateCode": "ME-14",
      "latitude": 43.33667,
      "longitude": 19.31111
    },
    {
      "id": 3197705,
      "name": "Kordovina",
      "nativeName": "Kordovina",
      "code": "ME-14-3197705",
      "countryId": 3194884,
      "countryCode": "ME",
      "stateCode": "ME-14",
      "latitude": 43.20778,
      "longitude": 19.39056
    },
    {
      "id": 3340911,
      "name": "Kosanica",
      "nativeName": "Kosanica",
      "code": "ME-14-3340911",
      "countryId": 3194884,
      "countryCode": "ME",
      "stateCode": "ME-14",
      "latitude": 43.19306,
      "longitude": 19.32167
    },
    {
      "id": 3197544,
      "name": "Kotlajići",
      "nativeName": "Kotlajići",
      "code": "ME-14-3197544",
      "countryId": 3194884,
      "countryCode": "ME",
      "stateCode": "ME-14",
      "latitude": 43.13361,
      "longitude": 19.385
    },
    {
      "id": 3297467,
      "name": "Kotorac",
      "nativeName": "Kotorac",
      "code": "ME-14-3297467",
      "countryId": 3194884,
      "countryCode": "ME",
      "stateCode": "ME-14",
      "latitude": 43.43,
      "longitude": 19.18806
    },
    {
      "id": 3342612,
      "name": "Kovačevići",
      "nativeName": "Kovačevići",
      "code": "ME-14-3342612",
      "countryId": 3194884,
      "countryCode": "ME",
      "stateCode": "ME-14",
      "latitude": 43.41528,
      "longitude": 19.20139
    },
    {
      "id": 3197638,
      "name": "Košare",
      "nativeName": "Košare",
      "code": "ME-14-3197638",
      "countryId": 3194884,
      "countryCode": "ME",
      "stateCode": "ME-14",
      "latitude": 43.19222,
      "longitude": 19.34028
    },
    {
      "id": 3297573,
      "name": "Krstače",
      "nativeName": "Krstače",
      "code": "ME-14-3297573",
      "countryId": 3194884,
      "countryCode": "ME",
      "stateCode": "ME-14",
      "latitude": 43.46778,
      "longitude": 19.125
    },
    {
      "id": 3299092,
      "name": "Kruševo",
      "nativeName": "Kruševo",
      "code": "ME-14-3299092",
      "countryId": 3194884,
      "countryCode": "ME",
      "stateCode": "ME-14",
      "latitude": 43.40611,
      "longitude": 19.02917
    },
    {
      "id": 3197324,
      "name": "Krćevina",
      "nativeName": "Krćevina",
      "code": "ME-14-3197324",
      "countryId": 3194884,
      "countryCode": "ME",
      "stateCode": "ME-14",
      "latitude": 43.41667,
      "longitude": 19.25
    },
    {
      "id": 3299069,
      "name": "Kržava",
      "nativeName": "Kržava",
      "code": "ME-14-3299069",
      "countryId": 3194884,
      "countryCode": "ME",
      "stateCode": "ME-14",
      "latitude": 43.47389,
      "longitude": 18.99639
    },
    {
      "id": 3297682,
      "name": "Kukavice",
      "nativeName": "Kukavice",
      "code": "ME-14-3297682",
      "countryId": 3194884,
      "countryCode": "ME",
      "stateCode": "ME-14",
      "latitude": 43.5,
      "longitude": 19.08194
    },
    {
      "id": 3196673,
      "name": "Leovo Brdo",
      "nativeName": "Leovo Brdo",
      "code": "ME-14-3196673",
      "countryId": 3194884,
      "countryCode": "ME",
      "stateCode": "ME-14",
      "latitude": 43.38333,
      "longitude": 19.10861
    },
    {
      "id": 3304597,
      "name": "Ligatov Do",
      "nativeName": "Ligatov Do",
      "code": "ME-14-3304597",
      "countryId": 3194884,
      "countryCode": "ME",
      "stateCode": "ME-14",
      "latitude": 43.33528,
      "longitude": 19.4175
    },
    {
      "id": 3304240,
      "name": "Lijeska",
      "nativeName": "Lijeska",
      "code": "ME-14-3304240",
      "countryId": 3194884,
      "countryCode": "ME",
      "stateCode": "ME-14",
      "latitude": 43.22111,
      "longitude": 19.41167
    },
    {
      "id": 3304650,
      "name": "Lokvice",
      "nativeName": "Lokvice",
      "code": "ME-14-3304650",
      "countryId": 3194884,
      "countryCode": "ME",
      "stateCode": "ME-14",
      "latitude": 43.35889,
      "longitude": 19.425
    },
    {
      "id": 3342598,
      "name": "Lugovi",
      "nativeName": "Lugovi",
      "code": "ME-14-3342598",
      "countryId": 3194884,
      "countryCode": "ME",
      "stateCode": "ME-14",
      "latitude": 43.3725,
      "longitude": 19.22222
    },
    {
      "id": 3304437,
      "name": "Lukavice",
      "nativeName": "Lukavice",
      "code": "ME-14-3304437",
      "countryId": 3194884,
      "countryCode": "ME",
      "stateCode": "ME-14",
      "latitude": 43.30778,
      "longitude": 19.4175
    },
    {
      "id": 3304492,
      "name": "Malo Brdo",
      "nativeName": "Malo Brdo",
      "code": "ME-14-3304492",
      "countryId": 3194884,
      "countryCode": "ME",
      "stateCode": "ME-14",
      "latitude": 43.30861,
      "longitude": 19.245
    },
    {
      "id": 3195489,
      "name": "Marinac",
      "nativeName": "Marinac",
      "code": "ME-14-3195489",
      "countryId": 3194884,
      "countryCode": "ME",
      "stateCode": "ME-14",
      "latitude": 43.4925,
      "longitude": 19.00722
    },
    {
      "id": 3304453,
      "name": "Meljak",
      "nativeName": "Meljak",
      "code": "ME-14-3304453",
      "countryId": 3194884,
      "countryCode": "ME",
      "stateCode": "ME-14",
      "latitude": 43.31972,
      "longitude": 19.32389
    },
    {
      "id": 3195228,
      "name": "Metaljka",
      "nativeName": "Metaljka",
      "code": "ME-14-3195228",
      "countryId": 3194884,
      "countryCode": "ME",
      "stateCode": "ME-14",
      "latitude": 43.52833,
      "longitude": 19.1475
    },
    {
      "id": 3297439,
      "name": "Mironići",
      "nativeName": "Mironići",
      "code": "ME-14-3297439",
      "countryId": 3194884,
      "countryCode": "ME",
      "stateCode": "ME-14",
      "latitude": 43.45917,
      "longitude": 19.16972
    },
    {
      "id": 3194878,
      "name": "Moraice",
      "nativeName": "Moraice",
      "code": "ME-14-3194878",
      "countryId": 3194884,
      "countryCode": "ME",
      "stateCode": "ME-14",
      "latitude": 43.27194,
      "longitude": 19.13444
    },
    {
      "id": 3269408,
      "name": "Močevići",
      "nativeName": "Močevići",
      "code": "ME-14-3269408",
      "countryId": 3194884,
      "countryCode": "ME",
      "stateCode": "ME-14",
      "latitude": 43.54528,
      "longitude": 18.99361
    },
    {
      "id": 3194205,
      "name": "Odžak",
      "nativeName": "Odžak",
      "code": "ME-14-3194205",
      "countryId": 3194884,
      "countryCode": "ME",
      "stateCode": "ME-14",
      "latitude": 43.27222,
      "longitude": 19.35194
    },
    {
      "id": 3342600,
      "name": "Odžak",
      "nativeName": "Odžak",
      "code": "ME-14-3342600",
      "countryId": 3194884,
      "countryCode": "ME",
      "stateCode": "ME-14",
      "latitude": 43.36694,
      "longitude": 19.24083
    },
    {
      "id": 3193591,
      "name": "Pauče",
      "nativeName": "Pauče",
      "code": "ME-14-3193591",
      "countryId": 3194884,
      "countryCode": "ME",
      "stateCode": "ME-14",
      "latitude": 43.31889,
      "longitude": 19.285
    },
    {
      "id": 3299029,
      "name": "Pižuri",
      "nativeName": "Pižuri",
      "code": "ME-14-3299029",
      "countryId": 3194884,
      "countryCode": "ME",
      "stateCode": "ME-14",
      "latitude": 43.43611,
      "longitude": 19.20139
    },
    {
      "id": 3298709,
      "name": "Plakali",
      "nativeName": "Plakali",
      "code": "ME-14-3298709",
      "countryId": 3194884,
      "countryCode": "ME",
      "stateCode": "ME-14",
      "latitude": 43.45667,
      "longitude": 19.08806
    },
    {
      "id": 3305243,
      "name": "Pliješi",
      "nativeName": "Pliješi",
      "code": "ME-14-3305243",
      "countryId": 3194884,
      "countryCode": "ME",
      "stateCode": "ME-14",
      "latitude": 43.47667,
      "longitude": 19.21139
    },
    {
      "id": 3304043,
      "name": "Poda",
      "nativeName": "Poda",
      "code": "ME-14-3304043",
      "countryId": 3194884,
      "countryCode": "ME",
      "stateCode": "ME-14",
      "latitude": 43.15611,
      "longitude": 19.30611
    },
    {
      "id": 3304552,
      "name": "Podosoje",
      "nativeName": "Podosoje",
      "code": "ME-14-3304552",
      "countryId": 3194884,
      "countryCode": "ME",
      "stateCode": "ME-14",
      "latitude": 43.38778,
      "longitude": 19.24778
    },
    {
      "id": 3192633,
      "name": "Podtrlica",
      "nativeName": "Podtrlica",
      "code": "ME-14-3192633",
      "countryId": 3194884,
      "countryCode": "ME",
      "stateCode": "ME-14",
      "latitude": 43.34444,
      "longitude": 19.36972
    },
    {
      "id": 3192720,
      "name": "Popov Do",
      "nativeName": "Popov Do",
      "code": "ME-14-3192720",
      "countryId": 3194884,
      "countryCode": "ME",
      "stateCode": "ME-14",
      "latitude": 43.37333,
      "longitude": 19.10194
    },
    {
      "id": 3297684,
      "name": "Potkamen",
      "nativeName": "Potkamen",
      "code": "ME-14-3297684",
      "countryId": 3194884,
      "countryCode": "ME",
      "stateCode": "ME-14",
      "latitude": 43.48528,
      "longitude": 19.06944
    },
    {
      "id": 3297116,
      "name": "Potkokot",
      "nativeName": "Potkokot",
      "code": "ME-14-3297116",
      "countryId": 3194884,
      "countryCode": "ME",
      "stateCode": "ME-14",
      "latitude": 43.28861,
      "longitude": 19.10528
    },
    {
      "id": 3304779,
      "name": "Potkovačica",
      "nativeName": "Potkovačica",
      "code": "ME-14-3304779",
      "countryId": 3194884,
      "countryCode": "ME",
      "stateCode": "ME-14",
      "latitude": 43.42833,
      "longitude": 19.27028
    },
    {
      "id": 3304238,
      "name": "Potkrajci",
      "nativeName": "Potkrajci",
      "code": "ME-14-3304238",
      "countryId": 3194884,
      "countryCode": "ME",
      "stateCode": "ME-14",
      "latitude": 43.22444,
      "longitude": 19.43861
    },
    {
      "id": 3304595,
      "name": "Potkraš",
      "nativeName": "Potkraš",
      "code": "ME-14-3304595",
      "countryId": 3194884,
      "countryCode": "ME",
      "stateCode": "ME-14",
      "latitude": 43.33194,
      "longitude": 19.40806
    },
    {
      "id": 3304581,
      "name": "Potkruša",
      "nativeName": "Potkruša",
      "code": "ME-14-3304581",
      "countryId": 3194884,
      "countryCode": "ME",
      "stateCode": "ME-14",
      "latitude": 43.33556,
      "longitude": 19.28944
    },
    {
      "id": 3341077,
      "name": "Potpal",
      "nativeName": "Potpal",
      "code": "ME-14-3341077",
      "countryId": 3194884,
      "countryCode": "ME",
      "stateCode": "ME-14",
      "latitude": 43.48306,
      "longitude": 19.045
    },
    {
      "id": 3192606,
      "name": "Pračica",
      "nativeName": "Pračica",
      "code": "ME-14-3192606",
      "countryId": 3194884,
      "countryCode": "ME",
      "stateCode": "ME-14",
      "latitude": 43.40417,
      "longitude": 19.10917
    },
    {
      "id": 3301020,
      "name": "Prehari",
      "nativeName": "Prehari",
      "code": "ME-14-3301020",
      "countryId": 3194884,
      "countryCode": "ME",
      "stateCode": "ME-14",
      "latitude": 43.46972,
      "longitude": 19.08444
    },
    {
      "id": 3269254,
      "name": "Prisoje",
      "nativeName": "Prisoje",
      "code": "ME-14-3269254",
      "countryId": 3194884,
      "countryCode": "ME",
      "stateCode": "ME-14",
      "latitude": 43.52167,
      "longitude": 19.17056
    },
    {
      "id": 3341062,
      "name": "Prošče",
      "nativeName": "Prošče",
      "code": "ME-14-3341062",
      "countryId": 3194884,
      "countryCode": "ME",
      "stateCode": "ME-14",
      "latitude": 43.44333,
      "longitude": 19.09278
    },
    {
      "id": 3192202,
      "name": "Pušanjski Do",
      "nativeName": "Pušanjski Do",
      "code": "ME-14-3192202",
      "countryId": 3194884,
      "countryCode": "ME",
      "stateCode": "ME-14",
      "latitude": 43.16361,
      "longitude": 19.33
    },
    {
      "id": 3192170,
      "name": "Rabitlje",
      "nativeName": "Rabitlje",
      "code": "ME-14-3192170",
      "countryId": 3194884,
      "countryCode": "ME",
      "stateCode": "ME-14",
      "latitude": 43.305,
      "longitude": 19.3825
    },
    {
      "id": 3304420,
      "name": "Raganice",
      "nativeName": "Raganice",
      "code": "ME-14-3304420",
      "countryId": 3194884,
      "countryCode": "ME",
      "stateCode": "ME-14",
      "latitude": 43.27556,
      "longitude": 19.47556
    },
    {
      "id": 3297518,
      "name": "Rajišići",
      "nativeName": "Rajišići",
      "code": "ME-14-3297518",
      "countryId": 3194884,
      "countryCode": "ME",
      "stateCode": "ME-14",
      "latitude": 43.49556,
      "longitude": 19.11056
    },
    {
      "id": 3304686,
      "name": "Raovići",
      "nativeName": "Raovići",
      "code": "ME-14-3304686",
      "countryId": 3194884,
      "countryCode": "ME",
      "stateCode": "ME-14",
      "latitude": 43.39222,
      "longitude": 19.21444
    },
    {
      "id": 3304332,
      "name": "Rasno",
      "nativeName": "Rasno",
      "code": "ME-14-3304332",
      "countryId": 3194884,
      "countryCode": "ME",
      "stateCode": "ME-14",
      "latitude": 43.255,
      "longitude": 19.38722
    },
    {
      "id": 3273299,
      "name": "Ravni",
      "nativeName": "Ravni",
      "code": "ME-14-3273299",
      "countryId": 3194884,
      "countryCode": "ME",
      "stateCode": "ME-14",
      "latitude": 43.53389,
      "longitude": 19.02806
    },
    {
      "id": 3298827,
      "name": "Raščići",
      "nativeName": "Raščići",
      "code": "ME-14-3298827",
      "countryId": 3194884,
      "countryCode": "ME",
      "stateCode": "ME-14",
      "latitude": 43.47222,
      "longitude": 19.04972
    },
    {
      "id": 3298775,
      "name": "Romač",
      "nativeName": "Romač",
      "code": "ME-14-3298775",
      "countryId": 3194884,
      "countryCode": "ME",
      "stateCode": "ME-14",
      "latitude": 43.44639,
      "longitude": 19.04333
    },
    {
      "id": 3304561,
      "name": "Rondovići",
      "nativeName": "Rondovići",
      "code": "ME-14-3304561",
      "countryId": 3194884,
      "countryCode": "ME",
      "stateCode": "ME-14",
      "latitude": 43.36556,
      "longitude": 19.29444
    },
    {
      "id": 3342681,
      "name": "Rujevica",
      "nativeName": "Rujevica",
      "code": "ME-14-3342681",
      "countryId": 3194884,
      "countryCode": "ME",
      "stateCode": "ME-14",
      "latitude": 43.33861,
      "longitude": 19.24611
    },
    {
      "id": 3304663,
      "name": "Ručevac",
      "nativeName": "Ručevac",
      "code": "ME-14-3304663",
      "countryId": 3194884,
      "countryCode": "ME",
      "stateCode": "ME-14",
      "latitude": 43.36139,
      "longitude": 19.37833
    },
    {
      "id": 3298742,
      "name": "Sirčići",
      "nativeName": "Sirčići",
      "code": "ME-14-3298742",
      "countryId": 3194884,
      "countryCode": "ME",
      "stateCode": "ME-14",
      "latitude": 43.4575,
      "longitude": 19.05944
    },
    {
      "id": 3304648,
      "name": "Slatina",
      "nativeName": "Slatina",
      "code": "ME-14-3304648",
      "countryId": 3194884,
      "countryCode": "ME",
      "stateCode": "ME-14",
      "latitude": 43.35889,
      "longitude": 19.44444
    },
    {
      "id": 3304117,
      "name": "Stančani",
      "nativeName": "Stančani",
      "code": "ME-14-3304117",
      "countryId": 3194884,
      "countryCode": "ME",
      "stateCode": "ME-14",
      "latitude": 43.19889,
      "longitude": 19.36917
    },
    {
      "id": 3298739,
      "name": "Tvrdakovići",
      "nativeName": "Tvrdakovići",
      "code": "ME-14-3298739",
      "countryId": 3194884,
      "countryCode": "ME",
      "stateCode": "ME-14",
      "latitude": 43.45917,
      "longitude": 19.04972
    },
    {
      "id": 3297527,
      "name": "Ulica",
      "nativeName": "Ulica",
      "code": "ME-14-3297527",
      "countryId": 3194884,
      "countryCode": "ME",
      "stateCode": "ME-14",
      "latitude": 43.49694,
      "longitude": 19.12889
    },
    {
      "id": 3303409,
      "name": "Umkovina",
      "nativeName": "Umkovina",
      "code": "ME-14-3303409",
      "countryId": 3194884,
      "countryCode": "ME",
      "stateCode": "ME-14",
      "latitude": 43.49528,
      "longitude": 19.06972
    },
    {
      "id": 3304293,
      "name": "Uremovići",
      "nativeName": "Uremovići",
      "code": "ME-14-3304293",
      "countryId": 3194884,
      "countryCode": "ME",
      "stateCode": "ME-14",
      "latitude": 43.25917,
      "longitude": 19.33083
    },
    {
      "id": 3188345,
      "name": "Vaškovo",
      "nativeName": "Vaškovo",
      "code": "ME-14-3188345",
      "countryId": 3194884,
      "countryCode": "ME",
      "stateCode": "ME-14",
      "latitude": 43.09417,
      "longitude": 19.40194
    },
    {
      "id": 3298445,
      "name": "Vijenac",
      "nativeName": "Vijenac",
      "code": "ME-14-3298445",
      "countryId": 3194884,
      "countryCode": "ME",
      "stateCode": "ME-14",
      "latitude": 43.38861,
      "longitude": 19.09556
    },
    {
      "id": 3304325,
      "name": "Vilići",
      "nativeName": "Vilići",
      "code": "ME-14-3304325",
      "countryId": 3194884,
      "countryCode": "ME",
      "stateCode": "ME-14",
      "latitude": 43.25556,
      "longitude": 19.3725
    },
    {
      "id": 3317744,
      "name": "Vlaovići",
      "nativeName": "Vlaovići",
      "code": "ME-14-3317744",
      "countryId": 3194884,
      "countryCode": "ME",
      "stateCode": "ME-14",
      "latitude": 43.24167,
      "longitude": 19.29056
    },
    {
      "id": 3339305,
      "name": "Vodno",
      "nativeName": "Vodno",
      "code": "ME-14-3339305",
      "countryId": 3194884,
      "countryCode": "ME",
      "stateCode": "ME-14",
      "latitude": 43.17861,
      "longitude": 19.51056
    },
    {
      "id": 3295568,
      "name": "Vojnići",
      "nativeName": "Vojnići",
      "code": "ME-14-3295568",
      "countryId": 3194884,
      "countryCode": "ME",
      "stateCode": "ME-14",
      "latitude": 43.48139,
      "longitude": 18.98833
    },
    {
      "id": 3187440,
      "name": "Vojtina",
      "nativeName": "Vojtina",
      "code": "ME-14-3187440",
      "countryId": 3194884,
      "countryCode": "ME",
      "stateCode": "ME-14",
      "latitude": 43.42333,
      "longitude": 19.16306
    },
    {
      "id": 3341034,
      "name": "Vrba",
      "nativeName": "Vrba",
      "code": "ME-14-3341034",
      "countryId": 3194884,
      "countryCode": "ME",
      "stateCode": "ME-14",
      "latitude": 43.345,
      "longitude": 19.13306
    },
    {
      "id": 3295682,
      "name": "Vukasovići",
      "nativeName": "Vukasovići",
      "code": "ME-14-3295682",
      "countryId": 3194884,
      "countryCode": "ME",
      "stateCode": "ME-14",
      "latitude": 43.47,
      "longitude": 18.98833
    },
    {
      "id": 3299175,
      "name": "Vukovići",
      "nativeName": "Vukovići",
      "code": "ME-14-3299175",
      "countryId": 3194884,
      "countryCode": "ME",
      "stateCode": "ME-14",
      "latitude": 43.28583,
      "longitude": 19.03528
    },
    {
      "id": 3304449,
      "name": "Zabrđe",
      "nativeName": "Zabrđe",
      "code": "ME-14-3304449",
      "countryId": 3194884,
      "countryCode": "ME",
      "stateCode": "ME-14",
      "latitude": 43.31778,
      "longitude": 19.33028
    },
    {
      "id": 3304487,
      "name": "Zaorine",
      "nativeName": "Zaorine",
      "code": "ME-14-3304487",
      "countryId": 3194884,
      "countryCode": "ME",
      "stateCode": "ME-14",
      "latitude": 43.30417,
      "longitude": 19.23278
    },
    {
      "id": 3297437,
      "name": "Zaselje",
      "nativeName": "Zaselje",
      "code": "ME-14-3297437",
      "countryId": 3194884,
      "countryCode": "ME",
      "stateCode": "ME-14",
      "latitude": 43.44667,
      "longitude": 19.19222
    },
    {
      "id": 3304576,
      "name": "Zbljevo",
      "nativeName": "Zbljevo",
      "code": "ME-14-3304576",
      "countryId": 3194884,
      "countryCode": "ME",
      "stateCode": "ME-14",
      "latitude": 43.32722,
      "longitude": 19.30667
    },
    {
      "id": 3186626,
      "name": "Zekavice",
      "nativeName": "Zekavice",
      "code": "ME-14-3186626",
      "countryId": 3194884,
      "countryCode": "ME",
      "stateCode": "ME-14",
      "latitude": 43.2675,
      "longitude": 19.38083
    },
    {
      "id": 3304301,
      "name": "Zmajevac",
      "nativeName": "Zmajevac",
      "code": "ME-14-3304301",
      "countryId": 3194884,
      "countryCode": "ME",
      "stateCode": "ME-14",
      "latitude": 43.25,
      "longitude": 19.34639
    },
    {
      "id": 3303925,
      "name": "Ćurukača",
      "nativeName": "Ćurukača",
      "code": "ME-14-3303925",
      "countryId": 3194884,
      "countryCode": "ME",
      "stateCode": "ME-14",
      "latitude": 43.08361,
      "longitude": 19.36528
    },
    {
      "id": 3297458,
      "name": "Čardak",
      "nativeName": "Čardak",
      "code": "ME-14-3297458",
      "countryId": 3194884,
      "countryCode": "ME",
      "stateCode": "ME-14",
      "latitude": 43.44722,
      "longitude": 19.17972
    },
    {
      "id": 3202836,
      "name": "Čavanj",
      "nativeName": "Čavanj",
      "code": "ME-14-3202836",
      "countryId": 3194884,
      "countryCode": "ME",
      "stateCode": "ME-14",
      "latitude": 43.1525,
      "longitude": 19.36139
    },
    {
      "id": 3190546,
      "name": "Šljuke",
      "nativeName": "Šljuke",
      "code": "ME-14-3190546",
      "countryId": 3194884,
      "countryCode": "ME",
      "stateCode": "ME-14",
      "latitude": 43.36111,
      "longitude": 19.12778
    },
    {
      "id": 3189519,
      "name": "Šumani",
      "nativeName": "Šumani",
      "code": "ME-14-3189519",
      "countryId": 3194884,
      "countryCode": "ME",
      "stateCode": "ME-14",
      "latitude": 43.29306,
      "longitude": 19.32583
    },
    {
      "id": 3186467,
      "name": "Židovići",
      "nativeName": "Židovići",
      "code": "ME-14-3186467",
      "countryId": 3194884,
      "countryCode": "ME",
      "stateCode": "ME-14",
      "latitude": 43.35444,
      "longitude": 19.31722
    },
    {
      "id": 3203641,
      "name": "Baščinovići",
      "nativeName": "Baščinovići",
      "code": "ME-14-3203641",
      "countryId": 3194884,
      "countryCode": "ME",
      "stateCode": "ME-14",
      "latitude": 43.28778,
      "longitude": 19.35083
    },
    {
      "id": 3203868,
      "name": "Bobovo",
      "nativeName": "Bobovo",
      "code": "ME-14-3203868",
      "countryId": 3194884,
      "countryCode": "ME",
      "stateCode": "ME-14",
      "latitude": 43.27056,
      "longitude": 19.12944
    },
    {
      "id": 3203696,
      "name": "Borova",
      "nativeName": "Borova",
      "code": "ME-14-3203696",
      "countryId": 3194884,
      "countryCode": "ME",
      "stateCode": "ME-14",
      "latitude": 43.17167,
      "longitude": 19.44806
    },
    {
      "id": 3304451,
      "name": "Borovica",
      "nativeName": "Borovica",
      "code": "ME-14-3304451",
      "countryId": 3194884,
      "countryCode": "ME",
      "stateCode": "ME-14",
      "latitude": 43.30361,
      "longitude": 19.31583
    },
    {
      "id": 3300216,
      "name": "Brda",
      "nativeName": "Brda",
      "code": "ME-14-3300216",
      "countryId": 3194884,
      "countryCode": "ME",
      "stateCode": "ME-14",
      "latitude": 43.47583,
      "longitude": 19.04528
    },
    {
      "id": 3203095,
      "name": "Bujake",
      "nativeName": "Bujake",
      "code": "ME-14-3203095",
      "countryId": 3194884,
      "countryCode": "ME",
      "stateCode": "ME-14",
      "latitude": 43.16806,
      "longitude": 19.39306
    },
    {
      "id": 3202959,
      "name": "Bušnje",
      "nativeName": "Bušnje",
      "code": "ME-14-3202959",
      "countryId": 3194884,
      "countryCode": "ME",
      "stateCode": "ME-14",
      "latitude": 43.37806,
      "longitude": 19.27972
    },
    {
      "id": 3202482,
      "name": "Crljenice",
      "nativeName": "Crljenice",
      "code": "ME-14-3202482",
      "countryId": 3194884,
      "countryCode": "ME",
      "stateCode": "ME-14",
      "latitude": 43.36528,
      "longitude": 19.41583
    },
    {
      "id": 3202355,
      "name": "Crni Vrh",
      "nativeName": "Crni Vrh",
      "code": "ME-14-3202355",
      "countryId": 3194884,
      "countryCode": "ME",
      "stateCode": "ME-14",
      "latitude": 43.38667,
      "longitude": 19.40389
    },
    {
      "id": 3304286,
      "name": "Crnobori",
      "nativeName": "Crnobori",
      "code": "ME-14-3304286",
      "countryId": 3194884,
      "countryCode": "ME",
      "stateCode": "ME-14",
      "latitude": 43.25417,
      "longitude": 19.30806
    },
    {
      "id": 3201709,
      "name": "Donja Brvenica",
      "nativeName": "Donja Brvenica",
      "code": "ME-14-3201709",
      "countryId": 3194884,
      "countryCode": "ME",
      "stateCode": "ME-14",
      "latitude": 43.37361,
      "longitude": 19.22833
    },
    {
      "id": 3269375,
      "name": "Dužice",
      "nativeName": "Dužice",
      "code": "ME-14-3269375",
      "countryId": 3194884,
      "countryCode": "ME",
      "stateCode": "ME-14",
      "latitude": 43.52917,
      "longitude": 19.02389
    },
    {
      "id": 3200604,
      "name": "Glibaći",
      "nativeName": "Glibaći",
      "code": "ME-14-3200604",
      "countryId": 3194884,
      "countryCode": "ME",
      "stateCode": "ME-14",
      "latitude": 43.22028,
      "longitude": 19.2375
    },
    {
      "id": 3200588,
      "name": "Glisnica",
      "nativeName": "Glisnica",
      "code": "ME-14-3200588",
      "countryId": 3194884,
      "countryCode": "ME",
      "stateCode": "ME-14",
      "latitude": 43.40639,
      "longitude": 19.20806
    },
    {
      "id": 3200276,
      "name": "Gornja Brvenica",
      "nativeName": "Gornja Brvenica",
      "code": "ME-14-3200276",
      "countryId": 3194884,
      "countryCode": "ME",
      "stateCode": "ME-14",
      "latitude": 43.37861,
      "longitude": 19.23528
    },
    {
      "id": 3304284,
      "name": "Gornje Selo",
      "nativeName": "Gornje Selo",
      "code": "ME-14-3304284",
      "countryId": 3194884,
      "countryCode": "ME",
      "stateCode": "ME-14",
      "latitude": 43.26417,
      "longitude": 19.29389
    },
    {
      "id": 3199855,
      "name": "Gotovuša",
      "nativeName": "Gotovuša",
      "code": "ME-14-3199855",
      "countryId": 3194884,
      "countryCode": "ME",
      "stateCode": "ME-14",
      "latitude": 43.40111,
      "longitude": 19.29028
    },
    {
      "id": 3199581,
      "name": "Grevo",
      "nativeName": "Grevo",
      "code": "ME-14-3199581",
      "countryId": 3194884,
      "countryCode": "ME",
      "stateCode": "ME-14",
      "latitude": 43.32,
      "longitude": 19.34639
    },
    {
      "id": 3199367,
      "name": "Hoćevina",
      "nativeName": "Hoćevina",
      "code": "ME-14-3199367",
      "countryId": 3194884,
      "countryCode": "ME",
      "stateCode": "ME-14",
      "latitude": 43.31806,
      "longitude": 19.24806
    },
    {
      "id": 3198562,
      "name": "Jugovo",
      "nativeName": "Jugovo",
      "code": "ME-14-3198562",
      "countryId": 3194884,
      "countryCode": "ME",
      "stateCode": "ME-14",
      "latitude": 43.40306,
      "longitude": 19.32722
    },
    {
      "id": 3198486,
      "name": "Kakmuži",
      "nativeName": "Kakmuži",
      "code": "ME-14-3198486",
      "countryId": 3194884,
      "countryCode": "ME",
      "stateCode": "ME-14",
      "latitude": 43.28861,
      "longitude": 19.22778
    },
    {
      "id": 3198429,
      "name": "Kalušići",
      "nativeName": "Kalušići",
      "code": "ME-14-3198429",
      "countryId": 3194884,
      "countryCode": "ME",
      "stateCode": "ME-14",
      "latitude": 43.33667,
      "longitude": 19.34167
    },
    {
      "id": 3269326,
      "name": "Klakorina",
      "nativeName": "Klakorina",
      "code": "ME-14-3269326",
      "countryId": 3194884,
      "countryCode": "ME",
      "stateCode": "ME-14",
      "latitude": 43.51389,
      "longitude": 19.03806
    },
    {
      "id": 3197887,
      "name": "Kolijevka",
      "nativeName": "Kolijevka",
      "code": "ME-14-3197887",
      "countryId": 3194884,
      "countryCode": "ME",
      "stateCode": "ME-14",
      "latitude": 43.29972,
      "longitude": 19.1
    },
    {
      "id": 3304566,
      "name": "Kotline",
      "nativeName": "Kotline",
      "code": "ME-14-3304566",
      "countryId": 3194884,
      "countryCode": "ME",
      "stateCode": "ME-14",
      "latitude": 43.38167,
      "longitude": 19.31389
    },
    {
      "id": 3297378,
      "name": "Kovać",
      "nativeName": "Kovać",
      "code": "ME-14-3297378",
      "countryId": 3194884,
      "countryCode": "ME",
      "stateCode": "ME-14",
      "latitude": 43.48083,
      "longitude": 19.18972
    },
    {
      "id": 3197471,
      "name": "Kozica",
      "nativeName": "Kozica",
      "code": "ME-14-3197471",
      "countryId": 3194884,
      "countryCode": "ME",
      "stateCode": "ME-14",
      "latitude": 43.22972,
      "longitude": 19.5325
    },
    {
      "id": 3197110,
      "name": "Krupice",
      "nativeName": "Krupice",
      "code": "ME-14-3197110",
      "countryId": 3194884,
      "countryCode": "ME",
      "stateCode": "ME-14",
      "latitude": 43.12167,
      "longitude": 19.43806
    },
    {
      "id": 3196824,
      "name": "Lađana",
      "nativeName": "Lađana",
      "code": "ME-14-3196824",
      "countryId": 3194884,
      "countryCode": "ME",
      "stateCode": "ME-14",
      "latitude": 43.30556,
      "longitude": 19.26917
    },
    {
      "id": 3196619,
      "name": "Lever Tara",
      "nativeName": "Lever Tara",
      "code": "ME-14-3196619",
      "countryId": 3194884,
      "countryCode": "ME",
      "stateCode": "ME-14",
      "latitude": 43.18111,
      "longitude": 19.24833
    },
    {
      "id": 3196310,
      "name": "Ljutići",
      "nativeName": "Ljutići",
      "code": "ME-14-3196310",
      "countryId": 3194884,
      "countryCode": "ME",
      "stateCode": "ME-14",
      "latitude": 43.24083,
      "longitude": 19.45639
    },
    {
      "id": 3342676,
      "name": "Ljuće",
      "nativeName": "Ljuće",
      "code": "ME-14-3342676",
      "countryId": 3194884,
      "countryCode": "ME",
      "stateCode": "ME-14",
      "latitude": 43.31,
      "longitude": 19.30667
    },
    {
      "id": 3342949,
      "name": "Male Krće",
      "nativeName": "Male Krće",
      "code": "ME-14-3342949",
      "countryId": 3194884,
      "countryCode": "ME",
      "stateCode": "ME-14",
      "latitude": 43.41778,
      "longitude": 19.28167
    },
    {
      "id": 3195525,
      "name": "Maoče",
      "nativeName": "Maoče",
      "code": "ME-14-3195525",
      "countryId": 3194884,
      "countryCode": "ME",
      "stateCode": "ME-14",
      "latitude": 43.20333,
      "longitude": 19.41472
    },
    {
      "id": 3195387,
      "name": "Mataruge",
      "nativeName": "Mataruge",
      "code": "ME-14-3195387",
      "countryId": 3194884,
      "countryCode": "ME",
      "stateCode": "ME-14",
      "latitude": 43.26583,
      "longitude": 19.45889
    },
    {
      "id": 3195170,
      "name": "Mijakovići",
      "nativeName": "Mijakovići",
      "code": "ME-14-3195170",
      "countryId": 3194884,
      "countryCode": "ME",
      "stateCode": "ME-14",
      "latitude": 43.23111,
      "longitude": 19.38083
    },
    {
      "id": 3195075,
      "name": "Milunići",
      "nativeName": "Milunići",
      "code": "ME-14-3195075",
      "countryId": 3194884,
      "countryCode": "ME",
      "stateCode": "ME-14",
      "latitude": 43.38694,
      "longitude": 19.33972
    },
    {
      "id": 3304441,
      "name": "Mrzovići",
      "nativeName": "Mrzovići",
      "code": "ME-14-3304441",
      "countryId": 3194884,
      "countryCode": "ME",
      "stateCode": "ME-14",
      "latitude": 43.31611,
      "longitude": 19.36333
    },
    {
      "id": 3194748,
      "name": "Mrčevo",
      "nativeName": "Mrčevo",
      "code": "ME-14-3194748",
      "countryId": 3194884,
      "countryCode": "ME",
      "stateCode": "ME-14",
      "latitude": 43.41639,
      "longitude": 19.125
    },
    {
      "id": 3295680,
      "name": "Mrčići",
      "nativeName": "Mrčići",
      "code": "ME-14-3295680",
      "countryId": 3194884,
      "countryCode": "ME",
      "stateCode": "ME-14",
      "latitude": 43.46556,
      "longitude": 18.98361
    },
    {
      "id": 3194591,
      "name": "Nange",
      "nativeName": "Nange",
      "code": "ME-14-3194591",
      "countryId": 3194884,
      "countryCode": "ME",
      "stateCode": "ME-14",
      "latitude": 43.42056,
      "longitude": 19.09611
    },
    {
      "id": 3194304,
      "name": "Obarde",
      "nativeName": "Obarde",
      "code": "ME-14-3194304",
      "countryId": 3194884,
      "countryCode": "ME",
      "stateCode": "ME-14",
      "latitude": 43.29083,
      "longitude": 19.5175
    },
    {
      "id": 3194185,
      "name": "Ograđenica",
      "nativeName": "Ograđenica",
      "code": "ME-14-3194185",
      "countryId": 3194884,
      "countryCode": "ME",
      "stateCode": "ME-14",
      "latitude": 43.25,
      "longitude": 19.08806
    },
    {
      "id": 3193992,
      "name": "Orlja",
      "nativeName": "Orlja",
      "code": "ME-14-3193992",
      "countryId": 3194884,
      "countryCode": "ME",
      "stateCode": "ME-14",
      "latitude": 43.38583,
      "longitude": 19.19556
    },
    {
      "id": 3193795,
      "name": "Otilovići",
      "nativeName": "Otilovići",
      "code": "ME-14-3193795",
      "countryId": 3194884,
      "countryCode": "ME",
      "stateCode": "ME-14",
      "latitude": 43.32083,
      "longitude": 19.41361
    },
    {
      "id": 3193445,
      "name": "Petine",
      "nativeName": "Petine",
      "code": "ME-14-3193445",
      "countryId": 3194884,
      "countryCode": "ME",
      "stateCode": "ME-14",
      "latitude": 43.41889,
      "longitude": 19.05722
    },
    {
      "id": 3193181,
      "name": "Pliješevina",
      "nativeName": "Pliješevina",
      "code": "ME-14-3193181",
      "countryId": 3194884,
      "countryCode": "ME",
      "stateCode": "ME-14",
      "latitude": 43.34556,
      "longitude": 19.21028
    },
    {
      "id": 3193122,
      "name": "Poblaće",
      "nativeName": "Poblaće",
      "code": "ME-14-3193122",
      "countryId": 3194884,
      "countryCode": "ME",
      "stateCode": "ME-14",
      "latitude": 43.51056,
      "longitude": 19.20278
    },
    {
      "id": 3304191,
      "name": "Podborova",
      "nativeName": "Podborova",
      "code": "ME-14-3304191",
      "countryId": 3194884,
      "countryCode": "ME",
      "stateCode": "ME-14",
      "latitude": 43.19222,
      "longitude": 19.45389
    },
    {
      "id": 3193061,
      "name": "Podgora",
      "nativeName": "Podgora",
      "code": "ME-14-3193061",
      "countryId": 3194884,
      "countryCode": "ME",
      "stateCode": "ME-14",
      "latitude": 43.19861,
      "longitude": 19.15417
    },
    {
      "id": 3297523,
      "name": "Potkovač",
      "nativeName": "Potkovač",
      "code": "ME-14-3297523",
      "countryId": 3194884,
      "countryCode": "ME",
      "stateCode": "ME-14",
      "latitude": 43.46361,
      "longitude": 19.10806
    },
    {
      "id": 3304536,
      "name": "Potoci",
      "nativeName": "Potoci",
      "code": "ME-14-3304536",
      "countryId": 3194884,
      "countryCode": "ME",
      "stateCode": "ME-14",
      "latitude": 43.35972,
      "longitude": 19.25528
    },
    {
      "id": 3192638,
      "name": "Potpeće",
      "nativeName": "Potpeće",
      "code": "ME-14-3192638",
      "countryId": 3194884,
      "countryCode": "ME",
      "stateCode": "ME-14",
      "latitude": 43.26,
      "longitude": 19.35889
    },
    {
      "id": 3192522,
      "name": "Premćani",
      "nativeName": "Premćani",
      "code": "ME-14-3192522",
      "countryId": 3194884,
      "countryCode": "ME",
      "stateCode": "ME-14",
      "latitude": 43.12028,
      "longitude": 19.37139
    },
    {
      "id": 3299588,
      "name": "Rađevići",
      "nativeName": "Rađevići",
      "code": "ME-14-3299588",
      "countryId": 3194884,
      "countryCode": "ME",
      "stateCode": "ME-14",
      "latitude": 43.44389,
      "longitude": 19.15806
    },
    {
      "id": 3342861,
      "name": "Rovčani",
      "nativeName": "Rovčani",
      "code": "ME-14-3342861",
      "countryId": 3194884,
      "countryCode": "ME",
      "stateCode": "ME-14",
      "latitude": 43.3875,
      "longitude": 19.35972
    },
    {
      "id": 3191147,
      "name": "Selac",
      "nativeName": "Selac",
      "code": "ME-14-3191147",
      "countryId": 3194884,
      "countryCode": "ME",
      "stateCode": "ME-14",
      "latitude": 43.13028,
      "longitude": 19.35111
    },
    {
      "id": 3191114,
      "name": "Selišta",
      "nativeName": "Selišta",
      "code": "ME-14-3191114",
      "countryId": 3194884,
      "countryCode": "ME",
      "stateCode": "ME-14",
      "latitude": 43.49083,
      "longitude": 19.04917
    },
    {
      "id": 3295564,
      "name": "Srečanje",
      "nativeName": "Srečanje",
      "code": "ME-14-3295564",
      "countryId": 3194884,
      "countryCode": "ME",
      "stateCode": "ME-14",
      "latitude": 43.48694,
      "longitude": 18.97944
    },
    {
      "id": 3297589,
      "name": "Strahov Do",
      "nativeName": "Strahov Do",
      "code": "ME-14-3297589",
      "countryId": 3194884,
      "countryCode": "ME",
      "stateCode": "ME-14",
      "latitude": 43.45917,
      "longitude": 19.13056
    },
    {
      "id": 3188778,
      "name": "Trnovice",
      "nativeName": "Trnovice",
      "code": "ME-14-3188778",
      "countryId": 3194884,
      "countryCode": "ME",
      "stateCode": "ME-14",
      "latitude": 43.35417,
      "longitude": 19.18806
    },
    {
      "id": 3188364,
      "name": "Varine",
      "nativeName": "Varine",
      "code": "ME-14-3188364",
      "countryId": 3194884,
      "countryCode": "ME",
      "stateCode": "ME-14",
      "latitude": 43.17889,
      "longitude": 19.37306
    },
    {
      "id": 3305006,
      "name": "Veliko Krće",
      "nativeName": "Veliko Krće",
      "code": "ME-14-3305006",
      "countryId": 3194884,
      "countryCode": "ME",
      "stateCode": "ME-14",
      "latitude": 43.40667,
      "longitude": 19.24556
    },
    {
      "id": 3187784,
      "name": "Vidre",
      "nativeName": "Vidre",
      "code": "ME-14-3187784",
      "countryId": 3194884,
      "countryCode": "ME",
      "stateCode": "ME-14",
      "latitude": 43.34861,
      "longitude": 19.29861
    },
    {
      "id": 3187648,
      "name": "Višnjica",
      "nativeName": "Višnjica",
      "code": "ME-14-3187648",
      "countryId": 3194884,
      "countryCode": "ME",
      "stateCode": "ME-14",
      "latitude": 43.31306,
      "longitude": 19.185
    },
    {
      "id": 3187289,
      "name": "Vrbica",
      "nativeName": "Vrbica",
      "code": "ME-14-3187289",
      "countryId": 3194884,
      "countryCode": "ME",
      "stateCode": "ME-14",
      "latitude": 43.29417,
      "longitude": 19.28583
    },
    {
      "id": 3186574,
      "name": "Zenica",
      "nativeName": "Zenica",
      "code": "ME-14-3186574",
      "countryId": 3194884,
      "countryCode": "ME",
      "stateCode": "ME-14",
      "latitude": 43.30472,
      "longitude": 19.34417
    },
    {
      "id": 3202653,
      "name": "Čestin",
      "nativeName": "Čestin",
      "code": "ME-14-3202653",
      "countryId": 3194884,
      "countryCode": "ME",
      "stateCode": "ME-14",
      "latitude": 43.41806,
      "longitude": 19.03
    },
    {
      "id": 3304512,
      "name": "Šljivansko",
      "nativeName": "Šljivansko",
      "code": "ME-14-3304512",
      "countryId": 3194884,
      "countryCode": "ME",
      "stateCode": "ME-14",
      "latitude": 43.32167,
      "longitude": 19.21278
    },
    {
      "id": 3189528,
      "name": "Šula",
      "nativeName": "Šula",
      "code": "ME-14-3189528",
      "countryId": 3194884,
      "countryCode": "ME",
      "stateCode": "ME-14",
      "latitude": 43.38472,
      "longitude": 19.07306
    }
  ]
}