{
  "stateId": 786233,
  "stateCode": "ME-17",
  "countryCode": "ME",
  "cities": [
    {
      "id": 786234,
      "name": "Rožaje",
      "nativeName": "Rožaje",
      "code": "ME-17-786234",
      "countryId": 3194884,
      "countryCode": "ME",
      "stateCode": "ME-17",
      "latitude": 42.83299,
      "longitude": 20.16652
    },
    {
      "id": 831550,
      "name": "Bandžov",
      "nativeName": "Bandžov",
      "code": "ME-17-831550",
      "countryId": 3194884,
      "countryCode": "ME",
      "stateCode": "ME-17",
      "latitude": 42.78083,
      "longitude": 20.13028
    },
    {
      "id": 793031,
      "name": "Bać",
      "nativeName": "Bać",
      "code": "ME-17-793031",
      "countryId": 3194884,
      "countryCode": "ME",
      "stateCode": "ME-17",
      "latitude": 42.88667,
      "longitude": 20.29639
    },
    {
      "id": 793196,
      "name": "Bačevac",
      "nativeName": "Bačevac",
      "code": "ME-17-793196",
      "countryId": 3194884,
      "countryCode": "ME",
      "stateCode": "ME-17",
      "latitude": 42.84306,
      "longitude": 20.13444
    },
    {
      "id": 792844,
      "name": "Bašće",
      "nativeName": "Bašće",
      "code": "ME-17-792844",
      "countryId": 3194884,
      "countryCode": "ME",
      "stateCode": "ME-17",
      "latitude": 42.91,
      "longitude": 20.13
    },
    {
      "id": 792628,
      "name": "Bijela Crkva",
      "nativeName": "Bijela Crkva",
      "code": "ME-17-792628",
      "countryId": 3194884,
      "countryCode": "ME",
      "stateCode": "ME-17",
      "latitude": 42.87611,
      "longitude": 20.19694
    },
    {
      "id": 831629,
      "name": "Blace",
      "nativeName": "Blace",
      "code": "ME-17-831629",
      "countryId": 3194884,
      "countryCode": "ME",
      "stateCode": "ME-17",
      "latitude": 42.92889,
      "longitude": 20.18861
    },
    {
      "id": 792526,
      "name": "Bogaje",
      "nativeName": "Bogaje",
      "code": "ME-17-792526",
      "countryId": 3194884,
      "countryCode": "ME",
      "stateCode": "ME-17",
      "latitude": 42.84611,
      "longitude": 20.085
    },
    {
      "id": 793186,
      "name": "Bovan",
      "nativeName": "Bovan",
      "code": "ME-17-793186",
      "countryId": 3194884,
      "countryCode": "ME",
      "stateCode": "ME-17",
      "latitude": 42.92167,
      "longitude": 20.31806
    },
    {
      "id": 792149,
      "name": "Bukovica",
      "nativeName": "Bukovica",
      "code": "ME-17-792149",
      "countryId": 3194884,
      "countryCode": "ME",
      "stateCode": "ME-17",
      "latitude": 42.94222,
      "longitude": 20.21861
    },
    {
      "id": 791650,
      "name": "Dacići",
      "nativeName": "Dacići",
      "code": "ME-17-791650",
      "countryId": 3194884,
      "countryCode": "ME",
      "stateCode": "ME-17",
      "latitude": 42.80806,
      "longitude": 20.17806
    },
    {
      "id": 793187,
      "name": "Dolina",
      "nativeName": "Dolina",
      "code": "ME-17-793187",
      "countryId": 3194884,
      "countryCode": "ME",
      "stateCode": "ME-17",
      "latitude": 42.90528,
      "longitude": 20.14694
    },
    {
      "id": 791837,
      "name": "Donja Crnča",
      "nativeName": "Donja Crnča",
      "code": "ME-17-791837",
      "countryId": 3194884,
      "countryCode": "ME",
      "stateCode": "ME-17",
      "latitude": 42.91194,
      "longitude": 20.32389
    },
    {
      "id": 793194,
      "name": "Donja Lovnica",
      "nativeName": "Donja Lovnica",
      "code": "ME-17-793194",
      "countryId": 3194884,
      "countryCode": "ME",
      "stateCode": "ME-17",
      "latitude": 42.87056,
      "longitude": 20.13889
    },
    {
      "id": 831607,
      "name": "Donje Biševo",
      "nativeName": "Donje Biševo",
      "code": "ME-17-831607",
      "countryId": 3194884,
      "countryCode": "ME",
      "stateCode": "ME-17",
      "latitude": 42.87833,
      "longitude": 20.22806
    },
    {
      "id": 831569,
      "name": "Donji Besnik",
      "nativeName": "Donji Besnik",
      "code": "ME-17-831569",
      "countryId": 3194884,
      "countryCode": "ME",
      "stateCode": "ME-17",
      "latitude": 42.88139,
      "longitude": 20.26472
    },
    {
      "id": 793202,
      "name": "Donji Bukelj",
      "nativeName": "Donji Bukelj",
      "code": "ME-17-793202",
      "countryId": 3194884,
      "countryCode": "ME",
      "stateCode": "ME-17",
      "latitude": 42.8025,
      "longitude": 20.17167
    },
    {
      "id": 831932,
      "name": "Dračinovac",
      "nativeName": "Dračinovac",
      "code": "ME-17-831932",
      "countryId": 3194884,
      "countryCode": "ME",
      "stateCode": "ME-17",
      "latitude": 42.89889,
      "longitude": 20.34528
    },
    {
      "id": 793209,
      "name": "Dubovik",
      "nativeName": "Dubovik",
      "code": "ME-17-793209",
      "countryId": 3194884,
      "countryCode": "ME",
      "stateCode": "ME-17",
      "latitude": 42.76889,
      "longitude": 20.21
    },
    {
      "id": 831590,
      "name": "Džudževići",
      "nativeName": "Džudževići",
      "code": "ME-17-831590",
      "countryId": 3194884,
      "countryCode": "ME",
      "stateCode": "ME-17",
      "latitude": 42.87528,
      "longitude": 20.30722
    },
    {
      "id": 793185,
      "name": "Gornja Crnča",
      "nativeName": "Gornja Crnča",
      "code": "ME-17-793185",
      "countryId": 3194884,
      "countryCode": "ME",
      "stateCode": "ME-17",
      "latitude": 42.91722,
      "longitude": 20.30611
    },
    {
      "id": 790487,
      "name": "Gornja Lovnica",
      "nativeName": "Gornja Lovnica",
      "code": "ME-17-790487",
      "countryId": 3194884,
      "countryCode": "ME",
      "stateCode": "ME-17",
      "latitude": 42.89444,
      "longitude": 20.11528
    },
    {
      "id": 792647,
      "name": "Gornji Besnik",
      "nativeName": "Gornji Besnik",
      "code": "ME-17-792647",
      "countryId": 3194884,
      "countryCode": "ME",
      "stateCode": "ME-17",
      "latitude": 42.87111,
      "longitude": 20.25889
    },
    {
      "id": 831541,
      "name": "Gornji Bukelj",
      "nativeName": "Gornji Bukelj",
      "code": "ME-17-831541",
      "countryId": 3194884,
      "countryCode": "ME",
      "stateCode": "ME-17",
      "latitude": 42.78833,
      "longitude": 20.16972
    },
    {
      "id": 790213,
      "name": "Grahovo",
      "nativeName": "Grahovo",
      "code": "ME-17-790213",
      "countryId": 3194884,
      "countryCode": "ME",
      "stateCode": "ME-17",
      "latitude": 42.86944,
      "longitude": 20.17611
    },
    {
      "id": 793241,
      "name": "Grižice",
      "nativeName": "Grižice",
      "code": "ME-17-793241",
      "countryId": 3194884,
      "countryCode": "ME",
      "stateCode": "ME-17",
      "latitude": 42.90472,
      "longitude": 20.16028
    },
    {
      "id": 793192,
      "name": "Gusnice",
      "nativeName": "Gusnice",
      "code": "ME-17-793192",
      "countryId": 3194884,
      "countryCode": "ME",
      "stateCode": "ME-17",
      "latitude": 42.87278,
      "longitude": 20.09306
    },
    {
      "id": 793203,
      "name": "Halilović",
      "nativeName": "Halilović",
      "code": "ME-17-793203",
      "countryId": 3194884,
      "countryCode": "ME",
      "stateCode": "ME-17",
      "latitude": 42.82083,
      "longitude": 20.15222
    },
    {
      "id": 793191,
      "name": "Honciće",
      "nativeName": "Honciće",
      "code": "ME-17-793191",
      "countryId": 3194884,
      "countryCode": "ME",
      "stateCode": "ME-17",
      "latitude": 42.87722,
      "longitude": 20.10389
    },
    {
      "id": 790037,
      "name": "Ibarac",
      "nativeName": "Ibarac",
      "code": "ME-17-790037",
      "countryId": 3194884,
      "countryCode": "ME",
      "stateCode": "ME-17",
      "latitude": 42.83611,
      "longitude": 20.16194
    },
    {
      "id": 789948,
      "name": "Jablanica",
      "nativeName": "Jablanica",
      "code": "ME-17-789948",
      "countryId": 3194884,
      "countryCode": "ME",
      "stateCode": "ME-17",
      "latitude": 42.89361,
      "longitude": 20.33278
    },
    {
      "id": 831592,
      "name": "Kajevići",
      "nativeName": "Kajevići",
      "code": "ME-17-831592",
      "countryId": 3194884,
      "countryCode": "ME",
      "stateCode": "ME-17",
      "latitude": 42.88833,
      "longitude": 20.30861
    },
    {
      "id": 831625,
      "name": "Kačari",
      "nativeName": "Kačari",
      "code": "ME-17-831625",
      "countryId": 3194884,
      "countryCode": "ME",
      "stateCode": "ME-17",
      "latitude": 42.94083,
      "longitude": 20.18694
    },
    {
      "id": 793193,
      "name": "Klanac",
      "nativeName": "Klanac",
      "code": "ME-17-793193",
      "countryId": 3194884,
      "countryCode": "ME",
      "stateCode": "ME-17",
      "latitude": 42.87667,
      "longitude": 20.14083
    },
    {
      "id": 831555,
      "name": "Koljeno",
      "nativeName": "Koljeno",
      "code": "ME-17-831555",
      "countryId": 3194884,
      "countryCode": "ME",
      "stateCode": "ME-17",
      "latitude": 42.83861,
      "longitude": 20.10444
    },
    {
      "id": 831535,
      "name": "Kula",
      "nativeName": "Kula",
      "code": "ME-17-831535",
      "countryId": 3194884,
      "countryCode": "ME",
      "stateCode": "ME-17",
      "latitude": 42.79333,
      "longitude": 20.22806
    },
    {
      "id": 793197,
      "name": "Luke",
      "nativeName": "Luke",
      "code": "ME-17-793197",
      "countryId": 3194884,
      "countryCode": "ME",
      "stateCode": "ME-17",
      "latitude": 42.89611,
      "longitude": 20.22194
    },
    {
      "id": 793198,
      "name": "Lučica",
      "nativeName": "Lučica",
      "code": "ME-17-793198",
      "countryId": 3194884,
      "countryCode": "ME",
      "stateCode": "ME-17",
      "latitude": 42.89583,
      "longitude": 20.17083
    },
    {
      "id": 793220,
      "name": "Male Crnokrpe",
      "nativeName": "Male Crnokrpe",
      "code": "ME-17-793220",
      "countryId": 3194884,
      "countryCode": "ME",
      "stateCode": "ME-17",
      "latitude": 42.91278,
      "longitude": 20.2375
    },
    {
      "id": 793184,
      "name": "Malindubrava",
      "nativeName": "Malindubrava",
      "code": "ME-17-793184",
      "countryId": 3194884,
      "countryCode": "ME",
      "stateCode": "ME-17",
      "latitude": 42.91306,
      "longitude": 20.29056
    },
    {
      "id": 793649,
      "name": "Njeguši",
      "nativeName": "Njeguši",
      "code": "ME-17-793649",
      "countryId": 3194884,
      "countryCode": "ME",
      "stateCode": "ME-17",
      "latitude": 42.86167,
      "longitude": 20.24944
    },
    {
      "id": 831591,
      "name": "Ovna",
      "nativeName": "Ovna",
      "code": "ME-17-831591",
      "countryId": 3194884,
      "countryCode": "ME",
      "stateCode": "ME-17",
      "latitude": 42.87917,
      "longitude": 20.31972
    },
    {
      "id": 787169,
      "name": "Paučina",
      "nativeName": "Paučina",
      "code": "ME-17-787169",
      "countryId": 3194884,
      "countryCode": "ME",
      "stateCode": "ME-17",
      "latitude": 42.93639,
      "longitude": 20.14611
    },
    {
      "id": 831542,
      "name": "Peškovići",
      "nativeName": "Peškovići",
      "code": "ME-17-831542",
      "countryId": 3194884,
      "countryCode": "ME",
      "stateCode": "ME-17",
      "latitude": 42.80028,
      "longitude": 20.15861
    },
    {
      "id": 793199,
      "name": "Plumci",
      "nativeName": "Plumci",
      "code": "ME-17-793199",
      "countryId": 3194884,
      "countryCode": "ME",
      "stateCode": "ME-17",
      "latitude": 42.8375,
      "longitude": 20.19361
    },
    {
      "id": 831604,
      "name": "Pripec",
      "nativeName": "Pripec",
      "code": "ME-17-831604",
      "countryId": 3194884,
      "countryCode": "ME",
      "stateCode": "ME-17",
      "latitude": 42.89833,
      "longitude": 20.29972
    },
    {
      "id": 786609,
      "name": "Radetina",
      "nativeName": "Radetina",
      "code": "ME-17-786609",
      "countryId": 3194884,
      "countryCode": "ME",
      "stateCode": "ME-17",
      "latitude": 42.89306,
      "longitude": 20.2575
    },
    {
      "id": 831624,
      "name": "Razdolje",
      "nativeName": "Razdolje",
      "code": "ME-17-831624",
      "countryId": 3194884,
      "countryCode": "ME",
      "stateCode": "ME-17",
      "latitude": 42.9375,
      "longitude": 20.23444
    },
    {
      "id": 831554,
      "name": "Redžića Krlje",
      "nativeName": "Redžića Krlje",
      "code": "ME-17-831554",
      "countryId": 3194884,
      "countryCode": "ME",
      "stateCode": "ME-17",
      "latitude": 42.81583,
      "longitude": 20.12472
    },
    {
      "id": 831644,
      "name": "Rijeka",
      "nativeName": "Rijeka",
      "code": "ME-17-831644",
      "countryId": 3194884,
      "countryCode": "ME",
      "stateCode": "ME-17",
      "latitude": 42.9625,
      "longitude": 20.16028
    },
    {
      "id": 831613,
      "name": "Seošnica",
      "nativeName": "Seošnica",
      "code": "ME-17-831613",
      "countryId": 3194884,
      "countryCode": "ME",
      "stateCode": "ME-17",
      "latitude": 42.8475,
      "longitude": 20.12167
    },
    {
      "id": 793230,
      "name": "Sređani",
      "nativeName": "Sređani",
      "code": "ME-17-793230",
      "countryId": 3194884,
      "countryCode": "ME",
      "stateCode": "ME-17",
      "latitude": 42.85222,
      "longitude": 20.13861
    },
    {
      "id": 831931,
      "name": "Stupa",
      "nativeName": "Stupa",
      "code": "ME-17-831931",
      "countryId": 3194884,
      "countryCode": "ME",
      "stateCode": "ME-17",
      "latitude": 42.90222,
      "longitude": 20.3425
    },
    {
      "id": 831617,
      "name": "Tuzeva Luka",
      "nativeName": "Tuzeva Luka",
      "code": "ME-17-831617",
      "countryId": 3194884,
      "countryCode": "ME",
      "stateCode": "ME-17",
      "latitude": 42.87556,
      "longitude": 20.11667
    },
    {
      "id": 791766,
      "name": "Velike Crnokrpe",
      "nativeName": "Velike Crnokrpe",
      "code": "ME-17-791766",
      "countryId": 3194884,
      "countryCode": "ME",
      "stateCode": "ME-17",
      "latitude": 42.925,
      "longitude": 20.23278
    },
    {
      "id": 831560,
      "name": "Višnjice",
      "nativeName": "Višnjice",
      "code": "ME-17-831560",
      "countryId": 3194884,
      "countryCode": "ME",
      "stateCode": "ME-17",
      "latitude": 42.85222,
      "longitude": 20.22944
    },
    {
      "id": 784110,
      "name": "Vuča",
      "nativeName": "Vuča",
      "code": "ME-17-784110",
      "countryId": 3194884,
      "countryCode": "ME",
      "stateCode": "ME-17",
      "latitude": 42.92083,
      "longitude": 20.27556
    },
    {
      "id": 793190,
      "name": "Zloglavlje",
      "nativeName": "Zloglavlje",
      "code": "ME-17-793190",
      "countryId": 3194884,
      "countryCode": "ME",
      "stateCode": "ME-17",
      "latitude": 42.88306,
      "longitude": 20.10194
    },
    {
      "id": 793189,
      "name": "Ćosovica",
      "nativeName": "Ćosovica",
      "code": "ME-17-793189",
      "countryId": 3194884,
      "countryCode": "ME",
      "stateCode": "ME-17",
      "latitude": 42.90389,
      "longitude": 20.10389
    },
    {
      "id": 831623,
      "name": "Čoklije",
      "nativeName": "Čoklije",
      "code": "ME-17-831623",
      "countryId": 3194884,
      "countryCode": "ME",
      "stateCode": "ME-17",
      "latitude": 42.92472,
      "longitude": 20.20972
    },
    {
      "id": 792962,
      "name": "Balotići",
      "nativeName": "Balotići",
      "code": "ME-17-792962",
      "countryId": 3194884,
      "countryCode": "ME",
      "stateCode": "ME-17",
      "latitude": 42.84528,
      "longitude": 20.22083
    },
    {
      "id": 792602,
      "name": "Biševo",
      "nativeName": "Biševo",
      "code": "ME-17-792602",
      "countryId": 3194884,
      "countryCode": "ME",
      "stateCode": "ME-17",
      "latitude": 42.91028,
      "longitude": 20.21611
    },
    {
      "id": 789693,
      "name": "Kalače",
      "nativeName": "Kalače",
      "code": "ME-17-789693",
      "countryId": 3194884,
      "countryCode": "ME",
      "stateCode": "ME-17",
      "latitude": 42.85944,
      "longitude": 20.09389
    },
    {
      "id": 831531,
      "name": "Kaluđerski Laz",
      "nativeName": "Kaluđerski Laz",
      "code": "ME-17-831531",
      "countryId": 3194884,
      "countryCode": "ME",
      "stateCode": "ME-17",
      "latitude": 42.78,
      "longitude": 20.19583
    },
    {
      "id": 831630,
      "name": "Reparica",
      "nativeName": "Reparica",
      "code": "ME-17-831630",
      "countryId": 3194884,
      "countryCode": "ME",
      "stateCode": "ME-17",
      "latitude": 42.94972,
      "longitude": 20.20694
    }
  ]
}