{
  "stateId": 3188514,
  "stateCode": "ME-20",
  "countryCode": "ME",
  "cities": [
    {
      "id": 3188516,
      "name": "Ulcinj",
      "nativeName": "Ulcinj",
      "code": "ME-20-3188516",
      "countryId": 3194884,
      "countryCode": "ME",
      "stateCode": "ME-20",
      "latitude": 41.92936,
      "longitude": 19.22436
    },
    {
      "id": 3204825,
      "name": "Ambula",
      "nativeName": "Ambula",
      "code": "ME-20-3204825",
      "countryId": 3194884,
      "countryCode": "ME",
      "stateCode": "ME-20",
      "latitude": 41.98028,
      "longitude": 19.3525
    },
    {
      "id": 3343447,
      "name": "Berjaši",
      "nativeName": "Berjaši",
      "code": "ME-20-3343447",
      "countryId": 3194884,
      "countryCode": "ME",
      "stateCode": "ME-20",
      "latitude": 42.07444,
      "longitude": 19.31194
    },
    {
      "id": 3203789,
      "name": "Bojke",
      "nativeName": "Bojke",
      "code": "ME-20-3203789",
      "countryId": 3194884,
      "countryCode": "ME",
      "stateCode": "ME-20",
      "latitude": 42.03833,
      "longitude": 19.28694
    },
    {
      "id": 3343446,
      "name": "Bolevići",
      "nativeName": "Bolevići",
      "code": "ME-20-3343446",
      "countryId": 3194884,
      "countryCode": "ME",
      "stateCode": "ME-20",
      "latitude": 42.07278,
      "longitude": 19.31694
    },
    {
      "id": 3203573,
      "name": "Brajše",
      "nativeName": "Brajše",
      "code": "ME-20-3203573",
      "countryId": 3194884,
      "countryCode": "ME",
      "stateCode": "ME-20",
      "latitude": 42.02333,
      "longitude": 19.31389
    },
    {
      "id": 3203544,
      "name": "Bratica",
      "nativeName": "Bratica",
      "code": "ME-20-3203544",
      "countryId": 3194884,
      "countryCode": "ME",
      "stateCode": "ME-20",
      "latitude": 41.95167,
      "longitude": 19.2025
    },
    {
      "id": 3342559,
      "name": "Bregvija",
      "nativeName": "Bregvija",
      "code": "ME-20-3342559",
      "countryId": 3194884,
      "countryCode": "ME",
      "stateCode": "ME-20",
      "latitude": 41.9025,
      "longitude": 19.32028
    },
    {
      "id": 3316471,
      "name": "Curaj",
      "nativeName": "Curaj",
      "code": "ME-20-3316471",
      "countryId": 3194884,
      "countryCode": "ME",
      "stateCode": "ME-20",
      "latitude": 42.04222,
      "longitude": 19.32139
    },
    {
      "id": 3202182,
      "name": "Darza",
      "nativeName": "Darza",
      "code": "ME-20-3202182",
      "countryId": 3194884,
      "countryCode": "ME",
      "stateCode": "ME-20",
      "latitude": 41.94806,
      "longitude": 19.31778
    },
    {
      "id": 3343257,
      "name": "Demirovići",
      "nativeName": "Demirovići",
      "code": "ME-20-3343257",
      "countryId": 3194884,
      "countryCode": "ME",
      "stateCode": "ME-20",
      "latitude": 42.08528,
      "longitude": 19.35
    },
    {
      "id": 3343263,
      "name": "Dodići",
      "nativeName": "Dodići",
      "code": "ME-20-3343263",
      "countryId": 3194884,
      "countryCode": "ME",
      "stateCode": "ME-20",
      "latitude": 42.07194,
      "longitude": 19.34278
    },
    {
      "id": 3342524,
      "name": "Donja Klezna",
      "nativeName": "Donja Klezna",
      "code": "ME-20-3342524",
      "countryId": 3194884,
      "countryCode": "ME",
      "stateCode": "ME-20",
      "latitude": 41.98667,
      "longitude": 19.27861
    },
    {
      "id": 3316460,
      "name": "Donji Curovići",
      "nativeName": "Donji Curovići",
      "code": "ME-20-3316460",
      "countryId": 3194884,
      "countryCode": "ME",
      "stateCode": "ME-20",
      "latitude": 42.08417,
      "longitude": 19.31306
    },
    {
      "id": 3316473,
      "name": "Donji Kosići",
      "nativeName": "Donji Kosići",
      "code": "ME-20-3316473",
      "countryId": 3194884,
      "countryCode": "ME",
      "stateCode": "ME-20",
      "latitude": 42.02028,
      "longitude": 19.27333
    },
    {
      "id": 3343305,
      "name": "Donji Rastiš",
      "nativeName": "Donji Rastiš",
      "code": "ME-20-3343305",
      "countryId": 3194884,
      "countryCode": "ME",
      "stateCode": "ME-20",
      "latitude": 42.02972,
      "longitude": 19.345
    },
    {
      "id": 3201385,
      "name": "Donji Štoj",
      "nativeName": "Donji Štoj",
      "code": "ME-20-3201385",
      "countryId": 3194884,
      "countryCode": "ME",
      "stateCode": "ME-20",
      "latitude": 41.91028,
      "longitude": 19.27472
    },
    {
      "id": 3318469,
      "name": "Duškići",
      "nativeName": "Duškići",
      "code": "ME-20-3318469",
      "countryId": 3194884,
      "countryCode": "ME",
      "stateCode": "ME-20",
      "latitude": 42.00861,
      "longitude": 19.1925
    },
    {
      "id": 3200815,
      "name": "Fraskanjel",
      "nativeName": "Fraskanjel",
      "code": "ME-20-3200815",
      "countryId": 3194884,
      "countryCode": "ME",
      "stateCode": "ME-20",
      "latitude": 41.96722,
      "longitude": 19.38361
    },
    {
      "id": 3342540,
      "name": "Gigovići",
      "nativeName": "Gigovići",
      "code": "ME-20-3342540",
      "countryId": 3194884,
      "countryCode": "ME",
      "stateCode": "ME-20",
      "latitude": 41.98028,
      "longitude": 19.26639
    },
    {
      "id": 3200248,
      "name": "Gornja Klezna",
      "nativeName": "Gornja Klezna",
      "code": "ME-20-3200248",
      "countryId": 3194884,
      "countryCode": "ME",
      "stateCode": "ME-20",
      "latitude": 41.99833,
      "longitude": 19.26194
    },
    {
      "id": 3343284,
      "name": "Gornji Curovići",
      "nativeName": "Gornji Curovići",
      "code": "ME-20-3343284",
      "countryId": 3194884,
      "countryCode": "ME",
      "stateCode": "ME-20",
      "latitude": 42.07083,
      "longitude": 19.31472
    },
    {
      "id": 3316472,
      "name": "Gornji Kosići",
      "nativeName": "Gornji Kosići",
      "code": "ME-20-3316472",
      "countryId": 3194884,
      "countryCode": "ME",
      "stateCode": "ME-20",
      "latitude": 42.03528,
      "longitude": 19.27111
    },
    {
      "id": 3316463,
      "name": "Gornji Rastiš",
      "nativeName": "Gornji Rastiš",
      "code": "ME-20-3316463",
      "countryId": 3194884,
      "countryCode": "ME",
      "stateCode": "ME-20",
      "latitude": 42.04722,
      "longitude": 19.33
    },
    {
      "id": 3199916,
      "name": "Gornji Štoj",
      "nativeName": "Gornji Štoj",
      "code": "ME-20-3199916",
      "countryId": 3194884,
      "countryCode": "ME",
      "stateCode": "ME-20",
      "latitude": 41.88806,
      "longitude": 19.35139
    },
    {
      "id": 3343267,
      "name": "Grdoći",
      "nativeName": "Grdoći",
      "code": "ME-20-3343267",
      "countryId": 3194884,
      "countryCode": "ME",
      "stateCode": "ME-20",
      "latitude": 42.08528,
      "longitude": 19.32389
    },
    {
      "id": 3343449,
      "name": "Kanići",
      "nativeName": "Kanići",
      "code": "ME-20-3343449",
      "countryId": 3194884,
      "countryCode": "ME",
      "stateCode": "ME-20",
      "latitude": 42.08111,
      "longitude": 19.31111
    },
    {
      "id": 3340755,
      "name": "Kaplanovići",
      "nativeName": "Kaplanovići",
      "code": "ME-20-3340755",
      "countryId": 3194884,
      "countryCode": "ME",
      "stateCode": "ME-20",
      "latitude": 42.00694,
      "longitude": 19.18278
    },
    {
      "id": 3318461,
      "name": "Karastanovići",
      "nativeName": "Karastanovići",
      "code": "ME-20-3318461",
      "countryId": 3194884,
      "countryCode": "ME",
      "stateCode": "ME-20",
      "latitude": 42.00194,
      "longitude": 19.17556
    },
    {
      "id": 3342552,
      "name": "Kodra Dake",
      "nativeName": "Kodra Dake",
      "code": "ME-20-3342552",
      "countryId": 3194884,
      "countryCode": "ME",
      "stateCode": "ME-20",
      "latitude": 41.92083,
      "longitude": 19.34083
    },
    {
      "id": 3318467,
      "name": "Komina",
      "nativeName": "Komina",
      "code": "ME-20-3318467",
      "countryId": 3194884,
      "countryCode": "ME",
      "stateCode": "ME-20",
      "latitude": 42.02194,
      "longitude": 19.16083
    },
    {
      "id": 3343261,
      "name": "Kovačevići",
      "nativeName": "Kovačevići",
      "code": "ME-20-3343261",
      "countryId": 3194884,
      "countryCode": "ME",
      "stateCode": "ME-20",
      "latitude": 42.0775,
      "longitude": 19.34778
    },
    {
      "id": 3197054,
      "name": "Kruta",
      "nativeName": "Kruta",
      "code": "ME-20-3197054",
      "countryId": 3194884,
      "countryCode": "ME",
      "stateCode": "ME-20",
      "latitude": 41.97111,
      "longitude": 19.1825
    },
    {
      "id": 3197125,
      "name": "Kruče",
      "nativeName": "Kruče",
      "code": "ME-20-3197125",
      "countryId": 3194884,
      "countryCode": "ME",
      "stateCode": "ME-20",
      "latitude": 41.98,
      "longitude": 19.17417
    },
    {
      "id": 3343262,
      "name": "Lekperići",
      "nativeName": "Lekperići",
      "code": "ME-20-3343262",
      "countryId": 3194884,
      "countryCode": "ME",
      "stateCode": "ME-20",
      "latitude": 42.07389,
      "longitude": 19.34917
    },
    {
      "id": 3342528,
      "name": "Lisna Bori",
      "nativeName": "Lisna Bori",
      "code": "ME-20-3342528",
      "countryId": 3194884,
      "countryCode": "ME",
      "stateCode": "ME-20",
      "latitude": 41.99694,
      "longitude": 19.36083
    },
    {
      "id": 3343259,
      "name": "Ljubanivići",
      "nativeName": "Ljubanivići",
      "code": "ME-20-3343259",
      "countryId": 3194884,
      "countryCode": "ME",
      "stateCode": "ME-20",
      "latitude": 42.08278,
      "longitude": 19.36472
    },
    {
      "id": 3220412,
      "name": "Madguš",
      "nativeName": "Madguš",
      "code": "ME-20-3220412",
      "countryId": 3194884,
      "countryCode": "ME",
      "stateCode": "ME-20",
      "latitude": 42.07361,
      "longitude": 19.28139
    },
    {
      "id": 3343448,
      "name": "Madžurići",
      "nativeName": "Madžurići",
      "code": "ME-20-3343448",
      "countryId": 3194884,
      "countryCode": "ME",
      "stateCode": "ME-20",
      "latitude": 42.07722,
      "longitude": 19.325
    },
    {
      "id": 3195850,
      "name": "Mala Gorana",
      "nativeName": "Mala Gorana",
      "code": "ME-20-3195850",
      "countryId": 3194884,
      "countryCode": "ME",
      "stateCode": "ME-20",
      "latitude": 42.00194,
      "longitude": 19.20278
    },
    {
      "id": 3340756,
      "name": "Masline",
      "nativeName": "Masline",
      "code": "ME-20-3340756",
      "countryId": 3194884,
      "countryCode": "ME",
      "stateCode": "ME-20",
      "latitude": 42.01056,
      "longitude": 19.15222
    },
    {
      "id": 3343234,
      "name": "Medureč",
      "nativeName": "Medureč",
      "code": "ME-20-3343234",
      "countryId": 3194884,
      "countryCode": "ME",
      "stateCode": "ME-20",
      "latitude": 42.06056,
      "longitude": 19.23083
    },
    {
      "id": 3342502,
      "name": "Metanovići",
      "nativeName": "Metanovići",
      "code": "ME-20-3342502",
      "countryId": 3194884,
      "countryCode": "ME",
      "stateCode": "ME-20",
      "latitude": 41.98639,
      "longitude": 19.22917
    },
    {
      "id": 3195195,
      "name": "Mide",
      "nativeName": "Mide",
      "code": "ME-20-3195195",
      "countryId": 3194884,
      "countryCode": "ME",
      "stateCode": "ME-20",
      "latitude": 42.03583,
      "longitude": 19.26139
    },
    {
      "id": 3342542,
      "name": "Možura",
      "nativeName": "Možura",
      "code": "ME-20-3342542",
      "countryId": 3194884,
      "countryCode": "ME",
      "stateCode": "ME-20",
      "latitude": 41.96389,
      "longitude": 19.255
    },
    {
      "id": 3342501,
      "name": "Nikezići",
      "nativeName": "Nikezići",
      "code": "ME-20-3342501",
      "countryId": 3194884,
      "countryCode": "ME",
      "stateCode": "ME-20",
      "latitude": 41.99611,
      "longitude": 19.21333
    },
    {
      "id": 3193512,
      "name": "Pelinkovići",
      "nativeName": "Pelinkovići",
      "code": "ME-20-3193512",
      "countryId": 3194884,
      "countryCode": "ME",
      "stateCode": "ME-20",
      "latitude": 42.00556,
      "longitude": 19.235
    },
    {
      "id": 3343268,
      "name": "Peraševići",
      "nativeName": "Peraševići",
      "code": "ME-20-3343268",
      "countryId": 3194884,
      "countryCode": "ME",
      "stateCode": "ME-20",
      "latitude": 42.07972,
      "longitude": 19.31611
    },
    {
      "id": 3343255,
      "name": "Perovići",
      "nativeName": "Perovići",
      "code": "ME-20-3343255",
      "countryId": 3194884,
      "countryCode": "ME",
      "stateCode": "ME-20",
      "latitude": 42.08611,
      "longitude": 19.36111
    },
    {
      "id": 3193306,
      "name": "Pistula",
      "nativeName": "Pistula",
      "code": "ME-20-3193306",
      "countryId": 3194884,
      "countryCode": "ME",
      "stateCode": "ME-20",
      "latitude": 41.95028,
      "longitude": 19.25417
    },
    {
      "id": 3343264,
      "name": "Popovići",
      "nativeName": "Popovići",
      "code": "ME-20-3343264",
      "countryId": 3194884,
      "countryCode": "ME",
      "stateCode": "ME-20",
      "latitude": 42.07806,
      "longitude": 19.33833
    },
    {
      "id": 3191761,
      "name": "Reč",
      "nativeName": "Reč",
      "code": "ME-20-3191761",
      "countryId": 3194884,
      "countryCode": "ME",
      "stateCode": "ME-20",
      "latitude": 41.92111,
      "longitude": 19.36361
    },
    {
      "id": 3316469,
      "name": "Selita",
      "nativeName": "Selita",
      "code": "ME-20-3316469",
      "countryId": 3194884,
      "countryCode": "ME",
      "stateCode": "ME-20",
      "latitude": 42.00389,
      "longitude": 19.32694
    },
    {
      "id": 3343286,
      "name": "Stegvaši",
      "nativeName": "Stegvaši",
      "code": "ME-20-3343286",
      "countryId": 3194884,
      "countryCode": "ME",
      "stateCode": "ME-20",
      "latitude": 42.05861,
      "longitude": 19.36639
    },
    {
      "id": 3189532,
      "name": "Sukobin",
      "nativeName": "Sukobin",
      "code": "ME-20-3189532",
      "countryId": 3194884,
      "countryCode": "ME",
      "stateCode": "ME-20",
      "latitude": 42.01306,
      "longitude": 19.36444
    },
    {
      "id": 3343302,
      "name": "Suma",
      "nativeName": "Suma",
      "code": "ME-20-3343302",
      "countryId": 3194884,
      "countryCode": "ME",
      "stateCode": "ME-20",
      "latitude": 42.02694,
      "longitude": 19.29194
    },
    {
      "id": 3189437,
      "name": "Sutjel",
      "nativeName": "Sutjel",
      "code": "ME-20-3189437",
      "countryId": 3194884,
      "countryCode": "ME",
      "stateCode": "ME-20",
      "latitude": 41.93056,
      "longitude": 19.35389
    },
    {
      "id": 3189303,
      "name": "Sveti Nikola",
      "nativeName": "Sveti Nikola",
      "code": "ME-20-3189303",
      "countryId": 3194884,
      "countryCode": "ME",
      "stateCode": "ME-20",
      "latitude": 41.88083,
      "longitude": 19.375
    },
    {
      "id": 3189358,
      "name": "Sveti Ðorđe",
      "nativeName": "Sveti Ðorđe",
      "code": "ME-20-3189358",
      "countryId": 3194884,
      "countryCode": "ME",
      "stateCode": "ME-20",
      "latitude": 41.95056,
      "longitude": 19.34417
    },
    {
      "id": 7287834,
      "name": "Utjeha",
      "nativeName": "Utjeha",
      "code": "ME-20-7287834",
      "countryId": 3194884,
      "countryCode": "ME",
      "stateCode": "ME-20",
      "latitude": 42.00798,
      "longitude": 19.15119
    },
    {
      "id": 3342498,
      "name": "Valdanos",
      "nativeName": "Valdanos",
      "code": "ME-20-3342498",
      "countryId": 3194884,
      "countryCode": "ME",
      "stateCode": "ME-20",
      "latitude": 41.94917,
      "longitude": 19.16583
    },
    {
      "id": 3342519,
      "name": "Velika Plaža",
      "nativeName": "Velika Plaža",
      "code": "ME-20-3342519",
      "countryId": 3194884,
      "countryCode": "ME",
      "stateCode": "ME-20",
      "latitude": 41.91222,
      "longitude": 19.24778
    },
    {
      "id": 3343269,
      "name": "Veliki Ostros",
      "nativeName": "Veliki Ostros",
      "code": "ME-20-3343269",
      "countryId": 3194884,
      "countryCode": "ME",
      "stateCode": "ME-20",
      "latitude": 42.08139,
      "longitude": 19.31861
    },
    {
      "id": 3186359,
      "name": "Zoganj",
      "nativeName": "Zoganj",
      "code": "ME-20-3186359",
      "countryId": 3194884,
      "countryCode": "ME",
      "stateCode": "ME-20",
      "latitude": 41.94889,
      "longitude": 19.28361
    },
    {
      "id": 3343271,
      "name": "Ðenaševići",
      "nativeName": "Ðenaševići",
      "code": "ME-20-3343271",
      "countryId": 3194884,
      "countryCode": "ME",
      "stateCode": "ME-20",
      "latitude": 42.07667,
      "longitude": 19.31028
    },
    {
      "id": 3343265,
      "name": "Ðenčići",
      "nativeName": "Ðenčići",
      "code": "ME-20-3343265",
      "countryId": 3194884,
      "countryCode": "ME",
      "stateCode": "ME-20",
      "latitude": 42.07667,
      "longitude": 19.32917
    },
    {
      "id": 3343445,
      "name": "Ðečbitrići",
      "nativeName": "Ðečbitrići",
      "code": "ME-20-3343445",
      "countryId": 3194884,
      "countryCode": "ME",
      "stateCode": "ME-20",
      "latitude": 42.07472,
      "longitude": 19.33417
    },
    {
      "id": 3202268,
      "name": "Ćurke",
      "nativeName": "Ćurke",
      "code": "ME-20-3202268",
      "countryId": 3194884,
      "countryCode": "ME",
      "stateCode": "ME-20",
      "latitude": 41.93583,
      "longitude": 19.33944
    },
    {
      "id": 3343289,
      "name": "Čapre Mahala",
      "nativeName": "Čapre Mahala",
      "code": "ME-20-3343289",
      "countryId": 3194884,
      "countryCode": "ME",
      "stateCode": "ME-20",
      "latitude": 42.0375,
      "longitude": 19.35444
    },
    {
      "id": 3342497,
      "name": "Čivlak",
      "nativeName": "Čivlak",
      "code": "ME-20-3342497",
      "countryId": 3194884,
      "countryCode": "ME",
      "stateCode": "ME-20",
      "latitude": 41.9375,
      "longitude": 19.18694
    },
    {
      "id": 3191264,
      "name": "Šas",
      "nativeName": "Šas",
      "code": "ME-20-3191264",
      "countryId": 3194884,
      "countryCode": "ME",
      "stateCode": "ME-20",
      "latitude": 41.99167,
      "longitude": 19.32
    },
    {
      "id": 3189842,
      "name": "Štodra",
      "nativeName": "Štodra",
      "code": "ME-20-3189842",
      "countryId": 3194884,
      "countryCode": "ME",
      "stateCode": "ME-20",
      "latitude": 41.98556,
      "longitude": 19.36833
    },
    {
      "id": 3343303,
      "name": "Ženj",
      "nativeName": "Ženj",
      "code": "ME-20-3343303",
      "countryId": 3194884,
      "countryCode": "ME",
      "stateCode": "ME-20",
      "latitude": 42.03472,
      "longitude": 19.30972
    },
    {
      "id": 3204779,
      "name": "Arbneš",
      "nativeName": "Arbneš",
      "code": "ME-20-3204779",
      "countryId": 3194884,
      "countryCode": "ME",
      "stateCode": "ME-20",
      "latitude": 42.07528,
      "longitude": 19.34028
    },
    {
      "id": 3342539,
      "name": "Briska Gora",
      "nativeName": "Briska Gora",
      "code": "ME-20-3342539",
      "countryId": 3194884,
      "countryCode": "ME",
      "stateCode": "ME-20",
      "latitude": 41.97028,
      "longitude": 19.30333
    },
    {
      "id": 3202550,
      "name": "Ckla",
      "nativeName": "Ckla",
      "code": "ME-20-3202550",
      "countryId": 3194884,
      "countryCode": "ME",
      "stateCode": "ME-20",
      "latitude": 42.08361,
      "longitude": 19.36083
    },
    {
      "id": 3316467,
      "name": "Draginje",
      "nativeName": "Draginje",
      "code": "ME-20-3316467",
      "countryId": 3194884,
      "countryCode": "ME",
      "stateCode": "ME-20",
      "latitude": 42.01417,
      "longitude": 19.34694
    },
    {
      "id": 3342517,
      "name": "Kodre",
      "nativeName": "Kodre",
      "code": "ME-20-3342517",
      "countryId": 3194884,
      "countryCode": "ME",
      "stateCode": "ME-20",
      "latitude": 41.92972,
      "longitude": 19.23889
    },
    {
      "id": 3197877,
      "name": "Kolonza",
      "nativeName": "Kolonza",
      "code": "ME-20-3197877",
      "countryId": 3194884,
      "countryCode": "ME",
      "stateCode": "ME-20",
      "latitude": 41.93528,
      "longitude": 19.25083
    },
    {
      "id": 3197627,
      "name": "Kosići",
      "nativeName": "Kosići",
      "code": "ME-20-3197627",
      "countryId": 3194884,
      "countryCode": "ME",
      "stateCode": "ME-20",
      "latitude": 42.02583,
      "longitude": 19.27306
    },
    {
      "id": 3316462,
      "name": "Kravari",
      "nativeName": "Kravari",
      "code": "ME-20-3316462",
      "countryId": 3194884,
      "countryCode": "ME",
      "stateCode": "ME-20",
      "latitude": 42.04333,
      "longitude": 19.35889
    },
    {
      "id": 3196939,
      "name": "Kunje",
      "nativeName": "Kunje",
      "code": "ME-20-3196939",
      "countryId": 3194884,
      "countryCode": "ME",
      "stateCode": "ME-20",
      "latitude": 42.01389,
      "longitude": 19.17361
    },
    {
      "id": 3316461,
      "name": "Ostros",
      "nativeName": "Ostros",
      "code": "ME-20-3316461",
      "countryId": 3194884,
      "countryCode": "ME",
      "stateCode": "ME-20",
      "latitude": 42.07722,
      "longitude": 19.31833
    },
    {
      "id": 3191914,
      "name": "Rastiš",
      "nativeName": "Rastiš",
      "code": "ME-20-3191914",
      "countryId": 3194884,
      "countryCode": "ME",
      "stateCode": "ME-20",
      "latitude": 42.03833,
      "longitude": 19.33278
    },
    {
      "id": 3191338,
      "name": "Salč",
      "nativeName": "Salč",
      "code": "ME-20-3191338",
      "countryId": 3194884,
      "countryCode": "ME",
      "stateCode": "ME-20",
      "latitude": 41.97028,
      "longitude": 19.21139
    },
    {
      "id": 3342503,
      "name": "Velja Gorana",
      "nativeName": "Velja Gorana",
      "code": "ME-20-3342503",
      "countryId": 3194884,
      "countryCode": "ME",
      "stateCode": "ME-20",
      "latitude": 41.99194,
      "longitude": 19.23222
    },
    {
      "id": 3187549,
      "name": "Vladimir",
      "nativeName": "Vladimir",
      "code": "ME-20-3187549",
      "countryId": 3194884,
      "countryCode": "ME",
      "stateCode": "ME-20",
      "latitude": 42.00667,
      "longitude": 19.31278
    }
  ]
}