{
  "stateId": 11497643,
  "stateCode": "ME-23",
  "countryCode": "ME",
  "cities": [
    {
      "id": 3220594,
      "name": "Petnjica",
      "nativeName": "Petnjica",
      "code": "ME-23-3220594",
      "countryId": 3194884,
      "countryCode": "ME",
      "stateCode": "ME-23",
      "latitude": 42.90889,
      "longitude": 19.96444
    },
    {
      "id": 3338261,
      "name": "Agovica",
      "nativeName": "Agovica",
      "code": "ME-23-3338261",
      "countryId": 3194884,
      "countryCode": "ME",
      "stateCode": "ME-23",
      "latitude": 42.8825,
      "longitude": 19.995
    },
    {
      "id": 3204752,
      "name": "Azanje",
      "nativeName": "Azanje",
      "code": "ME-23-3204752",
      "countryId": 3194884,
      "countryCode": "ME",
      "stateCode": "ME-23",
      "latitude": 42.95,
      "longitude": 19.94806
    },
    {
      "id": 3338124,
      "name": "Babačići",
      "nativeName": "Babačići",
      "code": "ME-23-3338124",
      "countryId": 3194884,
      "countryCode": "ME",
      "stateCode": "ME-23",
      "latitude": 42.93444,
      "longitude": 19.93444
    },
    {
      "id": 3338125,
      "name": "Bare",
      "nativeName": "Bare",
      "code": "ME-23-3338125",
      "countryId": 3194884,
      "countryCode": "ME",
      "stateCode": "ME-23",
      "latitude": 42.92861,
      "longitude": 19.92806
    },
    {
      "id": 3338258,
      "name": "Cikotići",
      "nativeName": "Cikotići",
      "code": "ME-23-3338258",
      "countryId": 3194884,
      "countryCode": "ME",
      "stateCode": "ME-23",
      "latitude": 42.89472,
      "longitude": 19.99861
    },
    {
      "id": 791624,
      "name": "Dašča Rijeka",
      "nativeName": "Dašča Rijeka",
      "code": "ME-23-791624",
      "countryId": 3194884,
      "countryCode": "ME",
      "stateCode": "ME-23",
      "latitude": 42.94444,
      "longitude": 20.07806
    },
    {
      "id": 3201918,
      "name": "Dobrodole",
      "nativeName": "Dobrodole",
      "code": "ME-23-3201918",
      "countryId": 3194884,
      "countryCode": "ME",
      "stateCode": "ME-23",
      "latitude": 42.96472,
      "longitude": 19.99694
    },
    {
      "id": 3338228,
      "name": "Donja Lješnica",
      "nativeName": "Donja Lješnica",
      "code": "ME-23-3338228",
      "countryId": 3194884,
      "countryCode": "ME",
      "stateCode": "ME-23",
      "latitude": 42.92278,
      "longitude": 19.90667
    },
    {
      "id": 3200520,
      "name": "Godočelje",
      "nativeName": "Godočelje",
      "code": "ME-23-3200520",
      "countryId": 3194884,
      "countryCode": "ME",
      "stateCode": "ME-23",
      "latitude": 42.91583,
      "longitude": 19.94306
    },
    {
      "id": 3338229,
      "name": "Gornja Lješnica",
      "nativeName": "Gornja Lješnica",
      "code": "ME-23-3338229",
      "countryId": 3194884,
      "countryCode": "ME",
      "stateCode": "ME-23",
      "latitude": 42.91722,
      "longitude": 19.91722
    },
    {
      "id": 789836,
      "name": "Javorova",
      "nativeName": "Javorova",
      "code": "ME-23-789836",
      "countryId": 3194884,
      "countryCode": "ME",
      "stateCode": "ME-23",
      "latitude": 42.93083,
      "longitude": 20.05194
    },
    {
      "id": 789672,
      "name": "Kalica",
      "nativeName": "Kalica",
      "code": "ME-23-789672",
      "countryId": 3194884,
      "countryCode": "ME",
      "stateCode": "ME-23",
      "latitude": 42.89028,
      "longitude": 20.03722
    },
    {
      "id": 3338241,
      "name": "Koraći",
      "nativeName": "Koraći",
      "code": "ME-23-3338241",
      "countryId": 3194884,
      "countryCode": "ME",
      "stateCode": "ME-23",
      "latitude": 42.91278,
      "longitude": 19.95639
    },
    {
      "id": 788983,
      "name": "Kruščica",
      "nativeName": "Kruščica",
      "code": "ME-23-788983",
      "countryId": 3194884,
      "countryCode": "ME",
      "stateCode": "ME-23",
      "latitude": 42.96722,
      "longitude": 20.07417
    },
    {
      "id": 3196721,
      "name": "Lazi",
      "nativeName": "Lazi",
      "code": "ME-23-3196721",
      "countryId": 3194884,
      "countryCode": "ME",
      "stateCode": "ME-23",
      "latitude": 42.89833,
      "longitude": 19.95444
    },
    {
      "id": 862490,
      "name": "Muhovići",
      "nativeName": "Muhovići",
      "code": "ME-23-862490",
      "countryId": 3194884,
      "countryCode": "ME",
      "stateCode": "ME-23",
      "latitude": 42.90278,
      "longitude": 20.00417
    },
    {
      "id": 862488,
      "name": "Muratovići",
      "nativeName": "Muratovići",
      "code": "ME-23-862488",
      "countryId": 3194884,
      "countryCode": "ME",
      "stateCode": "ME-23",
      "latitude": 42.90889,
      "longitude": 20.01
    },
    {
      "id": 787774,
      "name": "Murovac",
      "nativeName": "Murovac",
      "code": "ME-23-787774",
      "countryId": 3194884,
      "countryCode": "ME",
      "stateCode": "ME-23",
      "latitude": 42.91722,
      "longitude": 20.04861
    },
    {
      "id": 3338237,
      "name": "Paljuh",
      "nativeName": "Paljuh",
      "code": "ME-23-3338237",
      "countryId": 3194884,
      "countryCode": "ME",
      "stateCode": "ME-23",
      "latitude": 42.91056,
      "longitude": 19.93139
    },
    {
      "id": 3341396,
      "name": "Pernica",
      "nativeName": "Pernica",
      "code": "ME-23-3341396",
      "countryId": 3194884,
      "countryCode": "ME",
      "stateCode": "ME-23",
      "latitude": 42.71833,
      "longitude": 19.37083
    },
    {
      "id": 786855,
      "name": "Poroča",
      "nativeName": "Poroča",
      "code": "ME-23-786855",
      "countryId": 3194884,
      "countryCode": "ME",
      "stateCode": "ME-23",
      "latitude": 42.92194,
      "longitude": 20.02472
    },
    {
      "id": 3316675,
      "name": "Prisoja",
      "nativeName": "Prisoja",
      "code": "ME-23-3316675",
      "countryId": 3194884,
      "countryCode": "ME",
      "stateCode": "ME-23",
      "latitude": 42.895,
      "longitude": 19.96139
    },
    {
      "id": 3316661,
      "name": "Selište",
      "nativeName": "Selište",
      "code": "ME-23-3316661",
      "countryId": 3194884,
      "countryCode": "ME",
      "stateCode": "ME-23",
      "latitude": 42.89611,
      "longitude": 19.96806
    },
    {
      "id": 862489,
      "name": "Skenderovići",
      "nativeName": "Skenderovići",
      "code": "ME-23-862489",
      "countryId": 3194884,
      "countryCode": "ME",
      "stateCode": "ME-23",
      "latitude": 42.89556,
      "longitude": 20.00722
    },
    {
      "id": 793188,
      "name": "Skenderska Kalica",
      "nativeName": "Skenderska Kalica",
      "code": "ME-23-793188",
      "countryId": 3194884,
      "countryCode": "ME",
      "stateCode": "ME-23",
      "latitude": 42.90139,
      "longitude": 20.02972
    },
    {
      "id": 3338259,
      "name": "Tarhaniši",
      "nativeName": "Tarhaniši",
      "code": "ME-23-3338259",
      "countryId": 3194884,
      "countryCode": "ME",
      "stateCode": "ME-23",
      "latitude": 42.8875,
      "longitude": 19.99778
    },
    {
      "id": 3338152,
      "name": "Tiganji",
      "nativeName": "Tiganji",
      "code": "ME-23-3338152",
      "countryId": 3194884,
      "countryCode": "ME",
      "stateCode": "ME-23",
      "latitude": 42.88806,
      "longitude": 19.97639
    },
    {
      "id": 862466,
      "name": "Trnavice",
      "nativeName": "Trnavice",
      "code": "ME-23-862466",
      "countryId": 3194884,
      "countryCode": "ME",
      "stateCode": "ME-23",
      "latitude": 42.93361,
      "longitude": 20.00806
    },
    {
      "id": 3188676,
      "name": "Tucanje",
      "nativeName": "Tucanje",
      "code": "ME-23-3188676",
      "countryId": 3194884,
      "countryCode": "ME",
      "stateCode": "ME-23",
      "latitude": 42.92917,
      "longitude": 19.93639
    },
    {
      "id": 3338243,
      "name": "Vrševo",
      "nativeName": "Vrševo",
      "code": "ME-23-3338243",
      "countryId": 3194884,
      "countryCode": "ME",
      "stateCode": "ME-23",
      "latitude": 42.9425,
      "longitude": 19.95694
    },
    {
      "id": 3338284,
      "name": "Ćemani",
      "nativeName": "Ćemani",
      "code": "ME-23-3338284",
      "countryId": 3194884,
      "countryCode": "ME",
      "stateCode": "ME-23",
      "latitude": 42.87361,
      "longitude": 19.98917
    },
    {
      "id": 3338358,
      "name": "Šabotići",
      "nativeName": "Šabotići",
      "code": "ME-23-3338358",
      "countryId": 3194884,
      "countryCode": "ME",
      "stateCode": "ME-23",
      "latitude": 42.9275,
      "longitude": 19.94
    },
    {
      "id": 792457,
      "name": "Bor",
      "nativeName": "Bor",
      "code": "ME-23-792457",
      "countryId": 3194884,
      "countryCode": "ME",
      "stateCode": "ME-23",
      "latitude": 42.94722,
      "longitude": 20.01306
    },
    {
      "id": 3338283,
      "name": "Donja Vrbica",
      "nativeName": "Donja Vrbica",
      "code": "ME-23-3338283",
      "countryId": 3194884,
      "countryCode": "ME",
      "stateCode": "ME-23",
      "latitude": 42.88361,
      "longitude": 19.97861
    },
    {
      "id": 3338286,
      "name": "Gornja Vrbica",
      "nativeName": "Gornja Vrbica",
      "code": "ME-23-3338286",
      "countryId": 3194884,
      "countryCode": "ME",
      "stateCode": "ME-23",
      "latitude": 42.8775,
      "longitude": 19.995
    },
    {
      "id": 3196805,
      "name": "Lagatori",
      "nativeName": "Lagatori",
      "code": "ME-23-3196805",
      "countryId": 3194884,
      "countryCode": "ME",
      "stateCode": "ME-23",
      "latitude": 42.91417,
      "longitude": 19.98722
    },
    {
      "id": 3192732,
      "name": "Ponor",
      "nativeName": "Ponor",
      "code": "ME-23-3192732",
      "countryId": 3194884,
      "countryCode": "ME",
      "stateCode": "ME-23",
      "latitude": 42.93444,
      "longitude": 19.99611
    },
    {
      "id": 3192116,
      "name": "Radmanci",
      "nativeName": "Radmanci",
      "code": "ME-23-3192116",
      "countryId": 3194884,
      "countryCode": "ME",
      "stateCode": "ME-23",
      "latitude": 42.92694,
      "longitude": 19.9675
    },
    {
      "id": 786053,
      "name": "Savin Bor",
      "nativeName": "Savin Bor",
      "code": "ME-23-786053",
      "countryId": 3194884,
      "countryCode": "ME",
      "stateCode": "ME-23",
      "latitude": 42.95194,
      "longitude": 20.055
    },
    {
      "id": 3188731,
      "name": "Trpezi",
      "nativeName": "Trpezi",
      "code": "ME-23-3188731",
      "countryId": 3194884,
      "countryCode": "ME",
      "stateCode": "ME-23",
      "latitude": 42.90389,
      "longitude": 19.99556
    }
  ]
}