{
  "stateId": 1861387,
  "stateCode": "JP-17",
  "countryCode": "JP",
  "cities": [
    {
      "id": 7467838,
      "name": "Hakui Gun",
      "nativeName": "Hakui Gun",
      "code": "JP-17-7467838",
      "countryId": 1861060,
      "countryCode": "JP",
      "stateCode": "JP-17",
      "latitude": 37.00459,
      "longitude": 136.78116
    },
    {
      "id": 1863340,
      "name": "Hakui Shi",
      "nativeName": "Hakui Shi",
      "code": "JP-17-1863340",
      "countryId": 1861060,
      "countryCode": "JP",
      "stateCode": "JP-17",
      "latitude": 36.91136,
      "longitude": 136.81626
    },
    {
      "id": 7467881,
      "name": "Hakusan Shi",
      "nativeName": "Hakusan Shi",
      "code": "JP-17-7467881",
      "countryId": 1861060,
      "countryCode": "JP",
      "stateCode": "JP-17",
      "latitude": 36.27558,
      "longitude": 136.66966
    },
    {
      "id": 7467839,
      "name": "Hōsu Gun",
      "nativeName": "Hōsu Gun",
      "code": "JP-17-7467839",
      "countryId": 1861060,
      "countryCode": "JP",
      "stateCode": "JP-17",
      "latitude": 37.2941,
      "longitude": 137.03107
    },
    {
      "id": 1860845,
      "name": "Kaga Shi",
      "nativeName": "Kaga Shi",
      "code": "JP-17-1860845",
      "countryId": 1861060,
      "countryCode": "JP",
      "stateCode": "JP-17",
      "latitude": 36.25503,
      "longitude": 136.37963
    },
    {
      "id": 1860811,
      "name": "Kahoku Gun",
      "nativeName": "Kahoku Gun",
      "code": "JP-17-1860811",
      "countryId": 1861060,
      "countryCode": "JP",
      "stateCode": "JP-17",
      "latitude": 36.69033,
      "longitude": 136.74899
    },
    {
      "id": 7467880,
      "name": "Kahoku Shi",
      "nativeName": "Kahoku Shi",
      "code": "JP-17-7467880",
      "countryId": 1861060,
      "countryCode": "JP",
      "stateCode": "JP-17",
      "latitude": 36.74365,
      "longitude": 136.73273
    },
    {
      "id": 1860240,
      "name": "Kanazawa City",
      "nativeName": "Kanazawa-shi",
      "code": "JP-17-1860240",
      "countryId": 1861060,
      "countryCode": "JP",
      "stateCode": "JP-17",
      "latitude": 36.51919,
      "longitude": 136.70836
    },
    {
      "id": 7467840,
      "name": "Kashima Gun",
      "nativeName": "Kashima Gun",
      "code": "JP-17-7467840",
      "countryId": 1861060,
      "countryCode": "JP",
      "stateCode": "JP-17",
      "latitude": 36.97667,
      "longitude": 136.89469
    },
    {
      "id": 1858904,
      "name": "Komatsu Shi",
      "nativeName": "Komatsu Shi",
      "code": "JP-17-1858904",
      "countryId": 1861060,
      "countryCode": "JP",
      "stateCode": "JP-17",
      "latitude": 36.31106,
      "longitude": 136.49841
    },
    {
      "id": 7467879,
      "name": "Nanao Shi",
      "nativeName": "Nanao Shi",
      "code": "JP-17-7467879",
      "countryId": 1861060,
      "countryCode": "JP",
      "stateCode": "JP-17",
      "latitude": 37.07844,
      "longitude": 136.9286
    },
    {
      "id": 1855000,
      "name": "Nomi Gun",
      "nativeName": "Nomi Gun",
      "code": "JP-17-1855000",
      "countryId": 1861060,
      "countryCode": "JP",
      "stateCode": "JP-17",
      "latitude": 36.46922,
      "longitude": 136.53661
    },
    {
      "id": 7467882,
      "name": "Nomi Shi",
      "nativeName": "Nomi Shi",
      "code": "JP-17-7467882",
      "countryId": 1861060,
      "countryCode": "JP",
      "stateCode": "JP-17",
      "latitude": 36.43593,
      "longitude": 136.54456
    },
    {
      "id": 1854977,
      "name": "Nonoichi-shi",
      "nativeName": "Nonoichi-shi",
      "code": "JP-17-1854977",
      "countryId": 1861060,
      "countryCode": "JP",
      "stateCode": "JP-17",
      "latitude": 36.52288,
      "longitude": 136.60589
    },
    {
      "id": 1851337,
      "name": "Suzu Shi",
      "nativeName": "Suzu Shi",
      "code": "JP-17-1851337",
      "countryId": 1861060,
      "countryCode": "JP",
      "stateCode": "JP-17",
      "latitude": 37.45533,
      "longitude": 137.22587
    },
    {
      "id": 1848973,
      "name": "Wajima Shi",
      "nativeName": "Wajima Shi",
      "code": "JP-17-1848973",
      "countryId": 1861060,
      "countryCode": "JP",
      "stateCode": "JP-17",
      "latitude": 37.33753,
      "longitude": 136.88757
    }
  ]
}