{
  "stateId": 2113014,
  "stateCode": "JP-12",
  "countryCode": "JP",
  "cities": [
    {
      "id": 2113162,
      "name": "Abiko Shi",
      "nativeName": "Abiko Shi",
      "code": "JP-12-2113162",
      "countryId": 1861060,
      "countryCode": "JP",
      "stateCode": "JP-12",
      "latitude": 35.86947,
      "longitude": 140.0651
    },
    {
      "id": 2113074,
      "name": "Asahi Shi",
      "nativeName": "Asahi Shi",
      "code": "JP-12-2113074",
      "countryId": 1861060,
      "countryCode": "JP",
      "stateCode": "JP-12",
      "latitude": 35.73443,
      "longitude": 140.65549
    },
    {
      "id": 1864901,
      "name": "Awa-gun",
      "nativeName": "Awa-gun",
      "code": "JP-12-1864901",
      "countryId": 1861060,
      "countryCode": "JP",
      "stateCode": "JP-12",
      "latitude": 35.13198,
      "longitude": 139.87038
    },
    {
      "id": 2113012,
      "name": "Chiba Shi",
      "nativeName": "Chiba Shi",
      "code": "JP-12-2113012",
      "countryId": 1861060,
      "countryCode": "JP",
      "stateCode": "JP-12",
      "latitude": 35.60604,
      "longitude": 140.16501
    },
    {
      "id": 2112997,
      "name": "Chōsei-gun",
      "nativeName": "Chōsei-gun",
      "code": "JP-12-2112997",
      "countryId": 1861060,
      "countryCode": "JP",
      "stateCode": "JP-12",
      "latitude": 35.40005,
      "longitude": 140.35534
    },
    {
      "id": 2112994,
      "name": "Chōshi Shi",
      "nativeName": "Chōshi Shi",
      "code": "JP-12-2112994",
      "countryId": 1861060,
      "countryCode": "JP",
      "stateCode": "JP-12",
      "latitude": 35.74303,
      "longitude": 140.77552
    },
    {
      "id": 1863903,
      "name": "Funabashi-shi",
      "nativeName": "Funabashi-shi",
      "code": "JP-12-1863903",
      "countryId": 1861060,
      "countryCode": "JP",
      "stateCode": "JP-12",
      "latitude": 35.69455,
      "longitude": 139.98255
    },
    {
      "id": 1863711,
      "name": "Futtsu Shi",
      "nativeName": "Futtsu Shi",
      "code": "JP-12-1863711",
      "countryId": 1861060,
      "countryCode": "JP",
      "stateCode": "JP-12",
      "latitude": 35.22596,
      "longitude": 139.90054
    },
    {
      "id": 2112663,
      "name": "Ichihara Shi",
      "nativeName": "Ichihara Shi",
      "code": "JP-12-2112663",
      "countryId": 1861060,
      "countryCode": "JP",
      "stateCode": "JP-12",
      "latitude": 35.42484,
      "longitude": 140.13725
    },
    {
      "id": 1861964,
      "name": "Ichikawa",
      "nativeName": "Ichikawa Shi",
      "code": "JP-12-1861964",
      "countryId": 1861060,
      "countryCode": "JP",
      "stateCode": "JP-12",
      "latitude": 35.71865,
      "longitude": 139.93294
    },
    {
      "id": 2112631,
      "name": "Imba-gun",
      "nativeName": "Imba-gun",
      "code": "JP-12-2112631",
      "countryId": 1861060,
      "countryCode": "JP",
      "stateCode": "JP-12",
      "latitude": 35.73927,
      "longitude": 140.27344
    },
    {
      "id": 2112602,
      "name": "Inzai-shi",
      "nativeName": "Inzai-shi",
      "code": "JP-12-2112602",
      "countryId": 1861060,
      "countryCode": "JP",
      "stateCode": "JP-12",
      "latitude": 35.81207,
      "longitude": 140.14098
    },
    {
      "id": 7465524,
      "name": "Isumi Shi",
      "nativeName": "Isumi Shi",
      "code": "JP-12-7465524",
      "countryId": 1861060,
      "countryCode": "JP",
      "stateCode": "JP-12",
      "latitude": 35.27777,
      "longitude": 140.34335
    },
    {
      "id": 2112557,
      "name": "Isumi-gun",
      "nativeName": "Isumi-gun",
      "code": "JP-12-2112557",
      "countryId": 1861060,
      "countryCode": "JP",
      "stateCode": "JP-12",
      "latitude": 35.23435,
      "longitude": 140.23335
    },
    {
      "id": 2112445,
      "name": "Kamagaya Shi",
      "nativeName": "Kamagaya Shi",
      "code": "JP-12-2112445",
      "countryId": 1861060,
      "countryCode": "JP",
      "stateCode": "JP-12",
      "latitude": 35.77289,
      "longitude": 139.99883
    },
    {
      "id": 2112386,
      "name": "Kamogawa-shi",
      "nativeName": "Kamogawa-shi",
      "code": "JP-12-2112386",
      "countryId": 1861060,
      "countryCode": "JP",
      "stateCode": "JP-12",
      "latitude": 35.1,
      "longitude": 140.1
    },
    {
      "id": 2112330,
      "name": "Kashiwa Shi",
      "nativeName": "Kashiwa Shi",
      "code": "JP-12-2112330",
      "countryId": 1861060,
      "countryCode": "JP",
      "stateCode": "JP-12",
      "latitude": 35.86017,
      "longitude": 139.99386
    },
    {
      "id": 2112318,
      "name": "Katori-gun",
      "nativeName": "Katori-gun",
      "code": "JP-12-2112318",
      "countryId": 1861060,
      "countryCode": "JP",
      "stateCode": "JP-12",
      "latitude": 35.74528,
      "longitude": 140.4675
    },
    {
      "id": 2111171,
      "name": "Katori-shi",
      "nativeName": "Katori-shi",
      "code": "JP-12-2111171",
      "countryId": 1861060,
      "countryCode": "JP",
      "stateCode": "JP-12",
      "latitude": 35.88333,
      "longitude": 140.51667
    },
    {
      "id": 9062338,
      "name": "Katsuura-shi",
      "nativeName": "Katsuura-shi",
      "code": "JP-12-9062338",
      "countryId": 1861060,
      "countryCode": "JP",
      "stateCode": "JP-12",
      "latitude": 35.17535,
      "longitude": 140.2676
    },
    {
      "id": 1859468,
      "name": "Kimitsu Shi",
      "nativeName": "Kimitsu Shi",
      "code": "JP-12-1859468",
      "countryId": 1861060,
      "countryCode": "JP",
      "stateCode": "JP-12",
      "latitude": 35.26303,
      "longitude": 140.02406
    },
    {
      "id": 8304237,
      "name": "Kisarazu Shi",
      "nativeName": "Kisarazu Shi",
      "code": "JP-12-8304237",
      "countryId": 1861060,
      "countryCode": "JP",
      "stateCode": "JP-12",
      "latitude": 35.36981,
      "longitude": 139.98749
    },
    {
      "id": 1857552,
      "name": "Matsudo Shi",
      "nativeName": "Matsudo Shi",
      "code": "JP-12-1857552",
      "countryId": 1861060,
      "countryCode": "JP",
      "stateCode": "JP-12",
      "latitude": 35.79574,
      "longitude": 139.92908
    },
    {
      "id": 7465521,
      "name": "Minamibōsō Shi",
      "nativeName": "Minamibōsō Shi",
      "code": "JP-12-7465521",
      "countryId": 1861060,
      "countryCode": "JP",
      "stateCode": "JP-12",
      "latitude": 35.03657,
      "longitude": 139.92847
    },
    {
      "id": 2111854,
      "name": "Mobara Shi",
      "nativeName": "Mobara Shi",
      "code": "JP-12-2111854",
      "countryId": 1861060,
      "countryCode": "JP",
      "stateCode": "JP-12",
      "latitude": 35.44981,
      "longitude": 140.30163
    },
    {
      "id": 1856183,
      "name": "Nagareyama-shi",
      "nativeName": "Nagareyama-shi",
      "code": "JP-12-1856183",
      "countryId": 1861060,
      "countryCode": "JP",
      "stateCode": "JP-12",
      "latitude": 35.85631,
      "longitude": 139.90266
    },
    {
      "id": 2111686,
      "name": "Narashino Shi",
      "nativeName": "Narashino Shi",
      "code": "JP-12-2111686",
      "countryId": 1861060,
      "countryCode": "JP",
      "stateCode": "JP-12",
      "latitude": 35.68091,
      "longitude": 140.03418
    },
    {
      "id": 2111683,
      "name": "Narita",
      "nativeName": "Narita Shi",
      "code": "JP-12-2111683",
      "countryId": 1861060,
      "countryCode": "JP",
      "stateCode": "JP-12",
      "latitude": 35.81547,
      "longitude": 140.35757
    },
    {
      "id": 1855071,
      "name": "Noda-shi",
      "nativeName": "Noda-shi",
      "code": "JP-12-1855071",
      "countryId": 1861060,
      "countryCode": "JP",
      "stateCode": "JP-12",
      "latitude": 35.98516,
      "longitude": 139.86215
    },
    {
      "id": 2111215,
      "name": "Sakura Shi",
      "nativeName": "Sakura Shi",
      "code": "JP-12-2111215",
      "countryId": 1861060,
      "countryCode": "JP",
      "stateCode": "JP-12",
      "latitude": 35.70619,
      "longitude": 140.21326
    },
    {
      "id": 2111211,
      "name": "Sambu-gun",
      "nativeName": "Sambu-gun",
      "code": "JP-12-2111211",
      "countryId": 1861060,
      "countryCode": "JP",
      "stateCode": "JP-12",
      "latitude": 35.68843,
      "longitude": 140.45346
    },
    {
      "id": 7465523,
      "name": "Sanmu Shi",
      "nativeName": "Sanmu Shi",
      "code": "JP-12-7465523",
      "countryId": 1861060,
      "countryCode": "JP",
      "stateCode": "JP-12",
      "latitude": 35.62397,
      "longitude": 140.42079
    },
    {
      "id": 2111017,
      "name": "Shiroi-shi",
      "nativeName": "Shiroi-shi",
      "code": "JP-12-2111017",
      "countryId": 1861060,
      "countryCode": "JP",
      "stateCode": "JP-12",
      "latitude": 35.80164,
      "longitude": 140.06005
    },
    {
      "id": 2110982,
      "name": "Sodegaura-shi",
      "nativeName": "Sodegaura-shi",
      "code": "JP-12-2110982",
      "countryId": 1861060,
      "countryCode": "JP",
      "stateCode": "JP-12",
      "latitude": 35.41642,
      "longitude": 140.01771
    },
    {
      "id": 7465522,
      "name": "Sōsa Shi",
      "nativeName": "Sōsa Shi",
      "code": "JP-12-7465522",
      "countryId": 1861060,
      "countryCode": "JP",
      "stateCode": "JP-12",
      "latitude": 35.69983,
      "longitude": 140.55366
    },
    {
      "id": 1850520,
      "name": "Tateyama Shi",
      "nativeName": "Tateyama Shi",
      "code": "JP-12-1850520",
      "countryId": 1861060,
      "countryCode": "JP",
      "stateCode": "JP-12",
      "latitude": 34.97156,
      "longitude": 139.86163
    },
    {
      "id": 2110747,
      "name": "Tomisato-shi",
      "nativeName": "Tomisato-shi",
      "code": "JP-12-2110747",
      "countryId": 1861060,
      "countryCode": "JP",
      "stateCode": "JP-12",
      "latitude": 35.72024,
      "longitude": 140.3408
    },
    {
      "id": 2110773,
      "name": "Tōgane Shi",
      "nativeName": "Tōgane Shi",
      "code": "JP-12-2110773",
      "countryId": 1861060,
      "countryCode": "JP",
      "stateCode": "JP-12",
      "latitude": 35.56517,
      "longitude": 140.36707
    },
    {
      "id": 1849185,
      "name": "Urayasu-shi",
      "nativeName": "Urayasu-shi",
      "code": "JP-12-1849185",
      "countryId": 1861060,
      "countryCode": "JP",
      "stateCode": "JP-12",
      "latitude": 35.6425,
      "longitude": 139.90192
    },
    {
      "id": 8304238,
      "name": "Yachimata Shi",
      "nativeName": "Yachimata Shi",
      "code": "JP-12-8304238",
      "countryId": 1861060,
      "countryCode": "JP",
      "stateCode": "JP-12",
      "latitude": 35.64241,
      "longitude": 140.29686
    },
    {
      "id": 2110578,
      "name": "Yachiyo",
      "nativeName": "Yachiyo Shi",
      "code": "JP-12-2110578",
      "countryId": 1861060,
      "countryCode": "JP",
      "stateCode": "JP-12",
      "latitude": 35.73921,
      "longitude": 140.10502
    },
    {
      "id": 7465520,
      "name": "Yotsukaidō Shi",
      "nativeName": "Yotsukaidō Shi",
      "code": "JP-12-7465520",
      "countryId": 1861060,
      "countryCode": "JP",
      "stateCode": "JP-12",
      "latitude": 35.67167,
      "longitude": 140.17912
    },
    {
      "id": 7465528,
      "name": "Ōamishirasato-shi",
      "nativeName": "Ōamishirasato-shi",
      "code": "JP-12-7465528",
      "countryId": 1861060,
      "countryCode": "JP",
      "stateCode": "JP-12",
      "latitude": 35.51279,
      "longitude": 140.34295
    }
  ]
}