{
  "stateId": 1856210,
  "stateCode": "JP-20",
  "countryCode": "JP",
  "cities": [
    {
      "id": 10629642,
      "name": "Azumino-Shi",
      "nativeName": "Azumino-Shi",
      "code": "JP-20-10629642",
      "countryId": 1861060,
      "countryCode": "JP",
      "stateCode": "JP-20",
      "latitude": 36.32716,
      "longitude": 137.83988
    },
    {
      "id": 1864613,
      "name": "Chiisakata-gun",
      "nativeName": "Chiisakata-gun",
      "code": "JP-20-1864613",
      "countryId": 1861060,
      "countryCode": "JP",
      "stateCode": "JP-20",
      "latitude": 36.19761,
      "longitude": 138.20552
    },
    {
      "id": 7417078,
      "name": "Chikuma Shi",
      "nativeName": "Chikuma Shi",
      "code": "JP-20-7417078",
      "countryId": 1861060,
      "countryCode": "JP",
      "stateCode": "JP-20",
      "latitude": 36.50624,
      "longitude": 138.12352
    },
    {
      "id": 1864555,
      "name": "Chino Shi",
      "nativeName": "Chino Shi",
      "code": "JP-20-1864555",
      "countryId": 1861060,
      "countryCode": "JP",
      "stateCode": "JP-20",
      "latitude": 36.02522,
      "longitude": 138.24668
    },
    {
      "id": 1863187,
      "name": "Hanishina-gun",
      "nativeName": "Hanishina-gun",
      "code": "JP-20-1863187",
      "countryId": 1861060,
      "countryCode": "JP",
      "stateCode": "JP-20",
      "latitude": 36.45275,
      "longitude": 138.19387
    },
    {
      "id": 1862841,
      "name": "Higashichikuma Gun",
      "nativeName": "Higashichikuma Gun",
      "code": "JP-20-1862841",
      "countryId": 1861060,
      "countryCode": "JP",
      "stateCode": "JP-20",
      "latitude": 36.14009,
      "longitude": 137.84683
    },
    {
      "id": 1861858,
      "name": "Iida Shi",
      "nativeName": "Iida Shi",
      "code": "JP-20-1861858",
      "countryId": 1861060,
      "countryCode": "JP",
      "stateCode": "JP-20",
      "latitude": 35.42287,
      "longitude": 137.89381
    },
    {
      "id": 1861837,
      "name": "Iiyama Shi",
      "nativeName": "Iiyama Shi",
      "code": "JP-20-1861837",
      "countryId": 1861060,
      "countryCode": "JP",
      "stateCode": "JP-20",
      "latitude": 36.91249,
      "longitude": 138.38345
    },
    {
      "id": 1861606,
      "name": "Ina Shi",
      "nativeName": "Ina Shi",
      "code": "JP-20-1861606",
      "countryId": 1861060,
      "countryCode": "JP",
      "stateCode": "JP-20",
      "latitude": 35.79079,
      "longitude": 138.07402
    },
    {
      "id": 1860552,
      "name": "Kamiina-gun",
      "nativeName": "Kamiina-gun",
      "code": "JP-20-1860552",
      "countryId": 1861060,
      "countryCode": "JP",
      "stateCode": "JP-20",
      "latitude": 35.77103,
      "longitude": 137.90726
    },
    {
      "id": 7416552,
      "name": "Kamiminochi-gun",
      "nativeName": "Kamiminochi-gun",
      "code": "JP-20-7416552",
      "countryId": 1861060,
      "countryCode": "JP",
      "stateCode": "JP-20",
      "latitude": 36.76969,
      "longitude": 138.20251
    },
    {
      "id": 1860414,
      "name": "Kamitakai-gun",
      "nativeName": "Kamitakai-gun",
      "code": "JP-20-1860414",
      "countryId": 1861060,
      "countryCode": "JP",
      "stateCode": "JP-20",
      "latitude": 36.66884,
      "longitude": 138.40787
    },
    {
      "id": 7416554,
      "name": "Kiso-gun",
      "nativeName": "Kiso-gun",
      "code": "JP-20-7416554",
      "countryId": 1861060,
      "countryCode": "JP",
      "stateCode": "JP-20",
      "latitude": 35.80299,
      "longitude": 137.63316
    },
    {
      "id": 1859364,
      "name": "Kitaazumi Gun",
      "nativeName": "Kitaazumi Gun",
      "code": "JP-20-1859364",
      "countryId": 1861060,
      "countryCode": "JP",
      "stateCode": "JP-20",
      "latitude": 36.71948,
      "longitude": 137.88127
    },
    {
      "id": 1859278,
      "name": "Kitasaku-gun",
      "nativeName": "Kitasaku-gun",
      "code": "JP-20-1859278",
      "countryId": 1861060,
      "countryCode": "JP",
      "stateCode": "JP-20",
      "latitude": 36.315,
      "longitude": 138.50408
    },
    {
      "id": 1858938,
      "name": "Komagane Shi",
      "nativeName": "Komagane Shi",
      "code": "JP-20-1858938",
      "countryId": 1861060,
      "countryCode": "JP",
      "stateCode": "JP-20",
      "latitude": 35.7277,
      "longitude": 137.94783
    },
    {
      "id": 1858856,
      "name": "Komoro Shi",
      "nativeName": "Komoro Shi",
      "code": "JP-20-1858856",
      "countryId": 1861060,
      "countryCode": "JP",
      "stateCode": "JP-20",
      "latitude": 36.33905,
      "longitude": 138.43503
    },
    {
      "id": 1857516,
      "name": "Matsumoto Shi",
      "nativeName": "Matsumoto Shi",
      "code": "JP-20-1857516",
      "countryId": 1861060,
      "countryCode": "JP",
      "stateCode": "JP-20",
      "latitude": 36.20418,
      "longitude": 137.81419
    },
    {
      "id": 1857141,
      "name": "Minamisaku-gun",
      "nativeName": "Minamisaku-gun",
      "code": "JP-20-1857141",
      "countryId": 1861060,
      "countryCode": "JP",
      "stateCode": "JP-20",
      "latitude": 36.02578,
      "longitude": 138.5294
    },
    {
      "id": 1856209,
      "name": "Nagano Shi",
      "nativeName": "Nagano Shi",
      "code": "JP-20-1856209",
      "countryId": 1861060,
      "countryCode": "JP",
      "stateCode": "JP-20",
      "latitude": 36.65257,
      "longitude": 138.11694
    },
    {
      "id": 1855829,
      "name": "Nakano Shi",
      "nativeName": "Nakano Shi",
      "code": "JP-20-1855829",
      "countryId": 1861060,
      "countryCode": "JP",
      "stateCode": "JP-20",
      "latitude": 36.7694,
      "longitude": 138.34717
    },
    {
      "id": 1854378,
      "name": "Okaya Shi",
      "nativeName": "Okaya Shi",
      "code": "JP-20-1854378",
      "countryId": 1861060,
      "countryCode": "JP",
      "stateCode": "JP-20",
      "latitude": 36.07917,
      "longitude": 138.04805
    },
    {
      "id": 1853055,
      "name": "Saku Shi",
      "nativeName": "Saku Shi",
      "code": "JP-20-1853055",
      "countryId": 1861060,
      "countryCode": "JP",
      "stateCode": "JP-20",
      "latitude": 36.21577,
      "longitude": 138.44529
    },
    {
      "id": 1852309,
      "name": "Shimoina-gun",
      "nativeName": "Shimoina-gun",
      "code": "JP-20-1852309",
      "countryId": 1861060,
      "countryCode": "JP",
      "stateCode": "JP-20",
      "latitude": 35.39129,
      "longitude": 137.72324
    },
    {
      "id": 1852253,
      "name": "Shimominochi-gun",
      "nativeName": "Shimominochi-gun",
      "code": "JP-20-1852253",
      "countryId": 1861060,
      "countryCode": "JP",
      "stateCode": "JP-20",
      "latitude": 36.88026,
      "longitude": 138.58652
    },
    {
      "id": 1852186,
      "name": "Shimotakai-gun",
      "nativeName": "Shimotakai-gun",
      "code": "JP-20-1852186",
      "countryId": 1861060,
      "countryCode": "JP",
      "stateCode": "JP-20",
      "latitude": 36.79796,
      "longitude": 138.49902
    },
    {
      "id": 1852001,
      "name": "Shiojiri-shi",
      "nativeName": "Shiojiri-shi",
      "code": "JP-20-1852001",
      "countryId": 1861060,
      "countryCode": "JP",
      "stateCode": "JP-20",
      "latitude": 36.08333,
      "longitude": 137.93333
    },
    {
      "id": 1851362,
      "name": "Suwa Shi",
      "nativeName": "Suwa Shi",
      "code": "JP-20-1851362",
      "countryId": 1861060,
      "countryCode": "JP",
      "stateCode": "JP-20",
      "latitude": 36.02899,
      "longitude": 138.11357
    },
    {
      "id": 1851367,
      "name": "Suwa-gun",
      "nativeName": "Suwa-gun",
      "code": "JP-20-1851367",
      "countryId": 1861060,
      "countryCode": "JP",
      "stateCode": "JP-20",
      "latitude": 35.97008,
      "longitude": 138.21293
    },
    {
      "id": 1851356,
      "name": "Suzaka-shi",
      "nativeName": "Suzaka-shi",
      "code": "JP-20-1851356",
      "countryId": 1861060,
      "countryCode": "JP",
      "stateCode": "JP-20",
      "latitude": 36.65,
      "longitude": 138.31667
    },
    {
      "id": 7417079,
      "name": "Tōmi Shi",
      "nativeName": "Tōmi Shi",
      "code": "JP-20-7417079",
      "countryId": 1861060,
      "countryCode": "JP",
      "stateCode": "JP-20",
      "latitude": 36.37387,
      "longitude": 138.36866
    },
    {
      "id": 1849427,
      "name": "Ueda Shi",
      "nativeName": "Ueda Shi",
      "code": "JP-20-1849427",
      "countryId": 1861060,
      "countryCode": "JP",
      "stateCode": "JP-20",
      "latitude": 36.38352,
      "longitude": 138.24186
    },
    {
      "id": 1854184,
      "name": "Ōmachi-shi",
      "nativeName": "Ōmachi-shi",
      "code": "JP-20-1854184",
      "countryId": 1861060,
      "countryCode": "JP",
      "stateCode": "JP-20",
      "latitude": 36.55,
      "longitude": 137.75
    }
  ]
}