{
  "stateId": 1853904,
  "stateCode": "JP-27",
  "countryCode": "JP",
  "cities": [
    {
      "id": 1864413,
      "name": "Daitō",
      "nativeName": "Daitō Shi",
      "code": "JP-27-1864413",
      "countryId": 1861060,
      "countryCode": "JP",
      "stateCode": "JP-27",
      "latitude": 34.71284,
      "longitude": 135.63576
    },
    {
      "id": 1864125,
      "name": "Fujiidera-shi",
      "nativeName": "Fujiidera-shi",
      "code": "JP-27-1864125",
      "countryId": 1861060,
      "countryCode": "JP",
      "stateCode": "JP-27",
      "latitude": 34.57422,
      "longitude": 135.5973
    },
    {
      "id": 1863476,
      "name": "Habikino-shi",
      "nativeName": "Habikino-shi",
      "code": "JP-27-1863476",
      "countryId": 1861060,
      "countryCode": "JP",
      "stateCode": "JP-27",
      "latitude": 34.55775,
      "longitude": 135.60631
    },
    {
      "id": 1863185,
      "name": "Hannan Shi",
      "nativeName": "Hannan Shi",
      "code": "JP-27-1863185",
      "countryId": 1861060,
      "countryCode": "JP",
      "stateCode": "JP-27",
      "latitude": 34.33115,
      "longitude": 135.23521
    },
    {
      "id": 1862751,
      "name": "Higashiōsaka Shi",
      "nativeName": "Higashiōsaka Shi",
      "code": "JP-27-1862751",
      "countryId": 1861060,
      "countryCode": "JP",
      "stateCode": "JP-27",
      "latitude": 34.67112,
      "longitude": 135.6176
    },
    {
      "id": 1862538,
      "name": "Hirakata",
      "nativeName": "Hirakata Shi",
      "code": "JP-27-1862538",
      "countryId": 1861060,
      "countryCode": "JP",
      "stateCode": "JP-27",
      "latitude": 34.81762,
      "longitude": 135.68171
    },
    {
      "id": 1862032,
      "name": "Ibaraki Shi",
      "nativeName": "Ibaraki Shi",
      "code": "JP-27-1862032",
      "countryId": 1861060,
      "countryCode": "JP",
      "stateCode": "JP-27",
      "latitude": 34.85588,
      "longitude": 135.54998
    },
    {
      "id": 1861785,
      "name": "Ikeda Shi",
      "nativeName": "Ikeda Shi",
      "code": "JP-27-1861785",
      "countryId": 1861060,
      "countryCode": "JP",
      "stateCode": "JP-27",
      "latitude": 34.83443,
      "longitude": 135.43825
    },
    {
      "id": 1861089,
      "name": "Izumi Shi",
      "nativeName": "Izumi Shi",
      "code": "JP-27-1861089",
      "countryId": 1861060,
      "countryCode": "JP",
      "stateCode": "JP-27",
      "latitude": 34.43135,
      "longitude": 135.47164
    },
    {
      "id": 1861094,
      "name": "Izumi-Ōtsu",
      "nativeName": "Izumiōtsu Shi",
      "code": "JP-27-1861094",
      "countryId": 1861060,
      "countryCode": "JP",
      "stateCode": "JP-27",
      "latitude": 34.50647,
      "longitude": 135.40462
    },
    {
      "id": 7391698,
      "name": "Izumisano Shi",
      "nativeName": "Izumisano Shi",
      "code": "JP-27-7391698",
      "countryId": 1861060,
      "countryCode": "JP",
      "stateCode": "JP-27",
      "latitude": 34.37398,
      "longitude": 135.33682
    },
    {
      "id": 1860870,
      "name": "Kadoma Shi",
      "nativeName": "Kadoma Shi",
      "code": "JP-27-1860870",
      "countryId": 1861060,
      "countryCode": "JP",
      "stateCode": "JP-27",
      "latitude": 34.73215,
      "longitude": 135.59935
    },
    {
      "id": 1860764,
      "name": "Kaizuka Shi",
      "nativeName": "Kaizuka Shi",
      "code": "JP-27-1860764",
      "countryId": 1861060,
      "countryCode": "JP",
      "stateCode": "JP-27",
      "latitude": 34.40105,
      "longitude": 135.3851
    },
    {
      "id": 1859912,
      "name": "Kashiwara-shi",
      "nativeName": "Kashiwara-shi",
      "code": "JP-27-1859912",
      "countryId": 1861060,
      "countryCode": "JP",
      "stateCode": "JP-27",
      "latitude": 34.5792,
      "longitude": 135.62867
    },
    {
      "id": 1859848,
      "name": "Katano Shi",
      "nativeName": "Katano Shi",
      "code": "JP-27-1859848",
      "countryId": 1861060,
      "countryCode": "JP",
      "stateCode": "JP-27",
      "latitude": 34.77215,
      "longitude": 135.68693
    },
    {
      "id": 1859747,
      "name": "Kawachi-nagano Shi",
      "nativeName": "Kawachi-nagano Shi",
      "code": "JP-27-1859747",
      "countryId": 1861060,
      "countryCode": "JP",
      "stateCode": "JP-27",
      "latitude": 34.40547,
      "longitude": 135.56692
    },
    {
      "id": 1859382,
      "name": "Kishiwada Shi",
      "nativeName": "Kishiwada Shi",
      "code": "JP-27-1859382",
      "countryId": 1861060,
      "countryCode": "JP",
      "stateCode": "JP-27",
      "latitude": 34.42747,
      "longitude": 135.41605
    },
    {
      "id": 1857563,
      "name": "Matsubara-shi",
      "nativeName": "Matsubara-shi",
      "code": "JP-27-1857563",
      "countryId": 1861060,
      "countryCode": "JP",
      "stateCode": "JP-27",
      "latitude": 34.57726,
      "longitude": 135.55206
    },
    {
      "id": 1857170,
      "name": "Minamikawachi-gun",
      "nativeName": "Minamikawachi-gun",
      "code": "JP-27-1857170",
      "countryId": 1861060,
      "countryCode": "JP",
      "stateCode": "JP-27",
      "latitude": 34.4686,
      "longitude": 135.64867
    },
    {
      "id": 1857043,
      "name": "Minoo Shi",
      "nativeName": "Minoo Shi",
      "code": "JP-27-1857043",
      "countryId": 1861060,
      "countryCode": "JP",
      "stateCode": "JP-27",
      "latitude": 34.8559,
      "longitude": 135.47926
    },
    {
      "id": 1856974,
      "name": "Mishima-gun",
      "nativeName": "Mishima-gun",
      "code": "JP-27-1856974",
      "countryId": 1861060,
      "countryCode": "JP",
      "stateCode": "JP-27",
      "latitude": 34.89887,
      "longitude": 135.65325
    },
    {
      "id": 8300631,
      "name": "Moriguchi Shi",
      "nativeName": "Moriguchi Shi",
      "code": "JP-27-8300631",
      "countryId": 1861060,
      "countryCode": "JP",
      "stateCode": "JP-27",
      "latitude": 34.74441,
      "longitude": 135.56948
    },
    {
      "id": 1855493,
      "name": "Neyagawa",
      "nativeName": "Neyagawa Shi",
      "code": "JP-27-1855493",
      "countryId": 1861060,
      "countryCode": "JP",
      "stateCode": "JP-27",
      "latitude": 34.76539,
      "longitude": 135.62696
    },
    {
      "id": 1853897,
      "name": "Osaka City",
      "nativeName": "Osaka-shi",
      "code": "JP-27-1853897",
      "countryId": 1861060,
      "countryCode": "JP",
      "stateCode": "JP-27",
      "latitude": 34.69374,
      "longitude": 135.5022
    },
    {
      "id": 7391699,
      "name": "Osakasayama",
      "nativeName": "Ōsaka-sayama Shi",
      "code": "JP-27-7391699",
      "countryId": 1861060,
      "countryCode": "JP",
      "stateCode": "JP-27",
      "latitude": 34.49645,
      "longitude": 135.54894
    },
    {
      "id": 1853167,
      "name": "Sakai Shi",
      "nativeName": "Sakai Shi",
      "code": "JP-27-1853167",
      "countryId": 1861060,
      "countryCode": "JP",
      "stateCode": "JP-27",
      "latitude": 34.53166,
      "longitude": 135.4946
    },
    {
      "id": 7391703,
      "name": "Senboku-gun",
      "nativeName": "Senboku-gun",
      "code": "JP-27-7391703",
      "countryId": 1861060,
      "countryCode": "JP",
      "stateCode": "JP-27",
      "latitude": 34.49244,
      "longitude": 135.39242
    },
    {
      "id": 7391700,
      "name": "Sennan Shi",
      "nativeName": "Sennan Shi",
      "code": "JP-27-7391700",
      "countryId": 1861060,
      "countryCode": "JP",
      "stateCode": "JP-27",
      "latitude": 34.35164,
      "longitude": 135.29176
    },
    {
      "id": 1852716,
      "name": "Sennan-gun",
      "nativeName": "Sennan-gun",
      "code": "JP-27-1852716",
      "countryId": 1861060,
      "countryCode": "JP",
      "stateCode": "JP-27",
      "latitude": 34.30687,
      "longitude": 135.15715
    },
    {
      "id": 1852642,
      "name": "Settsu Shi",
      "nativeName": "Settsu Shi",
      "code": "JP-27-1852642",
      "countryId": 1861060,
      "countryCode": "JP",
      "stateCode": "JP-27",
      "latitude": 34.7722,
      "longitude": 135.56824
    },
    {
      "id": 1852523,
      "name": "Shijonawate",
      "nativeName": "Shijonawate",
      "code": "JP-27-1852523",
      "countryId": 1861060,
      "countryCode": "JP",
      "stateCode": "JP-27",
      "latitude": 34.73242,
      "longitude": 135.66784
    },
    {
      "id": 1851482,
      "name": "Suita Shi",
      "nativeName": "Suita Shi",
      "code": "JP-27-1851482",
      "countryId": 1861060,
      "countryCode": "JP",
      "stateCode": "JP-27",
      "latitude": 34.78556,
      "longitude": 135.51909
    },
    {
      "id": 1851123,
      "name": "Takaishi Shi",
      "nativeName": "Takaishi Shi",
      "code": "JP-27-1851123",
      "countryId": 1861060,
      "countryCode": "JP",
      "stateCode": "JP-27",
      "latitude": 34.52868,
      "longitude": 135.42958
    },
    {
      "id": 1850907,
      "name": "Takatsuki Shi",
      "nativeName": "Takatsuki Shi",
      "code": "JP-27-1850907",
      "countryId": 1861060,
      "countryCode": "JP",
      "stateCode": "JP-27",
      "latitude": 34.88079,
      "longitude": 135.60792
    },
    {
      "id": 1850033,
      "name": "Tondabayashi Shi",
      "nativeName": "Tondabayashi Shi",
      "code": "JP-27-1850033",
      "countryId": 1861060,
      "countryCode": "JP",
      "stateCode": "JP-27",
      "latitude": 34.48882,
      "longitude": 135.59431
    },
    {
      "id": 7391701,
      "name": "Toyonaka",
      "nativeName": "Toyonaka Shi",
      "code": "JP-27-7391701",
      "countryId": 1861060,
      "countryCode": "JP",
      "stateCode": "JP-27",
      "latitude": 34.78191,
      "longitude": 135.47276
    },
    {
      "id": 8714934,
      "name": "Toyono Gun",
      "nativeName": "Toyono Gun",
      "code": "JP-27-8714934",
      "countryId": 1861060,
      "countryCode": "JP",
      "stateCode": "JP-27",
      "latitude": 34.96316,
      "longitude": 135.4312
    },
    {
      "id": 1848519,
      "name": "Yao-shi",
      "nativeName": "Yao-shi",
      "code": "JP-27-1848519",
      "countryId": 1861060,
      "countryCode": "JP",
      "stateCode": "JP-27",
      "latitude": 34.62629,
      "longitude": 135.60099
    }
  ]
}