{
  "stateId": 1859133,
  "stateCode": "JP-39",
  "countryCode": "JP",
  "cities": [
    {
      "id": 1865726,
      "name": "Agawa-gun",
      "nativeName": "Agawa-gun",
      "code": "JP-39-1865726",
      "countryId": 1861060,
      "countryCode": "JP",
      "stateCode": "JP-39",
      "latitude": 33.64006,
      "longitude": 133.23704
    },
    {
      "id": 1865443,
      "name": "Aki Gun",
      "nativeName": "Aki Gun",
      "code": "JP-39-1865443",
      "countryId": 1861060,
      "countryCode": "JP",
      "stateCode": "JP-39",
      "latitude": 33.54889,
      "longitude": 134.09175
    },
    {
      "id": 1865426,
      "name": "Aki Shi",
      "nativeName": "Aki Shi",
      "code": "JP-39-1865426",
      "countryId": 1861060,
      "countryCode": "JP",
      "stateCode": "JP-39",
      "latitude": 33.59082,
      "longitude": 133.95114
    },
    {
      "id": 1863048,
      "name": "Hata-gun",
      "nativeName": "Hata-gun",
      "code": "JP-39-1863048",
      "countryId": 1861060,
      "countryCode": "JP",
      "stateCode": "JP-39",
      "latitude": 33.08137,
      "longitude": 133.04259
    },
    {
      "id": 7405900,
      "name": "Kami Shi",
      "nativeName": "Kami Shi",
      "code": "JP-39-7405900",
      "countryId": 1861060,
      "countryCode": "JP",
      "stateCode": "JP-39",
      "latitude": 33.70816,
      "longitude": 133.85322
    },
    {
      "id": 1859127,
      "name": "Kōchi Shi",
      "nativeName": "Kōchi Shi",
      "code": "JP-39-1859127",
      "countryId": 1861060,
      "countryCode": "JP",
      "stateCode": "JP-39",
      "latitude": 33.58589,
      "longitude": 133.50709
    },
    {
      "id": 7405899,
      "name": "Kōnan Shi",
      "nativeName": "Kōnan Shi",
      "code": "JP-39-7405899",
      "countryId": 1861060,
      "countryCode": "JP",
      "stateCode": "JP-39",
      "latitude": 33.58945,
      "longitude": 133.78553
    },
    {
      "id": 1856389,
      "name": "Muroto Shi",
      "nativeName": "Muroto Shi",
      "code": "JP-39-1856389",
      "countryId": 1861060,
      "countryCode": "JP",
      "stateCode": "JP-39",
      "latitude": 33.38854,
      "longitude": 134.14602
    },
    {
      "id": 1856197,
      "name": "Nagaoka Gun",
      "nativeName": "Nagaoka Gun",
      "code": "JP-39-1856197",
      "countryId": 1861060,
      "countryCode": "JP",
      "stateCode": "JP-39",
      "latitude": 33.79311,
      "longitude": 133.67978
    },
    {
      "id": 1855637,
      "name": "Nankoku Shi",
      "nativeName": "Nankoku Shi",
      "code": "JP-39-1855637",
      "countryId": 1861060,
      "countryCode": "JP",
      "stateCode": "JP-39",
      "latitude": 33.61303,
      "longitude": 133.62304
    },
    {
      "id": 7405898,
      "name": "Shimanto Shi",
      "nativeName": "Shimanto Shi",
      "code": "JP-39-7405898",
      "countryId": 1861060,
      "countryCode": "JP",
      "stateCode": "JP-39",
      "latitude": 33.08159,
      "longitude": 132.85216
    },
    {
      "id": 7405897,
      "name": "Sukumo Shi",
      "nativeName": "Sukumo Shi",
      "code": "JP-39-7405897",
      "countryId": 1861060,
      "countryCode": "JP",
      "stateCode": "JP-39",
      "latitude": 32.96138,
      "longitude": 132.73431
    },
    {
      "id": 1851387,
      "name": "Susaki-shi",
      "nativeName": "Susaki-shi",
      "code": "JP-39-1851387",
      "countryId": 1861060,
      "countryCode": "JP",
      "stateCode": "JP-39",
      "latitude": 33.38333,
      "longitude": 133.26667
    },
    {
      "id": 1851029,
      "name": "Takaoka-gun",
      "nativeName": "Takaoka-gun",
      "code": "JP-39-1851029",
      "countryId": 1861060,
      "countryCode": "JP",
      "stateCode": "JP-39",
      "latitude": 33.34907,
      "longitude": 133.07539
    },
    {
      "id": 1849928,
      "name": "Tosa Shi",
      "nativeName": "Tosa Shi",
      "code": "JP-39-1849928",
      "countryId": 1861060,
      "countryCode": "JP",
      "stateCode": "JP-39",
      "latitude": 33.47734,
      "longitude": 133.39115
    },
    {
      "id": 1849939,
      "name": "Tosa-gun",
      "nativeName": "Tosa-gun",
      "code": "JP-39-1849939",
      "countryId": 1861060,
      "countryCode": "JP",
      "stateCode": "JP-39",
      "latitude": 33.75857,
      "longitude": 133.46269
    },
    {
      "id": 1849927,
      "name": "Tosa-shimizu Shi",
      "nativeName": "Tosa-shimizu Shi",
      "code": "JP-39-1849927",
      "countryId": 1861060,
      "countryCode": "JP",
      "stateCode": "JP-39",
      "latitude": 32.82855,
      "longitude": 132.89283
    }
  ]
}