{
  "countryId": 2110425,
  "countryCode": "NR",
  "states": [
    {
      "id": 2110451,
      "name": "Aiwo District",
      "nativeName": "Aiwo District",
      "code": "NR-01",
      "internalCode": "01",
      "countryId": 2110425,
      "countryCode": "NR",
      "latitude": -0.53422,
      "longitude": 166.90994
    },
    {
      "id": 2110449,
      "name": "Anabar District",
      "nativeName": "Anabar District",
      "code": "NR-02",
      "internalCode": "02",
      "countryId": 2110425,
      "countryCode": "NR",
      "latitude": -0.50742,
      "longitude": 166.9524
    },
    {
      "id": 2110448,
      "name": "Anetan District",
      "nativeName": "Anetan District",
      "code": "NR-03",
      "internalCode": "03",
      "countryId": 2110425,
      "countryCode": "NR",
      "latitude": -0.5035,
      "longitude": 166.94348
    },
    {
      "id": 2110445,
      "name": "Anibare District",
      "nativeName": "Anibare District",
      "code": "NR-04",
      "internalCode": "04",
      "countryId": 2110425,
      "countryCode": "NR",
      "latitude": -0.53459,
      "longitude": 166.95032
    },
    {
      "id": 2110442,
      "name": "Baiti District",
      "nativeName": "Baiti District",
      "code": "NR-05",
      "internalCode": "05",
      "countryId": 2110425,
      "countryCode": "NR",
      "latitude": -0.50754,
      "longitude": 166.92969
    },
    {
      "id": 2110441,
      "name": "Boe District",
      "nativeName": "Boe District",
      "code": "NR-06",
      "internalCode": "06",
      "countryId": 2110425,
      "countryCode": "NR",
      "latitude": -0.54158,
      "longitude": 166.91421
    },
    {
      "id": 2110440,
      "name": "Buada District",
      "nativeName": "Buada District",
      "code": "NR-07",
      "internalCode": "07",
      "countryId": 2110425,
      "countryCode": "NR",
      "latitude": -0.53532,
      "longitude": 166.92086
    },
    {
      "id": 2110437,
      "name": "Denigomodu District",
      "nativeName": "Denigomodu District",
      "code": "NR-08",
      "internalCode": "08",
      "countryId": 2110425,
      "countryCode": "NR",
      "latitude": -0.52187,
      "longitude": 166.91632
    },
    {
      "id": 2110435,
      "name": "Ewa District",
      "nativeName": "Ewa District",
      "code": "NR-09",
      "internalCode": "09",
      "countryId": 2110425,
      "countryCode": "NR",
      "latitude": -0.5033,
      "longitude": 166.93453
    },
    {
      "id": 2110432,
      "name": "Ijuw District",
      "nativeName": "Ijuw District",
      "code": "NR-10",
      "internalCode": "10",
      "countryId": 2110425,
      "countryCode": "NR",
      "latitude": -0.52141,
      "longitude": 166.95798
    },
    {
      "id": 2110431,
      "name": "Meneng District",
      "nativeName": "Meneng District",
      "code": "NR-11",
      "internalCode": "11",
      "countryId": 2110425,
      "countryCode": "NR",
      "latitude": -0.55242,
      "longitude": 166.93788
    },
    {
      "id": 2110423,
      "name": "Nibok District",
      "nativeName": "Nibok District",
      "code": "NR-12",
      "internalCode": "12",
      "countryId": 2110425,
      "countryCode": "NR",
      "latitude": -0.51725,
      "longitude": 166.9223
    },
    {
      "id": 2110420,
      "name": "Uaboe District",
      "nativeName": "Uaboe District",
      "code": "NR-13",
      "internalCode": "13",
      "countryId": 2110425,
      "countryCode": "NR",
      "latitude": -0.51399,
      "longitude": 166.9258
    },
    {
      "id": 2110418,
      "name": "Yaren District",
      "nativeName": "Yaren",
      "code": "NR-14",
      "internalCode": "14",
      "countryId": 2110425,
      "countryCode": "NR",
      "latitude": -0.54724,
      "longitude": 166.91599
    }
  ]
}