{
  "stateId": 3578039,
  "stateCode": "MS-03",
  "countryCode": "MS",
  "cities": [
    {
      "id": 3578038,
      "name": "Saint Peters",
      "nativeName": "Saint Peters",
      "code": "MS-03-3578038",
      "countryId": 3578097,
      "countryCode": "MS",
      "stateCode": "MS-03",
      "latitude": 16.7727,
      "longitude": -62.21729
    },
    {
      "id": 3578250,
      "name": "Baker Hill",
      "nativeName": "Baker Hill",
      "code": "MS-03-3578250",
      "countryId": 3578097,
      "countryCode": "MS",
      "stateCode": "MS-03",
      "latitude": 16.7774,
      "longitude": -62.20939
    },
    {
      "id": 3578248,
      "name": "Banks",
      "nativeName": "Banks",
      "code": "MS-03-3578248",
      "countryId": 3578097,
      "countryCode": "MS",
      "stateCode": "MS-03",
      "latitude": 16.78374,
      "longitude": -62.21464
    },
    {
      "id": 3578210,
      "name": "Cavalla Hill",
      "nativeName": "Cavalla Hill",
      "code": "MS-03-3578210",
      "countryId": 3578097,
      "countryCode": "MS",
      "stateCode": "MS-03",
      "latitude": 16.77658,
      "longitude": -62.20574
    },
    {
      "id": 3578200,
      "name": "Cudjoe Head",
      "nativeName": "Cudjoe Head",
      "code": "MS-03-3578200",
      "countryId": 3578097,
      "countryCode": "MS",
      "stateCode": "MS-03",
      "latitude": 16.78441,
      "longitude": -62.20819
    },
    {
      "id": 3578197,
      "name": "Davy Hill",
      "nativeName": "Davy Hill",
      "code": "MS-03-3578197",
      "countryId": 3578097,
      "countryCode": "MS",
      "stateCode": "MS-03",
      "latitude": 16.79443,
      "longitude": -62.2051
    },
    {
      "id": 3578193,
      "name": "Drummond’s",
      "nativeName": "Drummond’s",
      "code": "MS-03-3578193",
      "countryId": 3578097,
      "countryCode": "MS",
      "stateCode": "MS-03",
      "latitude": 16.80065,
      "longitude": -62.19736
    },
    {
      "id": 3578173,
      "name": "Fogarty",
      "nativeName": "Fogarty",
      "code": "MS-03-3578173",
      "countryId": 3578097,
      "countryCode": "MS",
      "stateCode": "MS-03",
      "latitude": 16.77334,
      "longitude": -62.21383
    },
    {
      "id": 3578169,
      "name": "Frith",
      "nativeName": "Frith",
      "code": "MS-03-3578169",
      "countryId": 3578097,
      "countryCode": "MS",
      "stateCode": "MS-03",
      "latitude": 16.7448,
      "longitude": -62.21798
    },
    {
      "id": 3578160,
      "name": "Gerald's",
      "nativeName": "Gerald's",
      "code": "MS-03-3578160",
      "countryId": 3578097,
      "countryCode": "MS",
      "stateCode": "MS-03",
      "latitude": 16.79575,
      "longitude": -62.19356
    },
    {
      "id": 3578149,
      "name": "Happy Hill",
      "nativeName": "Happy Hill",
      "code": "MS-03-3578149",
      "countryId": 3578097,
      "countryCode": "MS",
      "stateCode": "MS-03",
      "latitude": 16.74189,
      "longitude": -62.22301
    },
    {
      "id": 3578085,
      "name": "Old Norwood",
      "nativeName": "Old Norwood",
      "code": "MS-03-3578085",
      "countryId": 3578097,
      "countryCode": "MS",
      "stateCode": "MS-03",
      "latitude": 16.78607,
      "longitude": -62.19842
    },
    {
      "id": 3578062,
      "name": "Rendezvous",
      "nativeName": "Rendezvous",
      "code": "MS-03-3578062",
      "countryId": 3578097,
      "countryCode": "MS",
      "stateCode": "MS-03",
      "latitude": 16.80894,
      "longitude": -62.19958
    },
    {
      "id": 3578041,
      "name": "Saint John's Village",
      "nativeName": "Saint John's Village",
      "code": "MS-03-3578041",
      "countryId": 3578097,
      "countryCode": "MS",
      "stateCode": "MS-03",
      "latitude": 16.78215,
      "longitude": -62.19103
    },
    {
      "id": 3578037,
      "name": "Salem",
      "nativeName": "Salem",
      "code": "MS-03-3578037",
      "countryId": 3578097,
      "countryCode": "MS",
      "stateCode": "MS-03",
      "latitude": 16.75095,
      "longitude": -62.22175
    },
    {
      "id": 3578028,
      "name": "Soldier Ghaut",
      "nativeName": "Soldier Ghaut",
      "code": "MS-03-3578028",
      "countryId": 3578097,
      "countryCode": "MS",
      "stateCode": "MS-03",
      "latitude": 16.7827,
      "longitude": -62.21117
    },
    {
      "id": 3577992,
      "name": "Virgin Islands",
      "nativeName": "Virgin Islands",
      "code": "MS-03-3577992",
      "countryId": 3578097,
      "countryCode": "MS",
      "stateCode": "MS-03",
      "latitude": 16.77874,
      "longitude": -62.21734
    },
    {
      "id": 3578249,
      "name": "Banks Level",
      "nativeName": "Banks Level",
      "code": "MS-03-3578249",
      "countryId": 3578097,
      "countryCode": "MS",
      "stateCode": "MS-03",
      "latitude": 16.78612,
      "longitude": -62.21611
    },
    {
      "id": 3578235,
      "name": "Black Ghaut Basin",
      "nativeName": "Black Ghaut Basin",
      "code": "MS-03-3578235",
      "countryId": 3578097,
      "countryCode": "MS",
      "stateCode": "MS-03",
      "latitude": 16.78848,
      "longitude": -62.21444
    },
    {
      "id": 3578206,
      "name": "Cheapend",
      "nativeName": "Cheapend",
      "code": "MS-03-3578206",
      "countryId": 3578097,
      "countryCode": "MS",
      "stateCode": "MS-03",
      "latitude": 16.74203,
      "longitude": -62.21975
    },
    {
      "id": 3578191,
      "name": "Duberry Hill",
      "nativeName": "Duberry Hill",
      "code": "MS-03-3578191",
      "countryId": 3578097,
      "countryCode": "MS",
      "stateCode": "MS-03",
      "latitude": 16.7584,
      "longitude": -62.22174
    },
    {
      "id": 3578175,
      "name": "Fleming",
      "nativeName": "Fleming",
      "code": "MS-03-3578175",
      "countryId": 3578097,
      "countryCode": "MS",
      "stateCode": "MS-03",
      "latitude": 16.74499,
      "longitude": -62.21685
    },
    {
      "id": 3578159,
      "name": "Gerald’s Bottom",
      "nativeName": "Gerald’s Bottom",
      "code": "MS-03-3578159",
      "countryId": 3578097,
      "countryCode": "MS",
      "stateCode": "MS-03",
      "latitude": 16.79042,
      "longitude": -62.1977
    },
    {
      "id": 3578142,
      "name": "Hope",
      "nativeName": "Hope",
      "code": "MS-03-3578142",
      "countryId": 3578097,
      "countryCode": "MS",
      "stateCode": "MS-03",
      "latitude": 16.74854,
      "longitude": -62.21766
    },
    {
      "id": 3578137,
      "name": "Iles Bay",
      "nativeName": "Iles Bay",
      "code": "MS-03-3578137",
      "countryId": 3578097,
      "countryCode": "MS",
      "stateCode": "MS-03",
      "latitude": 16.7366,
      "longitude": -62.23012
    },
    {
      "id": 3578138,
      "name": "Iles Bay",
      "nativeName": "Iles Bay",
      "code": "MS-03-3578138",
      "countryId": 3578097,
      "countryCode": "MS",
      "stateCode": "MS-03",
      "latitude": 16.73514,
      "longitude": -62.21785
    },
    {
      "id": 3578103,
      "name": "Marko Bottom",
      "nativeName": "Marko Bottom",
      "code": "MS-03-3578103",
      "countryId": 3578097,
      "countryCode": "MS",
      "stateCode": "MS-03",
      "latitude": 16.78482,
      "longitude": -62.21242
    },
    {
      "id": 3578090,
      "name": "Nixons",
      "nativeName": "Nixons",
      "code": "MS-03-3578090",
      "countryId": 3578097,
      "countryCode": "MS",
      "stateCode": "MS-03",
      "latitude": 16.78001,
      "longitude": -62.21266
    },
    {
      "id": 3578080,
      "name": "Old Towne",
      "nativeName": "Old Towne",
      "code": "MS-03-3578080",
      "countryId": 3578097,
      "countryCode": "MS",
      "stateCode": "MS-03",
      "latitude": 16.74693,
      "longitude": -62.23369
    },
    {
      "id": 3578079,
      "name": "Olveston",
      "nativeName": "Olveston",
      "code": "MS-03-3578079",
      "countryId": 3578097,
      "countryCode": "MS",
      "stateCode": "MS-03",
      "latitude": 16.75433,
      "longitude": -62.22884
    },
    {
      "id": 3578068,
      "name": "Pond Bottom",
      "nativeName": "Pond Bottom",
      "code": "MS-03-3578068",
      "countryId": 3578097,
      "countryCode": "MS",
      "stateCode": "MS-03",
      "latitude": 16.78139,
      "longitude": -62.20989
    },
    {
      "id": 3578049,
      "name": "Rocklands",
      "nativeName": "Rocklands",
      "code": "MS-03-3578049",
      "countryId": 3578097,
      "countryCode": "MS",
      "stateCode": "MS-03",
      "latitude": 16.74193,
      "longitude": -62.21965
    },
    {
      "id": 3577978,
      "name": "Woodlands",
      "nativeName": "Woodlands",
      "code": "MS-03-3577978",
      "countryId": 3578097,
      "countryCode": "MS",
      "stateCode": "MS-03",
      "latitude": 16.75741,
      "longitude": -62.22433
    },
    {
      "id": 3577973,
      "name": "Zion Hill",
      "nativeName": "Zion Hill",
      "code": "MS-03-3577973",
      "countryId": 3578097,
      "countryCode": "MS",
      "stateCode": "MS-03",
      "latitude": 16.76809,
      "longitude": -62.21793
    }
  ]
}