{
  "stateId": 3566062,
  "stateCode": "CU-09",
  "countryCode": "CU",
  "cities": [
    {
      "id": 11288252,
      "name": "Carlos Manuel De Cespedes",
      "nativeName": "Carlos Manuel De Cespedes",
      "code": "CU-09-11288252",
      "countryId": 3562981,
      "countryCode": "CU",
      "stateCode": "CU-09",
      "latitude": 21.67046,
      "longitude": -78.28233
    },
    {
      "id": 11288079,
      "name": "Jimaguayu",
      "nativeName": "Jimaguayu",
      "code": "CU-09-11288079",
      "countryId": 3562981,
      "countryCode": "CU",
      "stateCode": "CU-09",
      "latitude": 21.24273,
      "longitude": -77.82436
    },
    {
      "id": 11288080,
      "name": "Minas",
      "nativeName": "Minas",
      "code": "CU-09-11288080",
      "countryId": 3562981,
      "countryCode": "CU",
      "stateCode": "CU-09",
      "latitude": 21.48752,
      "longitude": -77.6103
    },
    {
      "id": 3566063,
      "name": "Municipality of Camagüey",
      "nativeName": "Municipio de Camagüey",
      "code": "CU-09-3566063",
      "countryId": 3562981,
      "countryCode": "CU",
      "stateCode": "CU-09",
      "latitude": 21.43728,
      "longitude": -77.96172
    },
    {
      "id": 3559316,
      "name": "Municipio de Esmeralda",
      "nativeName": "Municipio de Esmeralda",
      "code": "CU-09-3559316",
      "countryId": 3562981,
      "countryCode": "CU",
      "stateCode": "CU-09",
      "latitude": 21.84439,
      "longitude": -78.02536
    },
    {
      "id": 3558766,
      "name": "Municipio de Florida",
      "nativeName": "Municipio de Florida",
      "code": "CU-09-3558766",
      "countryId": 3562981,
      "countryCode": "CU",
      "stateCode": "CU-09",
      "latitude": 21.46582,
      "longitude": -78.34848
    },
    {
      "id": 3557921,
      "name": "Municipio de Guáimaro",
      "nativeName": "Municipio de Guáimaro",
      "code": "CU-09-3557921",
      "countryId": 3562981,
      "countryCode": "CU",
      "stateCode": "CU-09",
      "latitude": 21.26454,
      "longitude": -77.31442
    },
    {
      "id": 3545838,
      "name": "Municipio de Nuevitas",
      "nativeName": "Municipio de Nuevitas",
      "code": "CU-09-3545838",
      "countryId": 3562981,
      "countryCode": "CU",
      "stateCode": "CU-09",
      "latitude": 21.55,
      "longitude": -77.26667
    },
    {
      "id": 3537839,
      "name": "Municipio de Santa Cruz del Sur",
      "nativeName": "Municipio de Santa Cruz del Sur",
      "code": "CU-09-3537839",
      "countryId": 3562981,
      "countryCode": "CU",
      "stateCode": "CU-09",
      "latitude": 20.82135,
      "longitude": -78.03738
    },
    {
      "id": 11288301,
      "name": "Najasa",
      "nativeName": "Najasa",
      "code": "CU-09-11288301",
      "countryId": 3562981,
      "countryCode": "CU",
      "stateCode": "CU-09",
      "latitude": 21.07211,
      "longitude": -77.74681
    },
    {
      "id": 11288081,
      "name": "Sibanicu",
      "nativeName": "Sibanicu",
      "code": "CU-09-11288081",
      "countryId": 3562981,
      "countryCode": "CU",
      "stateCode": "CU-09",
      "latitude": 21.23569,
      "longitude": -77.52408
    },
    {
      "id": 11288082,
      "name": "Sierra De Cubitas",
      "nativeName": "Sierra De Cubitas",
      "code": "CU-09-11288082",
      "countryId": 3562981,
      "countryCode": "CU",
      "stateCode": "CU-09",
      "latitude": 21.70454,
      "longitude": -77.78918
    },
    {
      "id": 11288083,
      "name": "Vertientes",
      "nativeName": "Vertientes",
      "code": "CU-09-11288083",
      "countryId": 3562981,
      "countryCode": "CU",
      "stateCode": "CU-09",
      "latitude": 21.26317,
      "longitude": -78.15125
    }
  ]
}