{
  "stateId": 3557685,
  "stateCode": "CU-14",
  "countryCode": "CU",
  "cities": [
    {
      "id": 11288222,
      "name": "Caimanera",
      "nativeName": "Caimanera",
      "code": "CU-14-11288222",
      "countryId": 3562981,
      "countryCode": "CU",
      "stateCode": "CU-14",
      "latitude": 19.98967,
      "longitude": -75.15181
    },
    {
      "id": 11288223,
      "name": "El Salvador",
      "nativeName": "El Salvador",
      "code": "CU-14-11288223",
      "countryId": 3562981,
      "countryCode": "CU",
      "stateCode": "CU-14",
      "latitude": 20.21894,
      "longitude": -75.22987
    },
    {
      "id": 11288224,
      "name": "Imias",
      "nativeName": "Imias",
      "code": "CU-14-11288224",
      "countryId": 3562981,
      "countryCode": "CU",
      "stateCode": "CU-14",
      "latitude": 20.06854,
      "longitude": -74.62747
    },
    {
      "id": 11288225,
      "name": "Maisi",
      "nativeName": "Maisi",
      "code": "CU-14-11288225",
      "countryId": 3562981,
      "countryCode": "CU",
      "stateCode": "CU-14",
      "latitude": 20.24733,
      "longitude": -74.1487
    },
    {
      "id": 11288226,
      "name": "Manuel Tames",
      "nativeName": "Manuel Tames",
      "code": "CU-14-11288226",
      "countryId": 3562981,
      "countryCode": "CU",
      "stateCode": "CU-14",
      "latitude": 20.1787,
      "longitude": -75.0552
    },
    {
      "id": 3567831,
      "name": "Municipio de Baracoa",
      "nativeName": "Municipio de Baracoa",
      "code": "CU-14-3567831",
      "countryId": 3562981,
      "countryCode": "CU",
      "stateCode": "CU-14",
      "latitude": 20.36823,
      "longitude": -74.58483
    },
    {
      "id": 3557686,
      "name": "Municipio de Guantánamo",
      "nativeName": "Municipio de Guantánamo",
      "code": "CU-14-3557686",
      "countryId": 3562981,
      "countryCode": "CU",
      "stateCode": "CU-14",
      "latitude": 20.26723,
      "longitude": -75.15546
    },
    {
      "id": 3533721,
      "name": "Municipio de Yateras",
      "nativeName": "Municipio de Yateras",
      "code": "CU-14-3533721",
      "countryId": 3562981,
      "countryCode": "CU",
      "stateCode": "CU-14",
      "latitude": 20.3913,
      "longitude": -74.91967
    },
    {
      "id": 11288227,
      "name": "Niceto Perez",
      "nativeName": "Niceto Perez",
      "code": "CU-14-11288227",
      "countryId": 3562981,
      "countryCode": "CU",
      "stateCode": "CU-14",
      "latitude": 20.08635,
      "longitude": -75.30643
    },
    {
      "id": 11288229,
      "name": "San Antonio Del Sur",
      "nativeName": "San Antonio Del Sur",
      "code": "CU-14-11288229",
      "countryId": 3562981,
      "countryCode": "CU",
      "stateCode": "CU-14",
      "latitude": 20.05564,
      "longitude": -74.8075
    }
  ]
}