{
  "stateId": 1267701,
  "stateCode": "IN-KA",
  "countryCode": "IN",
  "cities": [
    {
      "id": 8224037,
      "name": "Bagalkot",
      "nativeName": "Bagalkot",
      "code": "IN-KA-8224037",
      "countryId": 1269750,
      "countryCode": "IN",
      "stateCode": "IN-KA",
      "latitude": 16.18,
      "longitude": 75.69
    },
    {
      "id": 1276510,
      "name": "Ballari",
      "nativeName": "Ballari",
      "code": "IN-KA-1276510",
      "countryId": 1269750,
      "countryCode": "IN",
      "stateCode": "IN-KA",
      "latitude": 15.15,
      "longitude": 76.55
    },
    {
      "id": 1276534,
      "name": "Belgaum district",
      "nativeName": "Belgaum",
      "code": "IN-KA-1276534",
      "countryId": 1269750,
      "countryCode": "IN",
      "stateCode": "IN-KA",
      "latitude": 16.33333,
      "longitude": 74.75
    },
    {
      "id": 1277332,
      "name": "Bengaluru Rural",
      "nativeName": "Bangalore Rural",
      "code": "IN-KA-1277332",
      "countryId": 1269750,
      "countryCode": "IN",
      "stateCode": "IN-KA",
      "latitude": 13.22567,
      "longitude": 77.57501
    },
    {
      "id": 1277331,
      "name": "Bengaluru Urban",
      "nativeName": "Bangalore Urban",
      "code": "IN-KA-1277331",
      "countryId": 1269750,
      "countryCode": "IN",
      "stateCode": "IN-KA",
      "latitude": 13,
      "longitude": 77.58333
    },
    {
      "id": 1275739,
      "name": "Bidar",
      "nativeName": "Bīdar",
      "code": "IN-KA-1275739",
      "countryId": 1269750,
      "countryCode": "IN",
      "stateCode": "IN-KA",
      "latitude": 18.08333,
      "longitude": 77.33333
    },
    {
      "id": 8224050,
      "name": "Chamarajanagar",
      "nativeName": "Chamrajnagar",
      "code": "IN-KA-8224050",
      "countryId": 1269750,
      "countryCode": "IN",
      "stateCode": "IN-KA",
      "latitude": 11.96,
      "longitude": 77.09
    },
    {
      "id": 8224036,
      "name": "Chikballapur",
      "nativeName": "Chikkaballapur",
      "code": "IN-KA-8224036",
      "countryId": 1269750,
      "countryCode": "IN",
      "stateCode": "IN-KA",
      "latitude": 13.55,
      "longitude": 77.87
    },
    {
      "id": 1274221,
      "name": "Chikkamagaluru",
      "nativeName": "Chikmagalur",
      "code": "IN-KA-1274221",
      "countryId": 1269750,
      "countryCode": "IN",
      "stateCode": "IN-KA",
      "latitude": 13.49,
      "longitude": 75.73
    },
    {
      "id": 1274057,
      "name": "Chitradurga",
      "nativeName": "Chitradurga",
      "code": "IN-KA-1274057",
      "countryId": 1269750,
      "countryCode": "IN",
      "stateCode": "IN-KA",
      "latitude": 14.2,
      "longitude": 76.5
    },
    {
      "id": 1273664,
      "name": "Dakshina Kannada District",
      "nativeName": "Dakshina Kannada",
      "code": "IN-KA-1273664",
      "countryId": 1269750,
      "countryCode": "IN",
      "stateCode": "IN-KA",
      "latitude": 12.84,
      "longitude": 75.29
    },
    {
      "id": 7646984,
      "name": "Davangere",
      "nativeName": "Davanagere",
      "code": "IN-KA-7646984",
      "countryId": 1269750,
      "countryCode": "IN",
      "stateCode": "IN-KA",
      "latitude": 14.43,
      "longitude": 75.9
    },
    {
      "id": 1272797,
      "name": "Dharwad",
      "nativeName": "Dharwad",
      "code": "IN-KA-1272797",
      "countryId": 1269750,
      "countryCode": "IN",
      "stateCode": "IN-KA",
      "latitude": 15.37,
      "longitude": 75.14
    },
    {
      "id": 7909847,
      "name": "Gadag",
      "nativeName": "Gadag",
      "code": "IN-KA-7909847",
      "countryId": 1269750,
      "countryCode": "IN",
      "stateCode": "IN-KA",
      "latitude": 15.49835,
      "longitude": 75.65187
    },
    {
      "id": 1270240,
      "name": "Hassan",
      "nativeName": "Hassan",
      "code": "IN-KA-1270240",
      "countryId": 1269750,
      "countryCode": "IN",
      "stateCode": "IN-KA",
      "latitude": 12.95,
      "longitude": 76.08333
    },
    {
      "id": 7909842,
      "name": "Haveri",
      "nativeName": "Haveri",
      "code": "IN-KA-7909842",
      "countryId": 1269750,
      "countryCode": "IN",
      "stateCode": "IN-KA",
      "latitude": 14.73732,
      "longitude": 75.41062
    },
    {
      "id": 1270753,
      "name": "Kalaburagi",
      "nativeName": "Gulbarga",
      "code": "IN-KA-1270753",
      "countryId": 1269750,
      "countryCode": "IN",
      "stateCode": "IN-KA",
      "latitude": 17.16667,
      "longitude": 77.08333
    },
    {
      "id": 1266426,
      "name": "Kodagu District",
      "nativeName": "Kodagu",
      "code": "IN-KA-1266426",
      "countryId": 1269750,
      "countryCode": "IN",
      "stateCode": "IN-KA",
      "latitude": 12.41667,
      "longitude": 75.75
    },
    {
      "id": 1266306,
      "name": "Kolar district",
      "nativeName": "Kolar",
      "code": "IN-KA-1266306",
      "countryId": 1269750,
      "countryCode": "IN",
      "stateCode": "IN-KA",
      "latitude": 13.13,
      "longitude": 78.23
    },
    {
      "id": 7627234,
      "name": "Koppal",
      "nativeName": "Koppal",
      "code": "IN-KA-7627234",
      "countryId": 1269750,
      "countryCode": "IN",
      "stateCode": "IN-KA",
      "latitude": 15.5,
      "longitude": 76.2
    },
    {
      "id": 1263815,
      "name": "Mandya",
      "nativeName": "Mandya",
      "code": "IN-KA-1263815",
      "countryId": 1269750,
      "countryCode": "IN",
      "stateCode": "IN-KA",
      "latitude": 12.58333,
      "longitude": 76.66667
    },
    {
      "id": 1262322,
      "name": "Mysuru",
      "nativeName": "Mysore",
      "code": "IN-KA-1262322",
      "countryId": 1269750,
      "countryCode": "IN",
      "stateCode": "IN-KA",
      "latitude": 12.23,
      "longitude": 76.42
    },
    {
      "id": 1259013,
      "name": "Raichur district",
      "nativeName": "Raichur",
      "code": "IN-KA-1259013",
      "countryId": 1269750,
      "countryCode": "IN",
      "stateCode": "IN-KA",
      "latitude": 16.16,
      "longitude": 76.91
    },
    {
      "id": 8224306,
      "name": "Ramanagara",
      "nativeName": "Ramanagara",
      "code": "IN-KA-8224306",
      "countryId": 1269750,
      "countryCode": "IN",
      "stateCode": "IN-KA",
      "latitude": 12.65,
      "longitude": 77.35
    },
    {
      "id": 1256516,
      "name": "Shivamogga",
      "nativeName": "Shimoga",
      "code": "IN-KA-1256516",
      "countryId": 1269750,
      "countryCode": "IN",
      "stateCode": "IN-KA",
      "latitude": 14.05,
      "longitude": 75.16
    },
    {
      "id": 1254090,
      "name": "Tumkūr",
      "nativeName": "Tumkur",
      "code": "IN-KA-1254090",
      "countryId": 1269750,
      "countryCode": "IN",
      "stateCode": "IN-KA",
      "latitude": 13.5,
      "longitude": 77
    },
    {
      "id": 8224051,
      "name": "Udupi",
      "nativeName": "Udupi",
      "code": "IN-KA-8224051",
      "countryId": 1269750,
      "countryCode": "IN",
      "stateCode": "IN-KA",
      "latitude": 13.5,
      "longitude": 74.87
    },
    {
      "id": 1253630,
      "name": "Uttar Kannad",
      "nativeName": "Uttar Kannada",
      "code": "IN-KA-1253630",
      "countryId": 1269750,
      "countryCode": "IN",
      "stateCode": "IN-KA",
      "latitude": 14.88333,
      "longitude": 74.58333
    },
    {
      "id": 12680266,
      "name": "Vijayanagar",
      "nativeName": "Vijayanagar",
      "code": "IN-KA-12680266",
      "countryId": 1269750,
      "countryCode": "IN",
      "stateCode": "IN-KA",
      "latitude": 14.94249,
      "longitude": 76.04406
    },
    {
      "id": 1275702,
      "name": "Vijayapura",
      "nativeName": "Bijāpur",
      "code": "IN-KA-1275702",
      "countryId": 1269750,
      "countryCode": "IN",
      "stateCode": "IN-KA",
      "latitude": 16.66667,
      "longitude": 75.91667
    },
    {
      "id": 8224605,
      "name": "Yadgir district",
      "nativeName": "Yadgir",
      "code": "IN-KA-8224605",
      "countryId": 1269750,
      "countryCode": "IN",
      "stateCode": "IN-KA",
      "latitude": 16.73,
      "longitude": 76.94
    }
  ]
}