{
  "countryId": 1269750,
  "countryCode": "IN",
  "states": [
    {
      "id": 1278647,
      "name": "Andaman and Nicobar",
      "nativeName": "Union Territory of Andaman and Nicobar Islands",
      "code": "IN-AN",
      "internalCode": "AN",
      "countryId": 1269750,
      "countryCode": "IN",
      "latitude": 11.70065,
      "longitude": 92.67517
    },
    {
      "id": 1278629,
      "name": "Andhra Pradesh",
      "nativeName": "State of Andhra Pradesh",
      "code": "IN-AP",
      "internalCode": "AP",
      "countryId": 1269750,
      "countryCode": "IN",
      "latitude": 15.83333,
      "longitude": 79.75
    },
    {
      "id": 1278341,
      "name": "Arunachal Pradesh",
      "nativeName": "State of Arunāchal Pradesh",
      "code": "IN-AR",
      "internalCode": "AR",
      "countryId": 1269750,
      "countryCode": "IN",
      "latitude": 27.06,
      "longitude": 93.37
    },
    {
      "id": 1278253,
      "name": "Assam",
      "nativeName": "Assam",
      "code": "IN-AS",
      "internalCode": "AS",
      "countryId": 1269750,
      "countryCode": "IN",
      "latitude": 26,
      "longitude": 93
    },
    {
      "id": 1275715,
      "name": "Bihar",
      "nativeName": "State of Bihar",
      "code": "IN-BR",
      "internalCode": "BR",
      "countryId": 1269750,
      "countryCode": "IN",
      "latitude": 25.75,
      "longitude": 85.75
    },
    {
      "id": 1274744,
      "name": "Chandigarh",
      "nativeName": "Union Territory of Chandigarh",
      "code": "IN-CH",
      "internalCode": "CH",
      "countryId": 1269750,
      "countryCode": "IN",
      "latitude": 30.72778,
      "longitude": 76.77778
    },
    {
      "id": 1444364,
      "name": "Chhattisgarh",
      "nativeName": "State of Chhattīsgarh",
      "code": "IN-CG",
      "internalCode": "CG",
      "countryId": 1269750,
      "countryCode": "IN",
      "latitude": 21.5,
      "longitude": 82
    },
    {
      "id": 12165662,
      "name": "Dadra and Nagar Haveli and Daman and Diu",
      "nativeName": "Dadra and Nagar Haveli and Daman and Diu",
      "code": "IN-DH",
      "internalCode": "DH",
      "countryId": 1269750,
      "countryCode": "IN",
      "latitude": 20.42587,
      "longitude": 72.85112
    },
    {
      "id": 1273293,
      "name": "Delhi",
      "nativeName": "National Capital Territory of Delhi",
      "code": "IN-DL",
      "internalCode": "DL",
      "countryId": 1269750,
      "countryCode": "IN",
      "latitude": 28.6667,
      "longitude": 77.1
    },
    {
      "id": 1271157,
      "name": "Goa",
      "nativeName": "Goa",
      "code": "IN-GA",
      "internalCode": "GA",
      "countryId": 1269750,
      "countryCode": "IN",
      "latitude": 15.33333,
      "longitude": 74.08333
    },
    {
      "id": 1270770,
      "name": "Gujarat",
      "nativeName": "State of Gujarāt",
      "code": "IN-GJ",
      "internalCode": "GJ",
      "countryId": 1269750,
      "countryCode": "IN",
      "latitude": 23,
      "longitude": 71.75
    },
    {
      "id": 1270260,
      "name": "Haryana",
      "nativeName": "State of Haryāna",
      "code": "IN-HR",
      "internalCode": "HR",
      "countryId": 1269750,
      "countryCode": "IN",
      "latitude": 29.25,
      "longitude": 76.33333
    },
    {
      "id": 1270101,
      "name": "Himachal Pradesh",
      "nativeName": "State of Himāchal Pradesh",
      "code": "IN-HP",
      "internalCode": "HP",
      "countryId": 1269750,
      "countryCode": "IN",
      "latitude": 31.91667,
      "longitude": 77.25
    },
    {
      "id": 1269320,
      "name": "Jammu and Kashmir",
      "nativeName": "State of Jammu and Kashmīr",
      "code": "IN-JK",
      "internalCode": "JK",
      "countryId": 1269750,
      "countryCode": "IN",
      "latitude": 33.5329,
      "longitude": 75.40781
    },
    {
      "id": 1444365,
      "name": "Jharkhand",
      "nativeName": "State of Jhārkhand",
      "code": "IN-JH",
      "internalCode": "JH",
      "countryId": 1269750,
      "countryCode": "IN",
      "latitude": 23.75,
      "longitude": 85.5
    },
    {
      "id": 1267701,
      "name": "Karnataka",
      "nativeName": "State of Karnataka",
      "code": "IN-KA",
      "internalCode": "KA",
      "countryId": 1269750,
      "countryCode": "IN",
      "latitude": 14.66667,
      "longitude": 75.83333
    },
    {
      "id": 1267254,
      "name": "Kerala",
      "nativeName": "State of Kerala",
      "code": "IN-KL",
      "internalCode": "KL",
      "countryId": 1269750,
      "countryCode": "IN",
      "latitude": 10.41667,
      "longitude": 76.5
    },
    {
      "id": 12096464,
      "name": "Ladakh",
      "nativeName": "Ladakh",
      "code": "IN-LA",
      "internalCode": "LA",
      "countryId": 1269750,
      "countryCode": "IN",
      "latitude": 34.09712,
      "longitude": 77.34688
    },
    {
      "id": 1265206,
      "name": "Lakshadweep",
      "nativeName": "Union Territory of Lakshadweep",
      "code": "IN-LD",
      "internalCode": "LD",
      "countryId": 1269750,
      "countryCode": "IN",
      "latitude": 10.93896,
      "longitude": 72.28665
    },
    {
      "id": 1264542,
      "name": "Madhya Pradesh",
      "nativeName": "Madhya Pradesh",
      "code": "IN-MP",
      "internalCode": "MP",
      "countryId": 1269750,
      "countryCode": "IN",
      "latitude": 23.5,
      "longitude": 78.5
    },
    {
      "id": 1264418,
      "name": "Maharashtra",
      "nativeName": "State of Mahārāshtra",
      "code": "IN-MH",
      "internalCode": "MH",
      "countryId": 1269750,
      "countryCode": "IN",
      "latitude": 19.5,
      "longitude": 76
    },
    {
      "id": 1263706,
      "name": "Manipur",
      "nativeName": "Manipur",
      "code": "IN-MN",
      "internalCode": "MN",
      "countryId": 1269750,
      "countryCode": "IN",
      "latitude": 25,
      "longitude": 94
    },
    {
      "id": 1263207,
      "name": "Meghalaya",
      "nativeName": "Meghālaya",
      "code": "IN-ML",
      "internalCode": "ML",
      "countryId": 1269750,
      "countryCode": "IN",
      "latitude": 25.5,
      "longitude": 91.33333
    },
    {
      "id": 1262963,
      "name": "Mizoram",
      "nativeName": "Mizoram",
      "code": "IN-MZ",
      "internalCode": "MZ",
      "countryId": 1269750,
      "countryCode": "IN",
      "latitude": 23,
      "longitude": 93
    },
    {
      "id": 1262271,
      "name": "Nagaland",
      "nativeName": "State of Nāgāland",
      "code": "IN-NL",
      "internalCode": "NL",
      "countryId": 1269750,
      "countryCode": "IN",
      "latitude": 26.08333,
      "longitude": 94.5
    },
    {
      "id": 1261029,
      "name": "Odisha",
      "nativeName": "State of Odisha",
      "code": "IN-OD",
      "internalCode": "OD",
      "countryId": 1269750,
      "countryCode": "IN",
      "latitude": 20.5,
      "longitude": 84.41667
    },
    {
      "id": 1259424,
      "name": "Puducherry",
      "nativeName": "Union Territory of Puducherry",
      "code": "IN-PY",
      "internalCode": "PY",
      "countryId": 1269750,
      "countryCode": "IN",
      "latitude": 11.93333,
      "longitude": 79.81667
    },
    {
      "id": 1259223,
      "name": "Punjab",
      "nativeName": "State of Punjab",
      "code": "IN-PB",
      "internalCode": "PB",
      "countryId": 1269750,
      "countryCode": "IN",
      "latitude": 30.91667,
      "longitude": 75.41667
    },
    {
      "id": 1258899,
      "name": "Rajasthan",
      "nativeName": "State of Rājasthān",
      "code": "IN-RJ",
      "internalCode": "RJ",
      "countryId": 1269750,
      "countryCode": "IN",
      "latitude": 26.58333,
      "longitude": 73.83333
    },
    {
      "id": 1256312,
      "name": "Sikkim",
      "nativeName": "Sikkim",
      "code": "IN-SK",
      "internalCode": "SK",
      "countryId": 1269750,
      "countryCode": "IN",
      "latitude": 27.75,
      "longitude": 88.5
    },
    {
      "id": 1255053,
      "name": "Tamil Nadu",
      "nativeName": "State of Tamil Nādu",
      "code": "IN-TN",
      "internalCode": "TN",
      "countryId": 1269750,
      "countryCode": "IN",
      "latitude": 11,
      "longitude": 78.33333
    },
    {
      "id": 1254788,
      "name": "Telangana",
      "nativeName": "State of Telangāna",
      "code": "IN-TS",
      "internalCode": "TS",
      "countryId": 1269750,
      "countryCode": "IN",
      "latitude": 17.83333,
      "longitude": 79.08333
    },
    {
      "id": 1254169,
      "name": "Tripura",
      "nativeName": "Tripura",
      "code": "IN-TR",
      "internalCode": "TR",
      "countryId": 1269750,
      "countryCode": "IN",
      "latitude": 24,
      "longitude": 92
    },
    {
      "id": 1253626,
      "name": "Uttar Pradesh",
      "nativeName": "Uttar Pradesh",
      "code": "IN-UP",
      "internalCode": "UP",
      "countryId": 1269750,
      "countryCode": "IN",
      "latitude": 27.25,
      "longitude": 80.75
    },
    {
      "id": 1444366,
      "name": "Uttarakhand",
      "nativeName": "State of Uttarākhand",
      "code": "IN-UK",
      "internalCode": "UK",
      "countryId": 1269750,
      "countryCode": "IN",
      "latitude": 30.25,
      "longitude": 79.25
    },
    {
      "id": 1252881,
      "name": "West Bengal",
      "nativeName": "West Bengal",
      "code": "IN-WB",
      "internalCode": "WB",
      "countryId": 1269750,
      "countryCode": "IN",
      "latitude": 24,
      "longitude": 88
    }
  ]
}