{
  "stateId": 2638360,
  "stateCode": "GB-SCT",
  "countryCode": "GB",
  "cities": [
    {
      "id": 3333224,
      "name": "Aberdeen City",
      "nativeName": "Aberdeen City",
      "code": "GB-SCT-3333224",
      "countryId": 2635167,
      "countryCode": "GB",
      "stateCode": "GB-SCT",
      "latitude": 57.16667,
      "longitude": -2.16667
    },
    {
      "id": 2657830,
      "name": "Aberdeenshire",
      "nativeName": "Aberdeenshire",
      "code": "GB-SCT-2657830",
      "countryId": 2635167,
      "countryCode": "GB",
      "stateCode": "GB-SCT",
      "latitude": 57.16667,
      "longitude": -2.66667
    },
    {
      "id": 2657306,
      "name": "Angus",
      "nativeName": "Angus",
      "code": "GB-SCT-2657306",
      "countryId": 2635167,
      "countryCode": "GB",
      "stateCode": "GB-SCT",
      "latitude": 56.66667,
      "longitude": -2.91667
    },
    {
      "id": 6457407,
      "name": "Argyll and Bute",
      "nativeName": "Argyll and Bute",
      "code": "GB-SCT-6457407",
      "countryId": 2635167,
      "countryCode": "GB",
      "stateCode": "GB-SCT",
      "latitude": 56.03693,
      "longitude": -5.43679
    },
    {
      "id": 2652975,
      "name": "Clackmannanshire",
      "nativeName": "Clackmannanshire",
      "code": "GB-SCT-2652975",
      "countryId": 2635167,
      "countryCode": "GB",
      "stateCode": "GB-SCT",
      "latitude": 56.16667,
      "longitude": -3.75
    },
    {
      "id": 2650797,
      "name": "Dumfries and Galloway",
      "nativeName": "Dumfries and Galloway",
      "code": "GB-SCT-2650797",
      "countryId": 2635167,
      "countryCode": "GB",
      "stateCode": "GB-SCT",
      "latitude": 55.08333,
      "longitude": -3.83333
    },
    {
      "id": 3333225,
      "name": "Dundee City",
      "nativeName": "Dundee City",
      "code": "GB-SCT-3333225",
      "countryId": 2635167,
      "countryCode": "GB",
      "stateCode": "GB-SCT",
      "latitude": 56.46667,
      "longitude": -2.91667
    },
    {
      "id": 3333226,
      "name": "East Ayrshire",
      "nativeName": "East Ayrshire",
      "code": "GB-SCT-3333226",
      "countryId": 2635167,
      "countryCode": "GB",
      "stateCode": "GB-SCT",
      "latitude": 55.5,
      "longitude": -4.25
    },
    {
      "id": 3333227,
      "name": "East Dunbartonshire",
      "nativeName": "East Dunbartonshire",
      "code": "GB-SCT-3333227",
      "countryId": 2635167,
      "countryCode": "GB",
      "stateCode": "GB-SCT",
      "latitude": 55.93333,
      "longitude": -4.2
    },
    {
      "id": 2650386,
      "name": "East Lothian",
      "nativeName": "East Lothian",
      "code": "GB-SCT-2650386",
      "countryId": 2635167,
      "countryCode": "GB",
      "stateCode": "GB-SCT",
      "latitude": 55.91667,
      "longitude": -2.75
    },
    {
      "id": 3333228,
      "name": "East Renfrewshire",
      "nativeName": "East Renfrewshire",
      "code": "GB-SCT-3333228",
      "countryId": 2635167,
      "countryCode": "GB",
      "stateCode": "GB-SCT",
      "latitude": 55.75,
      "longitude": -4.33333
    },
    {
      "id": 3333229,
      "name": "Edinburgh",
      "nativeName": "City of Edinburgh",
      "code": "GB-SCT-3333229",
      "countryId": 2635167,
      "countryCode": "GB",
      "stateCode": "GB-SCT",
      "latitude": 55.94973,
      "longitude": -3.19333
    },
    {
      "id": 3333230,
      "name": "Falkirk",
      "nativeName": "Falkirk",
      "code": "GB-SCT-3333230",
      "countryId": 2635167,
      "countryCode": "GB",
      "stateCode": "GB-SCT",
      "latitude": 56,
      "longitude": -3.75
    },
    {
      "id": 2649469,
      "name": "Fife",
      "nativeName": "Fife",
      "code": "GB-SCT-2649469",
      "countryId": 2635167,
      "countryCode": "GB",
      "stateCode": "GB-SCT",
      "latitude": 56.25,
      "longitude": -3.16667
    },
    {
      "id": 3333231,
      "name": "Glasgow City",
      "nativeName": "Glasgow City",
      "code": "GB-SCT-3333231",
      "countryId": 2635167,
      "countryCode": "GB",
      "stateCode": "GB-SCT",
      "latitude": 55.86667,
      "longitude": -4.25
    },
    {
      "id": 2646944,
      "name": "Highland",
      "nativeName": "Highland",
      "code": "GB-SCT-2646944",
      "countryId": 2635167,
      "countryCode": "GB",
      "stateCode": "GB-SCT",
      "latitude": 57.5,
      "longitude": -5
    },
    {
      "id": 2646127,
      "name": "Inverclyde",
      "nativeName": "Inverclyde",
      "code": "GB-SCT-2646127",
      "countryId": 2635167,
      "countryCode": "GB",
      "stateCode": "GB-SCT",
      "latitude": 55.9,
      "longitude": -4.75
    },
    {
      "id": 2642559,
      "name": "Midlothian",
      "nativeName": "Midlothian",
      "code": "GB-SCT-2642559",
      "countryId": 2635167,
      "countryCode": "GB",
      "stateCode": "GB-SCT",
      "latitude": 55.82347,
      "longitude": -3.09334
    },
    {
      "id": 2642240,
      "name": "Moray",
      "nativeName": "Moray",
      "code": "GB-SCT-2642240",
      "countryId": 2635167,
      "countryCode": "GB",
      "stateCode": "GB-SCT",
      "latitude": 57.41667,
      "longitude": -3.25
    },
    {
      "id": 3333232,
      "name": "North Ayrshire",
      "nativeName": "North Ayrshire",
      "code": "GB-SCT-3333232",
      "countryId": 2635167,
      "countryCode": "GB",
      "stateCode": "GB-SCT",
      "latitude": 55.69694,
      "longitude": -4.73373
    },
    {
      "id": 3333233,
      "name": "North Lanarkshire",
      "nativeName": "North Lanarkshire",
      "code": "GB-SCT-3333233",
      "countryId": 2635167,
      "countryCode": "GB",
      "stateCode": "GB-SCT",
      "latitude": 55.86667,
      "longitude": -3.91667
    },
    {
      "id": 2640923,
      "name": "Orkney Islands",
      "nativeName": "Orkney Islands",
      "code": "GB-SCT-2640923",
      "countryId": 2635167,
      "countryCode": "GB",
      "stateCode": "GB-SCT",
      "latitude": 59,
      "longitude": -3
    },
    {
      "id": 3333234,
      "name": "Perth and Kinross",
      "nativeName": "Perth and Kinross",
      "code": "GB-SCT-3333234",
      "countryId": 2635167,
      "countryCode": "GB",
      "stateCode": "GB-SCT",
      "latitude": 56.5,
      "longitude": -3.75
    },
    {
      "id": 2639494,
      "name": "Renfrewshire",
      "nativeName": "Renfrewshire",
      "code": "GB-SCT-2639494",
      "countryId": 2635167,
      "countryCode": "GB",
      "stateCode": "GB-SCT",
      "latitude": 55.83333,
      "longitude": -4.5
    },
    {
      "id": 2655192,
      "name": "Scottish Borders",
      "nativeName": "The Scottish Borders",
      "code": "GB-SCT-2655192",
      "countryId": 2635167,
      "countryCode": "GB",
      "stateCode": "GB-SCT",
      "latitude": 55.58333,
      "longitude": -2.83333
    },
    {
      "id": 2638010,
      "name": "Shetland Islands",
      "nativeName": "Shetland Islands",
      "code": "GB-SCT-2638010",
      "countryId": 2635167,
      "countryCode": "GB",
      "stateCode": "GB-SCT",
      "latitude": 60.33333,
      "longitude": -1.33333
    },
    {
      "id": 3333235,
      "name": "South Ayrshire",
      "nativeName": "South Ayrshire",
      "code": "GB-SCT-3333235",
      "countryId": 2635167,
      "countryCode": "GB",
      "stateCode": "GB-SCT",
      "latitude": 55.25,
      "longitude": -4.66667
    },
    {
      "id": 3333236,
      "name": "South Lanarkshire",
      "nativeName": "South Lanarkshire",
      "code": "GB-SCT-3333236",
      "countryId": 2635167,
      "countryCode": "GB",
      "stateCode": "GB-SCT",
      "latitude": 55.58333,
      "longitude": -3.83333
    },
    {
      "id": 2636909,
      "name": "Stirling",
      "nativeName": "Stirling",
      "code": "GB-SCT-2636909",
      "countryId": 2635167,
      "countryCode": "GB",
      "stateCode": "GB-SCT",
      "latitude": 56.11532,
      "longitude": -4.23386
    },
    {
      "id": 3333237,
      "name": "West Dunbartonshire",
      "nativeName": "West Dunbartonshire",
      "code": "GB-SCT-3333237",
      "countryId": 2635167,
      "countryCode": "GB",
      "stateCode": "GB-SCT",
      "latitude": 55.96667,
      "longitude": -4.53333
    },
    {
      "id": 2634354,
      "name": "West Lothian",
      "nativeName": "West Lothian",
      "code": "GB-SCT-2634354",
      "countryId": 2635167,
      "countryCode": "GB",
      "stateCode": "GB-SCT",
      "latitude": 55.91667,
      "longitude": -3.5
    },
    {
      "id": 2634428,
      "name": "Western Isles",
      "nativeName": "Eilean Siar",
      "code": "GB-SCT-2634428",
      "countryId": 2635167,
      "countryCode": "GB",
      "stateCode": "GB-SCT",
      "latitude": 57.66667,
      "longitude": -7.16667
    }
  ]
}