{
  "stateId": 3055744,
  "stateCode": "HU-BK",
  "countryCode": "HU",
  "cities": [
    {
      "id": 9644263,
      "name": "Bajai Járás",
      "nativeName": "Bajai Járás",
      "code": "HU-BK-9644263",
      "countryId": 719819,
      "countryCode": "HU",
      "stateCode": "HU-BK",
      "latitude": 46.14507,
      "longitude": 19.01359
    },
    {
      "id": 9644264,
      "name": "Bácsalmási Járás",
      "nativeName": "Bácsalmási Járás",
      "code": "HU-BK-9644264",
      "countryId": 719819,
      "countryCode": "HU",
      "stateCode": "HU-BK",
      "latitude": 46.10167,
      "longitude": 19.33063
    },
    {
      "id": 9644265,
      "name": "Jánoshalmai Járás",
      "nativeName": "Jánoshalmai Járás",
      "code": "HU-BK-9644265",
      "countryId": 719819,
      "countryCode": "HU",
      "stateCode": "HU-BK",
      "latitude": 46.28283,
      "longitude": 19.31742
    },
    {
      "id": 9644268,
      "name": "Kalocsai Járás",
      "nativeName": "Kalocsai Járás",
      "code": "HU-BK-9644268",
      "countryId": 719819,
      "countryCode": "HU",
      "stateCode": "HU-BK",
      "latitude": 46.55646,
      "longitude": 19.04211
    },
    {
      "id": 9644271,
      "name": "Kecskeméti Járás",
      "nativeName": "Kecskeméti Járás",
      "code": "HU-BK-9644271",
      "countryId": 719819,
      "countryCode": "HU",
      "stateCode": "HU-BK",
      "latitude": 46.88283,
      "longitude": 19.58701
    },
    {
      "id": 9644273,
      "name": "Kiskunfélegyházi Járás",
      "nativeName": "Kiskunfélegyházi Járás",
      "code": "HU-BK-9644273",
      "countryId": 719819,
      "countryCode": "HU",
      "stateCode": "HU-BK",
      "latitude": 46.65721,
      "longitude": 19.77006
    },
    {
      "id": 9644266,
      "name": "Kiskunhalasi Járás",
      "nativeName": "Kiskunhalasi Járás",
      "code": "HU-BK-9644266",
      "countryId": 719819,
      "countryCode": "HU",
      "stateCode": "HU-BK",
      "latitude": 46.35832,
      "longitude": 19.53067
    },
    {
      "id": 9644267,
      "name": "Kiskunmajsai Járás",
      "nativeName": "Kiskunmajsai Járás",
      "code": "HU-BK-9644267",
      "countryId": 719819,
      "countryCode": "HU",
      "stateCode": "HU-BK",
      "latitude": 46.49608,
      "longitude": 19.72316
    },
    {
      "id": 9644269,
      "name": "Kiskőrösi Járás",
      "nativeName": "Kiskőrösi Járás",
      "code": "HU-BK-9644269",
      "countryId": 719819,
      "countryCode": "HU",
      "stateCode": "HU-BK",
      "latitude": 46.63309,
      "longitude": 19.33726
    },
    {
      "id": 9644270,
      "name": "Kunszentmiklósi Járás",
      "nativeName": "Kunszentmiklósi Járás",
      "code": "HU-BK-9644270",
      "countryId": 719819,
      "countryCode": "HU",
      "stateCode": "HU-BK",
      "latitude": 46.9481,
      "longitude": 19.15563
    },
    {
      "id": 9644272,
      "name": "Tiszakécskei Járás",
      "nativeName": "Tiszakécskei Járás",
      "code": "HU-BK-9644272",
      "countryId": 719819,
      "countryCode": "HU",
      "stateCode": "HU-BK",
      "latitude": 46.86013,
      "longitude": 19.97298
    }
  ]
}