{
  "stateId": 3055399,
  "stateCode": "HU-BA",
  "countryCode": "HU",
  "cities": [
    {
      "id": 9644192,
      "name": "Bólyi Járás",
      "nativeName": "Bólyi Járás",
      "code": "HU-BA-9644192",
      "countryId": 719819,
      "countryCode": "HU",
      "stateCode": "HU-BA",
      "latitude": 45.98075,
      "longitude": 18.48449
    },
    {
      "id": 9644195,
      "name": "Hegyháti Járás",
      "nativeName": "Hegyháti Járás",
      "code": "HU-BA-9644195",
      "countryId": 719819,
      "countryCode": "HU",
      "stateCode": "HU-BA",
      "latitude": 46.27247,
      "longitude": 18.13758
    },
    {
      "id": 9644194,
      "name": "Komlói Járás",
      "nativeName": "Komlói Járás",
      "code": "HU-BA-9644194",
      "countryId": 719819,
      "countryCode": "HU",
      "stateCode": "HU-BA",
      "latitude": 46.22019,
      "longitude": 18.2862
    },
    {
      "id": 9644191,
      "name": "Mohácsi Járás",
      "nativeName": "Mohácsi Járás",
      "code": "HU-BA-9644191",
      "countryId": 719819,
      "countryCode": "HU",
      "stateCode": "HU-BA",
      "latitude": 46.02004,
      "longitude": 18.68
    },
    {
      "id": 9644190,
      "name": "Pécsi Járás",
      "nativeName": "Pécsi Járás",
      "code": "HU-BA-9644190",
      "countryId": 719819,
      "countryCode": "HU",
      "stateCode": "HU-BA",
      "latitude": 46.0799,
      "longitude": 18.25253
    },
    {
      "id": 9644193,
      "name": "Pécsváradi Járás",
      "nativeName": "Pécsváradi Járás",
      "code": "HU-BA-9644193",
      "countryId": 719819,
      "countryCode": "HU",
      "stateCode": "HU-BA",
      "latitude": 46.16782,
      "longitude": 18.45456
    },
    {
      "id": 9644260,
      "name": "Sellyei Járás",
      "nativeName": "Sellyei Járás",
      "code": "HU-BA-9644260",
      "countryId": 719819,
      "countryCode": "HU",
      "stateCode": "HU-BA",
      "latitude": 45.86955,
      "longitude": 17.89827
    },
    {
      "id": 9644189,
      "name": "Siklósi Járás",
      "nativeName": "Siklósi Járás",
      "code": "HU-BA-9644189",
      "countryId": 719819,
      "countryCode": "HU",
      "stateCode": "HU-BA",
      "latitude": 45.84981,
      "longitude": 18.31052
    },
    {
      "id": 9644262,
      "name": "Szentlőrinci Járás",
      "nativeName": "Szentlőrinci Járás",
      "code": "HU-BA-9644262",
      "countryId": 719819,
      "countryCode": "HU",
      "stateCode": "HU-BA",
      "latitude": 46.04694,
      "longitude": 18.01528
    },
    {
      "id": 9644261,
      "name": "Szigetvári Járás",
      "nativeName": "Szigetvári Járás",
      "code": "HU-BA-9644261",
      "countryId": 719819,
      "countryCode": "HU",
      "stateCode": "HU-BA",
      "latitude": 46.07336,
      "longitude": 17.80391
    }
  ]
}