{
  "stateId": 720293,
  "stateCode": "HU-HB",
  "countryCode": "HU",
  "cities": [
    {
      "id": 9644296,
      "name": "Balmazújvárosi Járás",
      "nativeName": "Balmazújvárosi Járás",
      "code": "HU-HB-9644296",
      "countryId": 719819,
      "countryCode": "HU",
      "stateCode": "HU-HB",
      "latitude": 47.6184,
      "longitude": 21.14882
    },
    {
      "id": 9644294,
      "name": "Berettyóújfalui Járás",
      "nativeName": "Berettyóújfalui Járás",
      "code": "HU-HB-9644294",
      "countryId": 719819,
      "countryCode": "HU",
      "stateCode": "HU-HB",
      "latitude": 47.14109,
      "longitude": 21.55233
    },
    {
      "id": 9644292,
      "name": "Debreceni Járás",
      "nativeName": "Debreceni Járás",
      "code": "HU-HB-9644292",
      "countryId": 719819,
      "countryCode": "HU",
      "stateCode": "HU-HB",
      "latitude": 47.52706,
      "longitude": 21.66869
    },
    {
      "id": 9644298,
      "name": "Derecskei Járás",
      "nativeName": "Derecskei Járás",
      "code": "HU-HB-9644298",
      "countryId": 719819,
      "countryCode": "HU",
      "stateCode": "HU-HB",
      "latitude": 47.38194,
      "longitude": 21.74836
    },
    {
      "id": 9644295,
      "name": "Hadjúszoboszlói Járás",
      "nativeName": "Hadjúszoboszlói Járás",
      "code": "HU-HB-9644295",
      "countryId": 719819,
      "countryCode": "HU",
      "stateCode": "HU-HB",
      "latitude": 47.4811,
      "longitude": 21.31
    },
    {
      "id": 9644297,
      "name": "Hajdúböszörményi Járás",
      "nativeName": "Hajdúböszörményi Járás",
      "code": "HU-HB-9644297",
      "countryId": 719819,
      "countryCode": "HU",
      "stateCode": "HU-HB",
      "latitude": 47.74,
      "longitude": 21.5
    },
    {
      "id": 9644291,
      "name": "Hajdúhadházi Járás",
      "nativeName": "Hajdúhadházi Járás",
      "code": "HU-HB-9644291",
      "countryId": 719819,
      "countryCode": "HU",
      "stateCode": "HU-HB",
      "latitude": 47.67,
      "longitude": 21.7
    },
    {
      "id": 9644299,
      "name": "Hajdúnánási Járás",
      "nativeName": "Hajdúnánási Járás",
      "code": "HU-HB-9644299",
      "countryId": 719819,
      "countryCode": "HU",
      "stateCode": "HU-HB",
      "latitude": 47.8335,
      "longitude": 21.25256
    },
    {
      "id": 9644300,
      "name": "Nyíradonyi Járás",
      "nativeName": "Nyíradonyi Járás",
      "code": "HU-HB-9644300",
      "countryId": 719819,
      "countryCode": "HU",
      "stateCode": "HU-HB",
      "latitude": 47.57873,
      "longitude": 22.01381
    },
    {
      "id": 9644293,
      "name": "Püspökladányi Járás",
      "nativeName": "Püspökladányi Járás",
      "code": "HU-HB-9644293",
      "countryId": 719819,
      "countryCode": "HU",
      "stateCode": "HU-HB",
      "latitude": 47.31279,
      "longitude": 21.21177
    }
  ]
}