{
  "stateId": 4035314,
  "stateCode": "WS-GE",
  "countryCode": "WS",
  "cities": [
    {
      "id": 4035397,
      "name": "Avao",
      "nativeName": "Avao",
      "code": "WS-GE-4035397",
      "countryId": 4034894,
      "countryCode": "WS",
      "stateCode": "WS-GE",
      "latitude": -13.44883,
      "longitude": -172.36249
    },
    {
      "id": 4035372,
      "name": "Fagamalo",
      "nativeName": "Fagamalo",
      "code": "WS-GE-4035372",
      "countryId": 4034894,
      "countryCode": "WS",
      "stateCode": "WS-GE",
      "latitude": -13.44219,
      "longitude": -172.34901
    },
    {
      "id": 4035273,
      "name": "Lelepa",
      "nativeName": "Lelepa",
      "code": "WS-GE-4035273",
      "countryId": 4034894,
      "countryCode": "WS",
      "stateCode": "WS-GE",
      "latitude": -13.44544,
      "longitude": -172.36047
    },
    {
      "id": 4035234,
      "name": "Malua",
      "nativeName": "Malua",
      "code": "WS-GE-4035234",
      "countryId": 4034894,
      "countryCode": "WS",
      "stateCode": "WS-GE",
      "latitude": -13.79909,
      "longitude": -171.9027
    },
    {
      "id": 4035216,
      "name": "Matāutu",
      "nativeName": "Matāutu",
      "code": "WS-GE-4035216",
      "countryId": 4034894,
      "countryCode": "WS",
      "stateCode": "WS-GE",
      "latitude": -13.82742,
      "longitude": -171.75674
    },
    {
      "id": 7106422,
      "name": "Mauga",
      "nativeName": "Mauga",
      "code": "WS-GE-7106422",
      "countryId": 4034894,
      "countryCode": "WS",
      "stateCode": "WS-GE",
      "latitude": -13.47572,
      "longitude": -172.31519
    },
    {
      "id": 4035141,
      "name": "Patamea",
      "nativeName": "Patamea",
      "code": "WS-GE-4035141",
      "countryId": 4034894,
      "countryCode": "WS",
      "stateCode": "WS-GE",
      "latitude": -13.52463,
      "longitude": -172.30678
    },
    {
      "id": 4035121,
      "name": "Safa’i",
      "nativeName": "Safa’i",
      "code": "WS-GE-4035121",
      "countryId": 4034894,
      "countryCode": "WS",
      "stateCode": "WS-GE",
      "latitude": -13.44654,
      "longitude": -172.33971
    },
    {
      "id": 4035108,
      "name": "Salamumu",
      "nativeName": "Salamumu",
      "code": "WS-GE-4035108",
      "countryId": 4034894,
      "countryCode": "WS",
      "stateCode": "WS-GE",
      "latitude": -13.99813,
      "longitude": -171.9219
    },
    {
      "id": 4035079,
      "name": "Samalaeulu",
      "nativeName": "Samalaeulu",
      "code": "WS-GE-4035079",
      "countryId": 4034894,
      "countryCode": "WS",
      "stateCode": "WS-GE",
      "latitude": -13.50098,
      "longitude": -172.30015
    },
    {
      "id": 4035052,
      "name": "Sato’alepai",
      "nativeName": "Sato’alepai",
      "code": "WS-GE-4035052",
      "countryId": 4034894,
      "countryCode": "WS",
      "stateCode": "WS-GE",
      "latitude": -13.44361,
      "longitude": -172.34484
    }
  ]
}