{
  "stateId": 4035046,
  "stateCode": "WS-SA",
  "countryCode": "WS",
  "cities": [
    {
      "id": 4035045,
      "name": "Satupa‘itea",
      "nativeName": "Satupa‘itea",
      "code": "WS-SA-4035045",
      "countryId": 4034894,
      "countryCode": "WS",
      "stateCode": "WS-SA",
      "latitude": -13.76593,
      "longitude": -172.32686
    },
    {
      "id": 4035381,
      "name": "Fagafau",
      "nativeName": "Fagafau",
      "code": "WS-SA-4035381",
      "countryId": 4034894,
      "countryCode": "WS",
      "stateCode": "WS-SA",
      "latitude": -13.64026,
      "longitude": -172.67023
    },
    {
      "id": 4035371,
      "name": "Fai’a’ai",
      "nativeName": "Fai’a’ai",
      "code": "WS-SA-4035371",
      "countryId": 4034894,
      "countryCode": "WS",
      "stateCode": "WS-SA",
      "latitude": -13.6703,
      "longitude": -172.64112
    },
    {
      "id": 4035325,
      "name": "Fogasavai’i",
      "nativeName": "Fogasavai’i",
      "code": "WS-SA-4035325",
      "countryId": 4034894,
      "countryCode": "WS",
      "stateCode": "WS-SA",
      "latitude": -13.68026,
      "longitude": -172.62672
    },
    {
      "id": 4035324,
      "name": "Fogatuli",
      "nativeName": "Fogatuli",
      "code": "WS-SA-4035324",
      "countryId": 4034894,
      "countryCode": "WS",
      "stateCode": "WS-SA",
      "latitude": -13.66146,
      "longitude": -172.6465
    },
    {
      "id": 4035113,
      "name": "Sagone",
      "nativeName": "Sagone",
      "code": "WS-SA-4035113",
      "countryId": 4034894,
      "countryCode": "WS",
      "stateCode": "WS-SA",
      "latitude": -13.68733,
      "longitude": -172.61864
    },
    {
      "id": 4035099,
      "name": "Sale’aula",
      "nativeName": "Sale’aula",
      "code": "WS-SA-4035099",
      "countryId": 4034894,
      "countryCode": "WS",
      "stateCode": "WS-SA",
      "latitude": -13.44894,
      "longitude": -172.33521
    },
    {
      "id": 4035076,
      "name": "Samataitai",
      "nativeName": "Samataitai",
      "code": "WS-SA-4035076",
      "countryId": 4034894,
      "countryCode": "WS",
      "stateCode": "WS-SA",
      "latitude": -13.64614,
      "longitude": -172.66578
    },
    {
      "id": 7106382,
      "name": "Samataiuta",
      "nativeName": "Samataiuta",
      "code": "WS-SA-7106382",
      "countryId": 4034894,
      "countryCode": "WS",
      "stateCode": "WS-SA",
      "latitude": -13.64926,
      "longitude": -172.65725
    },
    {
      "id": 4035051,
      "name": "Satufia",
      "nativeName": "Satufia",
      "code": "WS-SA-4035051",
      "countryId": 4034894,
      "countryCode": "WS",
      "stateCode": "WS-SA",
      "latitude": -13.77345,
      "longitude": -172.32769
    },
    {
      "id": 4035049,
      "name": "Satuiatua",
      "nativeName": "Satuiatua",
      "code": "WS-SA-4035049",
      "countryId": 4034894,
      "countryCode": "WS",
      "stateCode": "WS-SA",
      "latitude": -13.70805,
      "longitude": -172.60058
    },
    {
      "id": 7106337,
      "name": "Vaega",
      "nativeName": "Vaega",
      "code": "WS-SA-7106337",
      "countryId": 4034894,
      "countryCode": "WS",
      "stateCode": "WS-SA",
      "latitude": -13.77007,
      "longitude": -172.32666
    },
    {
      "id": 4034913,
      "name": "Vaipu’a",
      "nativeName": "Vaipu’a",
      "code": "WS-SA-4034913",
      "countryId": 4034894,
      "countryCode": "WS",
      "stateCode": "WS-SA",
      "latitude": -13.67783,
      "longitude": -172.63375
    }
  ]
}