{
  "stateId": 7280292,
  "stateCode": "SB-CH",
  "countryCode": "SB",
  "cities": [
    {
      "id": 12041865,
      "name": "Babatana",
      "nativeName": "Babatana",
      "code": "SB-CH-12041865",
      "countryId": 2103350,
      "countryCode": "SB",
      "stateCode": "SB-CH",
      "latitude": -6.98399,
      "longitude": 156.79477
    },
    {
      "id": 12041869,
      "name": "Bangara",
      "nativeName": "Bangara",
      "code": "SB-CH-12041869",
      "countryId": 2103350,
      "countryCode": "SB",
      "stateCode": "SB-CH",
      "latitude": -6.84684,
      "longitude": 156.7794
    },
    {
      "id": 12041753,
      "name": "Batava",
      "nativeName": "Batava",
      "code": "SB-CH-12041753",
      "countryId": 2103350,
      "countryCode": "SB",
      "stateCode": "SB-CH",
      "latitude": -6.71602,
      "longitude": 156.47705
    },
    {
      "id": 12041749,
      "name": "Katupika",
      "nativeName": "Katupika",
      "code": "SB-CH-12041749",
      "countryId": 2103350,
      "countryCode": "SB",
      "stateCode": "SB-CH",
      "latitude": -7.33536,
      "longitude": 157.2689
    },
    {
      "id": 12041871,
      "name": "Kerepangara",
      "nativeName": "Kerepangara",
      "code": "SB-CH-12041871",
      "countryId": 2103350,
      "countryCode": "SB",
      "stateCode": "SB-CH",
      "latitude": -7.09675,
      "longitude": 157.07317
    },
    {
      "id": 12041757,
      "name": "Kirugela",
      "nativeName": "Kirugela",
      "code": "SB-CH-12041757",
      "countryId": 2103350,
      "countryCode": "SB",
      "stateCode": "SB-CH",
      "latitude": -7.24563,
      "longitude": 157.24007
    },
    {
      "id": 12041868,
      "name": "Polo",
      "nativeName": "Polo",
      "code": "SB-CH-12041868",
      "countryId": 2103350,
      "countryCode": "SB",
      "stateCode": "SB-CH",
      "latitude": -6.74982,
      "longitude": 156.6537
    },
    {
      "id": 12041756,
      "name": "Senga",
      "nativeName": "Senga",
      "code": "SB-CH-12041756",
      "countryId": 2103350,
      "countryCode": "SB",
      "stateCode": "SB-CH",
      "latitude": -7.00356,
      "longitude": 157.00019
    },
    {
      "id": 12041755,
      "name": "Susuka",
      "nativeName": "Susuka",
      "code": "SB-CH-12041755",
      "countryId": 2103350,
      "countryCode": "SB",
      "stateCode": "SB-CH",
      "latitude": -6.92376,
      "longitude": 156.89735
    },
    {
      "id": 12041754,
      "name": "Tavula",
      "nativeName": "Tavula",
      "code": "SB-CH-12041754",
      "countryId": 2103350,
      "countryCode": "SB",
      "stateCode": "SB-CH",
      "latitude": -6.66884,
      "longitude": 156.56033
    },
    {
      "id": 12041867,
      "name": "Tepakaza",
      "nativeName": "Tepakaza",
      "code": "SB-CH-12041867",
      "countryId": 2103350,
      "countryCode": "SB",
      "stateCode": "SB-CH",
      "latitude": -6.86894,
      "longitude": 156.66346
    },
    {
      "id": 12041750,
      "name": "Vasiduki",
      "nativeName": "Vasiduki",
      "code": "SB-CH-12041750",
      "countryId": 2103350,
      "countryCode": "SB",
      "stateCode": "SB-CH",
      "latitude": -7.21221,
      "longitude": 157.02558
    },
    {
      "id": 12041863,
      "name": "Viviru",
      "nativeName": "Viviru",
      "code": "SB-CH-12041863",
      "countryId": 2103350,
      "countryCode": "SB",
      "stateCode": "SB-CH",
      "latitude": -7.08575,
      "longitude": 156.89181
    },
    {
      "id": 12041745,
      "name": "Waghina",
      "nativeName": "Waghina",
      "code": "SB-CH-12041745",
      "countryId": 2103350,
      "countryCode": "SB",
      "stateCode": "SB-CH",
      "latitude": -7.43408,
      "longitude": 157.76649
    }
  ]
}