{
  "stateId": 2106552,
  "stateCode": "SB-ML",
  "countryCode": "SB",
  "cities": [
    {
      "id": 12041850,
      "name": "Aba - Asimeuru",
      "nativeName": "Aba - Asimeuru",
      "code": "SB-ML-12041850",
      "countryId": 2103350,
      "countryCode": "SB",
      "stateCode": "SB-ML",
      "latitude": -9.61051,
      "longitude": 161.53613
    },
    {
      "id": 12041847,
      "name": "Aiaisi",
      "nativeName": "Aiaisi",
      "code": "SB-ML-12041847",
      "countryId": 2103350,
      "countryCode": "SB",
      "stateCode": "SB-ML",
      "latitude": -9.11637,
      "longitude": 161.12837
    },
    {
      "id": 12041873,
      "name": "Aimela",
      "nativeName": "Aimela",
      "code": "SB-ML-12041873",
      "countryId": 2103350,
      "countryCode": "SB",
      "stateCode": "SB-ML",
      "latitude": -8.7535,
      "longitude": 160.75068
    },
    {
      "id": 12041848,
      "name": "Areare",
      "nativeName": "Areare",
      "code": "SB-ML-12041848",
      "countryId": 2103350,
      "countryCode": "SB",
      "stateCode": "SB-ML",
      "latitude": -9.37715,
      "longitude": 161.26307
    },
    {
      "id": 12041851,
      "name": "Asimae",
      "nativeName": "Asimae",
      "code": "SB-ML-12041851",
      "countryId": 2103350,
      "countryCode": "SB",
      "stateCode": "SB-ML",
      "latitude": -9.62686,
      "longitude": 161.4658
    },
    {
      "id": 12041878,
      "name": "Auki",
      "nativeName": "Auki",
      "code": "SB-ML-12041878",
      "countryId": 2103350,
      "countryCode": "SB",
      "stateCode": "SB-ML",
      "latitude": -8.76577,
      "longitude": 160.69419
    },
    {
      "id": 12041908,
      "name": "Buma",
      "nativeName": "Buma",
      "code": "SB-ML-12041908",
      "countryId": 2103350,
      "countryCode": "SB",
      "stateCode": "SB-ML",
      "latitude": -8.70015,
      "longitude": 160.74966
    },
    {
      "id": 12041811,
      "name": "East Baegu",
      "nativeName": "East Baegu",
      "code": "SB-ML-12041811",
      "countryId": 2103350,
      "countryCode": "SB",
      "stateCode": "SB-ML",
      "latitude": -8.49989,
      "longitude": 160.83434
    },
    {
      "id": 12041916,
      "name": "Fauabu",
      "nativeName": "Fauabu",
      "code": "SB-ML-12041916",
      "countryId": 2103350,
      "countryCode": "SB",
      "stateCode": "SB-ML",
      "latitude": -8.63071,
      "longitude": 160.73814
    },
    {
      "id": 12041855,
      "name": "Faumamanu - Kwai",
      "nativeName": "Faumamanu - Kwai",
      "code": "SB-ML-12041855",
      "countryId": 2103350,
      "countryCode": "SB",
      "stateCode": "SB-ML",
      "latitude": -8.81589,
      "longitude": 160.88547
    },
    {
      "id": 12041917,
      "name": "Foondo - Gwaiau",
      "nativeName": "Foondo - Gwaiau",
      "code": "SB-ML-12041917",
      "countryId": 2103350,
      "countryCode": "SB",
      "stateCode": "SB-ML",
      "latitude": -8.39808,
      "longitude": 160.63275
    },
    {
      "id": 12041812,
      "name": "Fouenda",
      "nativeName": "Fouenda",
      "code": "SB-ML-12041812",
      "countryId": 2103350,
      "countryCode": "SB",
      "stateCode": "SB-ML",
      "latitude": -8.31326,
      "longitude": 160.79704
    },
    {
      "id": 12041815,
      "name": "Gulalafou",
      "nativeName": "Gulalafou",
      "code": "SB-ML-12041815",
      "countryId": 2103350,
      "countryCode": "SB",
      "stateCode": "SB-ML",
      "latitude": -8.89125,
      "longitude": 160.93576
    },
    {
      "id": 12041818,
      "name": "Kwaimela - Radefasu",
      "nativeName": "Kwaimela - Radefasu",
      "code": "SB-ML-12041818",
      "countryId": 2103350,
      "countryCode": "SB",
      "stateCode": "SB-ML",
      "latitude": -8.84284,
      "longitude": 160.79385
    },
    {
      "id": 12041918,
      "name": "Kwarekwareo",
      "nativeName": "Kwarekwareo",
      "code": "SB-ML-12041918",
      "countryId": 2103350,
      "countryCode": "SB",
      "stateCode": "SB-ML",
      "latitude": -9.12568,
      "longitude": 160.93516
    },
    {
      "id": 12041819,
      "name": "Langalanga",
      "nativeName": "Langalanga",
      "code": "SB-ML-12041819",
      "countryId": 2103350,
      "countryCode": "SB",
      "stateCode": "SB-ML",
      "latitude": -8.79654,
      "longitude": 160.71189
    },
    {
      "id": 12041820,
      "name": "Luaniua",
      "nativeName": "Luaniua",
      "code": "SB-ML-12041820",
      "countryId": 2103350,
      "countryCode": "SB",
      "stateCode": "SB-ML",
      "latitude": -5.52559,
      "longitude": 159.56773
    },
    {
      "id": 12041919,
      "name": "Malu'U",
      "nativeName": "Malu'U",
      "code": "SB-ML-12041919",
      "countryId": 2103350,
      "countryCode": "SB",
      "stateCode": "SB-ML",
      "latitude": -8.35738,
      "longitude": 160.64595
    },
    {
      "id": 12041920,
      "name": "Mandalua - Folotana",
      "nativeName": "Mandalua - Folotana",
      "code": "SB-ML-12041920",
      "countryId": 2103350,
      "countryCode": "SB",
      "stateCode": "SB-ML",
      "latitude": -8.46712,
      "longitude": 160.71085
    },
    {
      "id": 12041845,
      "name": "Mareho",
      "nativeName": "Mareho",
      "code": "SB-ML-12041845",
      "countryId": 2103350,
      "countryCode": "SB",
      "stateCode": "SB-ML",
      "latitude": -9.4639,
      "longitude": 161.28276
    },
    {
      "id": 12041921,
      "name": "Matakwalao",
      "nativeName": "Matakwalao",
      "code": "SB-ML-12041921",
      "countryId": 2103350,
      "countryCode": "SB",
      "stateCode": "SB-ML",
      "latitude": -8.39165,
      "longitude": 160.69442
    },
    {
      "id": 12041814,
      "name": "Nafinua",
      "nativeName": "Nafinua",
      "code": "SB-ML-12041814",
      "countryId": 2103350,
      "countryCode": "SB",
      "stateCode": "SB-ML",
      "latitude": -8.73865,
      "longitude": 160.88777
    },
    {
      "id": 12041821,
      "name": "Pelau",
      "nativeName": "Pelau",
      "code": "SB-ML-12041821",
      "countryId": 2103350,
      "countryCode": "SB",
      "stateCode": "SB-ML",
      "latitude": -5.09562,
      "longitude": 159.40368
    },
    {
      "id": 12041849,
      "name": "Raroisuu",
      "nativeName": "Raroisuu",
      "code": "SB-ML-12041849",
      "countryId": 2103350,
      "countryCode": "SB",
      "stateCode": "SB-ML",
      "latitude": -9.44949,
      "longitude": 161.42479
    },
    {
      "id": 12041817,
      "name": "Siesie",
      "nativeName": "Siesie",
      "code": "SB-ML-12041817",
      "countryId": 2103350,
      "countryCode": "SB",
      "stateCode": "SB-ML",
      "latitude": -9.02972,
      "longitude": 160.88953
    },
    {
      "id": 12041852,
      "name": "Sikaiana",
      "nativeName": "Sikaiana",
      "code": "SB-ML-12041852",
      "countryId": 2103350,
      "countryCode": "SB",
      "stateCode": "SB-ML",
      "latitude": -8.41117,
      "longitude": 162.94147
    },
    {
      "id": 12041813,
      "name": "Sububenu- Burianias",
      "nativeName": "Sububenu- Burianias",
      "code": "SB-ML-12041813",
      "countryId": 2103350,
      "countryCode": "SB",
      "stateCode": "SB-ML",
      "latitude": -8.62494,
      "longitude": 160.9088
    },
    {
      "id": 12041807,
      "name": "Sulufou - Kwarande",
      "nativeName": "Sulufou - Kwarande",
      "code": "SB-ML-12041807",
      "countryId": 2103350,
      "countryCode": "SB",
      "stateCode": "SB-ML",
      "latitude": -8.49244,
      "longitude": 160.88738
    },
    {
      "id": 12041846,
      "name": "Tai",
      "nativeName": "Tai",
      "code": "SB-ML-12041846",
      "countryId": 2103350,
      "countryCode": "SB",
      "stateCode": "SB-ML",
      "latitude": -9.23517,
      "longitude": 161.04442
    },
    {
      "id": 12041810,
      "name": "Takwa",
      "nativeName": "Takwa",
      "code": "SB-ML-12041810",
      "countryId": 2103350,
      "countryCode": "SB",
      "stateCode": "SB-ML",
      "latitude": -8.40319,
      "longitude": 160.77133
    },
    {
      "id": 12041816,
      "name": "Waneagu - Taelanasin",
      "nativeName": "Waneagu - Taelanasin",
      "code": "SB-ML-12041816",
      "countryId": 2103350,
      "countryCode": "SB",
      "stateCode": "SB-ML",
      "latitude": -8.9589,
      "longitude": 161.04117
    },
    {
      "id": 12041923,
      "name": "Weagu Silana Sina",
      "nativeName": "Weagu Silana Sina",
      "code": "SB-ML-12041923",
      "countryId": 2103350,
      "countryCode": "SB",
      "stateCode": "SB-ML",
      "latitude": -8.93023,
      "longitude": 160.84064
    },
    {
      "id": 12041924,
      "name": "West Baegu - Fatale",
      "nativeName": "West Baegu - Fatale",
      "code": "SB-ML-12041924",
      "countryId": 2103350,
      "countryCode": "SB",
      "stateCode": "SB-ML",
      "latitude": -8.5651,
      "longitude": 160.77389
    }
  ]
}