{
  "stateId": 2702259,
  "stateCode": "SE-H",
  "countryCode": "SE",
  "cities": [
    {
      "id": 2720436,
      "name": "Borgholm Municipality",
      "nativeName": "Borgholms Kommun",
      "code": "SE-H-2720436",
      "countryId": 2661886,
      "countryCode": "SE",
      "stateCode": "SE-H",
      "latitude": 57.09747,
      "longitude": 16.94092
    },
    {
      "id": 2716280,
      "name": "Emmaboda Municipality",
      "nativeName": "Emmaboda Kommun",
      "code": "SE-H-2716280",
      "countryId": 2661886,
      "countryCode": "SE",
      "stateCode": "SE-H",
      "latitude": 56.63333,
      "longitude": 15.53333
    },
    {
      "id": 2704397,
      "name": "Hultsfred Municipality",
      "nativeName": "Hultsfreds Kommun",
      "code": "SE-H-2704397",
      "countryId": 2661886,
      "countryCode": "SE",
      "stateCode": "SE-H",
      "latitude": 57.4,
      "longitude": 15.8
    },
    {
      "id": 2705716,
      "name": "Högsby Municipality",
      "nativeName": "Högsby Kommun",
      "code": "SE-H-2705716",
      "countryId": 2661886,
      "countryCode": "SE",
      "stateCode": "SE-H",
      "latitude": 57.15537,
      "longitude": 15.91674
    },
    {
      "id": 2702260,
      "name": "Kalmar Municipality",
      "nativeName": "Kalmar Kommun",
      "code": "SE-H-2702260",
      "countryId": 2661886,
      "countryCode": "SE",
      "stateCode": "SE-H",
      "latitude": 56.66361,
      "longitude": 16.18569
    },
    {
      "id": 2691406,
      "name": "Mönsterås Municipality",
      "nativeName": "Mönsterås Kommun",
      "code": "SE-H-2691406",
      "countryId": 2661886,
      "countryCode": "SE",
      "stateCode": "SE-H",
      "latitude": 57.06625,
      "longitude": 16.38621
    },
    {
      "id": 2691347,
      "name": "Mörbylånga Municipality",
      "nativeName": "Mörbylånga Kommun",
      "code": "SE-H-2691347",
      "countryId": 2661886,
      "countryCode": "SE",
      "stateCode": "SE-H",
      "latitude": 56.5,
      "longitude": 16.5
    },
    {
      "id": 2687897,
      "name": "Nybro Municipality",
      "nativeName": "Nybro Kommun",
      "code": "SE-H-2687897",
      "countryId": 2661886,
      "countryCode": "SE",
      "stateCode": "SE-H",
      "latitude": 56.82435,
      "longitude": 15.88969
    },
    {
      "id": 2686161,
      "name": "Oskarshamns Kommun",
      "nativeName": "Oskarshamns Kommun",
      "code": "SE-H-2686161",
      "countryId": 2661886,
      "countryCode": "SE",
      "stateCode": "SE-H",
      "latitude": 57.37339,
      "longitude": 16.38303
    },
    {
      "id": 2667902,
      "name": "Torsås Kommun",
      "nativeName": "Torsås Kommun",
      "code": "SE-H-2667902",
      "countryId": 2661886,
      "countryCode": "SE",
      "stateCode": "SE-H",
      "latitude": 56.42649,
      "longitude": 15.89128
    },
    {
      "id": 2662880,
      "name": "Vimmerby Municipality",
      "nativeName": "Vimmerby Kommun",
      "code": "SE-H-2662880",
      "countryId": 2661886,
      "countryCode": "SE",
      "stateCode": "SE-H",
      "latitude": 57.69009,
      "longitude": 15.86741
    },
    {
      "id": 2664201,
      "name": "Västervik Municipality",
      "nativeName": "Västerviks Kommun",
      "code": "SE-H-2664201",
      "countryId": 2661886,
      "countryCode": "SE",
      "stateCode": "SE-H",
      "latitude": 57.85242,
      "longitude": 16.3894
    }
  ]
}