{
  "stateId": 863485,
  "stateCode": "MK-201",
  "countryCode": "MK",
  "cities": [
    {
      "id": 792656,
      "name": "Berovo",
      "nativeName": "Berovo",
      "code": "MK-201-792656",
      "countryId": 718075,
      "countryCode": "MK",
      "stateCode": "MK-201",
      "latitude": 41.70306,
      "longitude": 22.85778
    },
    {
      "id": 10317948,
      "name": "Avramski Kolibi",
      "nativeName": "Avramski Kolibi",
      "code": "MK-201-10317948",
      "countryId": 718075,
      "countryCode": "MK",
      "stateCode": "MK-201",
      "latitude": 41.63073,
      "longitude": 22.84248
    },
    {
      "id": 792179,
      "name": "Budinarci",
      "nativeName": "Budinarci",
      "code": "MK-201-792179",
      "countryId": 718075,
      "countryCode": "MK",
      "stateCode": "MK-201",
      "latitude": 41.76333,
      "longitude": 22.77492
    },
    {
      "id": 10307690,
      "name": "Dobrilačka Maala",
      "nativeName": "Dobrilačka Maala",
      "code": "MK-201-10307690",
      "countryId": 718075,
      "countryCode": "MK",
      "stateCode": "MK-201",
      "latitude": 41.59454,
      "longitude": 22.92001
    },
    {
      "id": 862875,
      "name": "Dvorište",
      "nativeName": "Dvorište",
      "code": "MK-201-862875",
      "countryId": 718075,
      "countryCode": "MK",
      "stateCode": "MK-201",
      "latitude": 41.59049,
      "longitude": 22.9157
    },
    {
      "id": 788392,
      "name": "Mačevo",
      "nativeName": "Mačevo",
      "code": "MK-201-788392",
      "countryId": 718075,
      "countryCode": "MK",
      "stateCode": "MK-201",
      "latitude": 41.75007,
      "longitude": 22.79989
    },
    {
      "id": 787897,
      "name": "Mitrašinci",
      "nativeName": "Mitrašinci",
      "code": "MK-201-787897",
      "countryId": 718075,
      "countryCode": "MK",
      "stateCode": "MK-201",
      "latitude": 41.77647,
      "longitude": 22.73978
    },
    {
      "id": 786425,
      "name": "Ratevo",
      "nativeName": "Ratevo",
      "code": "MK-201-786425",
      "countryId": 718075,
      "countryCode": "MK",
      "stateCode": "MK-201",
      "latitude": 41.67494,
      "longitude": 22.85249
    },
    {
      "id": 786171,
      "name": "Rusinovo",
      "nativeName": "Rusinovo",
      "code": "MK-201-786171",
      "countryId": 718075,
      "countryCode": "MK",
      "stateCode": "MK-201",
      "latitude": 41.68728,
      "longitude": 22.80849
    },
    {
      "id": 785736,
      "name": "Smojmirovo",
      "nativeName": "Smojmirovo",
      "code": "MK-201-785736",
      "countryId": 718075,
      "countryCode": "MK",
      "stateCode": "MK-201",
      "latitude": 41.7369,
      "longitude": 22.84318
    },
    {
      "id": 835318,
      "name": "Suvi Lak",
      "nativeName": "Suvi Lak",
      "code": "MK-201-835318",
      "countryId": 718075,
      "countryCode": "MK",
      "stateCode": "MK-201",
      "latitude": 41.5655,
      "longitude": 22.79344
    },
    {
      "id": 784351,
      "name": "Vladimirovo",
      "nativeName": "Vladimirovo",
      "code": "MK-201-784351",
      "countryId": 718075,
      "countryCode": "MK",
      "stateCode": "MK-201",
      "latitude": 41.71,
      "longitude": 22.79278
    },
    {
      "id": 10307700,
      "name": "Čurilska Maala",
      "nativeName": "Čurilska Maala",
      "code": "MK-201-10307700",
      "countryId": 718075,
      "countryCode": "MK",
      "stateCode": "MK-201",
      "latitude": 41.58681,
      "longitude": 22.92639
    },
    {
      "id": 10322517,
      "name": "Kaluǵerica",
      "nativeName": "Kaluǵerica",
      "code": "MK-201-10322517",
      "countryId": 718075,
      "countryCode": "MK",
      "stateCode": "MK-201",
      "latitude": 41.60193,
      "longitude": 22.78745
    },
    {
      "id": 10322518,
      "name": "Mamutlija",
      "nativeName": "Mamutlija",
      "code": "MK-201-10322518",
      "countryId": 718075,
      "countryCode": "MK",
      "stateCode": "MK-201",
      "latitude": 41.58444,
      "longitude": 22.79826
    }
  ]
}