{
  "stateId": 862977,
  "stateCode": "MK-210",
  "countryCode": "MK",
  "cities": [
    {
      "id": 792929,
      "name": "Banja",
      "nativeName": "Banja",
      "code": "MK-210-792929",
      "countryId": 718075,
      "countryCode": "MK",
      "stateCode": "MK-210",
      "latitude": 41.91139,
      "longitude": 22.33361
    },
    {
      "id": 792110,
      "name": "Burilčevo",
      "nativeName": "Burilčevo",
      "code": "MK-210-792110",
      "countryId": 718075,
      "countryCode": "MK",
      "stateCode": "MK-210",
      "latitude": 41.84228,
      "longitude": 22.2969
    },
    {
      "id": 788933,
      "name": "Kučičino",
      "nativeName": "Kučičino",
      "code": "MK-210-788933",
      "countryId": 718075,
      "countryCode": "MK",
      "stateCode": "MK-210",
      "latitude": 41.845,
      "longitude": 22.3175
    },
    {
      "id": 788733,
      "name": "Lepopelci",
      "nativeName": "Lepopelci",
      "code": "MK-210-788733",
      "countryId": 718075,
      "countryCode": "MK",
      "stateCode": "MK-210",
      "latitude": 41.90222,
      "longitude": 22.21111
    },
    {
      "id": 787579,
      "name": "Novo Selani",
      "nativeName": "Novo Selani",
      "code": "MK-210-787579",
      "countryId": 718075,
      "countryCode": "MK",
      "stateCode": "MK-210",
      "latitude": 41.88417,
      "longitude": 22.22778
    },
    {
      "id": 787526,
      "name": "Oblesevo",
      "nativeName": "Oblesevo",
      "code": "MK-210-787526",
      "countryId": 718075,
      "countryCode": "MK",
      "stateCode": "MK-210",
      "latitude": 41.88333,
      "longitude": 22.33389
    },
    {
      "id": 785701,
      "name": "Sokolarci",
      "nativeName": "Sokolarci",
      "code": "MK-210-785701",
      "countryId": 718075,
      "countryCode": "MK",
      "stateCode": "MK-210",
      "latitude": 41.89635,
      "longitude": 22.27863
    },
    {
      "id": 785652,
      "name": "Spančevo",
      "nativeName": "Spančevo",
      "code": "MK-210-785652",
      "countryId": 718075,
      "countryCode": "MK",
      "stateCode": "MK-210",
      "latitude": 41.90461,
      "longitude": 22.30962
    },
    {
      "id": 785089,
      "name": "Teranci",
      "nativeName": "Teranci",
      "code": "MK-210-785089",
      "countryId": 718075,
      "countryCode": "MK",
      "stateCode": "MK-210",
      "latitude": 41.85057,
      "longitude": 22.35496
    },
    {
      "id": 784774,
      "name": "Ularci",
      "nativeName": "Ularci",
      "code": "MK-210-784774",
      "countryId": 718075,
      "countryCode": "MK",
      "stateCode": "MK-210",
      "latitude": 41.85889,
      "longitude": 22.26417
    },
    {
      "id": 784194,
      "name": "Vrbica",
      "nativeName": "Vrbica",
      "code": "MK-210-784194",
      "countryId": 718075,
      "countryCode": "MK",
      "stateCode": "MK-210",
      "latitude": 41.90972,
      "longitude": 22.24444
    },
    {
      "id": 791954,
      "name": "Češinovo",
      "nativeName": "Češinovo",
      "code": "MK-210-791954",
      "countryId": 718075,
      "countryCode": "MK",
      "stateCode": "MK-210",
      "latitude": 41.87148,
      "longitude": 22.28961
    },
    {
      "id": 791930,
      "name": "Čiflik",
      "nativeName": "Čiflik",
      "code": "MK-210-791930",
      "countryId": 718075,
      "countryCode": "MK",
      "stateCode": "MK-210",
      "latitude": 41.86889,
      "longitude": 22.3175
    },
    {
      "id": 783901,
      "name": "Žiganci",
      "nativeName": "Žiganci",
      "code": "MK-210-783901",
      "countryId": 718075,
      "countryCode": "MK",
      "stateCode": "MK-210",
      "latitude": 41.87917,
      "longitude": 22.23778
    }
  ]
}