{
  "stateId": 863901,
  "stateCode": "MK-312",
  "countryCode": "MK",
  "cities": [
    {
      "id": 785387,
      "name": "Struga",
      "nativeName": "Struga",
      "code": "MK-312-785387",
      "countryId": 718075,
      "countryCode": "MK",
      "stateCode": "MK-312",
      "latitude": 41.17799,
      "longitude": 20.67784
    },
    {
      "id": 10191310,
      "name": "Asovci",
      "nativeName": "Asovci",
      "code": "MK-312-10191310",
      "countryId": 718075,
      "countryCode": "MK",
      "stateCode": "MK-312",
      "latitude": 41.30689,
      "longitude": 20.56895
    },
    {
      "id": 796356,
      "name": "Bezovo",
      "nativeName": "Bezovo",
      "code": "MK-312-796356",
      "countryId": 718075,
      "countryCode": "MK",
      "stateCode": "MK-312",
      "latitude": 41.32926,
      "longitude": 20.60068
    },
    {
      "id": 792636,
      "name": "Bidžovo",
      "nativeName": "Bidžovo",
      "code": "MK-312-792636",
      "countryId": 718075,
      "countryCode": "MK",
      "stateCode": "MK-312",
      "latitude": 41.23,
      "longitude": 20.69833
    },
    {
      "id": 8623785,
      "name": "Bogojci",
      "nativeName": "Bogojci",
      "code": "MK-312-8623785",
      "countryId": 718075,
      "countryCode": "MK",
      "stateCode": "MK-312",
      "latitude": 41.28838,
      "longitude": 20.67023
    },
    {
      "id": 792431,
      "name": "Boroec",
      "nativeName": "Boroec",
      "code": "MK-312-792431",
      "countryId": 718075,
      "countryCode": "MK",
      "stateCode": "MK-312",
      "latitude": 41.28928,
      "longitude": 20.59653
    },
    {
      "id": 792341,
      "name": "Brčevo",
      "nativeName": "Brčevo",
      "code": "MK-312-792341",
      "countryId": 718075,
      "countryCode": "MK",
      "stateCode": "MK-312",
      "latitude": 41.29769,
      "longitude": 20.67284
    },
    {
      "id": 792106,
      "name": "Burinec",
      "nativeName": "Burinec",
      "code": "MK-312-792106",
      "countryId": 718075,
      "countryCode": "MK",
      "stateCode": "MK-312",
      "latitude": 41.39528,
      "longitude": 20.61722
    },
    {
      "id": 791548,
      "name": "Delogožda",
      "nativeName": "Delogožda",
      "code": "MK-312-791548",
      "countryId": 718075,
      "countryCode": "MK",
      "stateCode": "MK-312",
      "latitude": 41.25728,
      "longitude": 20.7218
    },
    {
      "id": 8623622,
      "name": "Dobovjani",
      "nativeName": "Dobovjani",
      "code": "MK-312-8623622",
      "countryId": 718075,
      "countryCode": "MK",
      "stateCode": "MK-312",
      "latitude": 41.2523,
      "longitude": 20.65406
    },
    {
      "id": 791369,
      "name": "Dolna Belica",
      "nativeName": "Dolna Belica",
      "code": "MK-312-791369",
      "countryId": 718075,
      "countryCode": "MK",
      "stateCode": "MK-312",
      "latitude": 41.21333,
      "longitude": 20.635
    },
    {
      "id": 791326,
      "name": "Dolno Tateši",
      "nativeName": "Dolno Tateši",
      "code": "MK-312-791326",
      "countryId": 718075,
      "countryCode": "MK",
      "stateCode": "MK-312",
      "latitude": 41.25861,
      "longitude": 20.68917
    },
    {
      "id": 791081,
      "name": "Draslajca",
      "nativeName": "Draslajca",
      "code": "MK-312-791081",
      "countryId": 718075,
      "countryCode": "MK",
      "stateCode": "MK-312",
      "latitude": 41.21556,
      "longitude": 20.69306
    },
    {
      "id": 791050,
      "name": "Drenok",
      "nativeName": "Drenok",
      "code": "MK-312-791050",
      "countryId": 718075,
      "countryCode": "MK",
      "stateCode": "MK-312",
      "latitude": 41.39139,
      "longitude": 20.56056
    },
    {
      "id": 790856,
      "name": "Džepin",
      "nativeName": "Džepin",
      "code": "MK-312-790856",
      "countryId": 718075,
      "countryCode": "MK",
      "stateCode": "MK-312",
      "latitude": 41.24778,
      "longitude": 20.73806
    },
    {
      "id": 790811,
      "name": "Frangovo",
      "nativeName": "Frangovo",
      "code": "MK-312-790811",
      "countryId": 718075,
      "countryCode": "MK",
      "stateCode": "MK-312",
      "latitude": 41.14479,
      "longitude": 20.62546
    },
    {
      "id": 790712,
      "name": "Globočica",
      "nativeName": "Globočica",
      "code": "MK-312-790712",
      "countryId": 718075,
      "countryCode": "MK",
      "stateCode": "MK-312",
      "latitude": 41.31694,
      "longitude": 20.64278
    },
    {
      "id": 790533,
      "name": "Gorna Belica",
      "nativeName": "Gorna Belica",
      "code": "MK-312-790533",
      "countryId": 718075,
      "countryCode": "MK",
      "stateCode": "MK-312",
      "latitude": 41.22352,
      "longitude": 20.55658
    },
    {
      "id": 790310,
      "name": "Gorno Tateši",
      "nativeName": "Gorno Tateši",
      "code": "MK-312-790310",
      "countryId": 718075,
      "countryCode": "MK",
      "stateCode": "MK-312",
      "latitude": 41.26028,
      "longitude": 20.67722
    },
    {
      "id": 8623799,
      "name": "Jaovce",
      "nativeName": "Jaovce",
      "code": "MK-312-8623799",
      "countryId": 718075,
      "countryCode": "MK",
      "stateCode": "MK-312",
      "latitude": 41.25116,
      "longitude": 20.67484
    },
    {
      "id": 789664,
      "name": "Kališta",
      "nativeName": "Kališta",
      "code": "MK-312-789664",
      "countryId": 718075,
      "countryCode": "MK",
      "stateCode": "MK-312",
      "latitude": 41.15239,
      "longitude": 20.64998
    },
    {
      "id": 832912,
      "name": "Kalište",
      "nativeName": "Kalište",
      "code": "MK-312-832912",
      "countryId": 718075,
      "countryCode": "MK",
      "stateCode": "MK-312",
      "latitude": 41.87824,
      "longitude": 20.86039
    },
    {
      "id": 789258,
      "name": "Korošišta",
      "nativeName": "Korošišta",
      "code": "MK-312-789258",
      "countryId": 718075,
      "countryCode": "MK",
      "stateCode": "MK-312",
      "latitude": 41.24946,
      "longitude": 20.74718
    },
    {
      "id": 788810,
      "name": "Lakaica",
      "nativeName": "Lakaica",
      "code": "MK-312-788810",
      "countryId": 718075,
      "countryCode": "MK",
      "stateCode": "MK-312",
      "latitude": 41.32517,
      "longitude": 20.5328
    },
    {
      "id": 788597,
      "name": "Livada",
      "nativeName": "Livada",
      "code": "MK-312-788597",
      "countryId": 718075,
      "countryCode": "MK",
      "stateCode": "MK-312",
      "latitude": 41.23051,
      "longitude": 20.72304
    },
    {
      "id": 788513,
      "name": "Lokov",
      "nativeName": "Lokov",
      "code": "MK-312-788513",
      "countryId": 718075,
      "countryCode": "MK",
      "stateCode": "MK-312",
      "latitude": 41.36611,
      "longitude": 20.64833
    },
    {
      "id": 788472,
      "name": "Ložani",
      "nativeName": "Ložani",
      "code": "MK-312-788472",
      "countryId": 718075,
      "countryCode": "MK",
      "stateCode": "MK-312",
      "latitude": 41.22722,
      "longitude": 20.67583
    },
    {
      "id": 788415,
      "name": "Lukovo",
      "nativeName": "Lukovo",
      "code": "MK-312-788415",
      "countryId": 718075,
      "countryCode": "MK",
      "stateCode": "MK-312",
      "latitude": 41.35339,
      "longitude": 20.60637
    },
    {
      "id": 787902,
      "name": "Mislesevo",
      "nativeName": "Mislesevo",
      "code": "MK-312-787902",
      "countryId": 718075,
      "countryCode": "MK",
      "stateCode": "MK-312",
      "latitude": 41.185,
      "longitude": 20.70861
    },
    {
      "id": 787899,
      "name": "Mislodežda",
      "nativeName": "Mislodežda",
      "code": "MK-312-787899",
      "countryId": 718075,
      "countryCode": "MK",
      "stateCode": "MK-312",
      "latitude": 41.3,
      "longitude": 20.69333
    },
    {
      "id": 787880,
      "name": "Modrič",
      "nativeName": "Modrič",
      "code": "MK-312-787880",
      "countryId": 718075,
      "countryCode": "MK",
      "stateCode": "MK-312",
      "latitude": 41.36782,
      "longitude": 20.57164
    },
    {
      "id": 787841,
      "name": "Moroišta",
      "nativeName": "Moroišta",
      "code": "MK-312-787841",
      "countryId": 718075,
      "countryCode": "MK",
      "stateCode": "MK-312",
      "latitude": 41.20278,
      "longitude": 20.7
    },
    {
      "id": 787688,
      "name": "Nerezi",
      "nativeName": "Nerezi",
      "code": "MK-312-787688",
      "countryId": 718075,
      "countryCode": "MK",
      "stateCode": "MK-312",
      "latitude": 41.33793,
      "longitude": 20.60006
    },
    {
      "id": 787577,
      "name": "Novo Selo",
      "nativeName": "Novo Selo",
      "code": "MK-312-787577",
      "countryId": 718075,
      "countryCode": "MK",
      "stateCode": "MK-312",
      "latitude": 41.23806,
      "longitude": 20.69722
    },
    {
      "id": 787475,
      "name": "Oktisi",
      "nativeName": "Oktisi",
      "code": "MK-312-787475",
      "countryId": 718075,
      "countryCode": "MK",
      "stateCode": "MK-312",
      "latitude": 41.2325,
      "longitude": 20.60722
    },
    {
      "id": 787044,
      "name": "Piskupština",
      "nativeName": "Piskupština",
      "code": "MK-312-787044",
      "countryId": 718075,
      "countryCode": "MK",
      "stateCode": "MK-312",
      "latitude": 41.32163,
      "longitude": 20.60768
    },
    {
      "id": 786964,
      "name": "Podgorci",
      "nativeName": "Podgorci",
      "code": "MK-312-786964",
      "countryId": 718075,
      "countryCode": "MK",
      "stateCode": "MK-312",
      "latitude": 41.25871,
      "longitude": 20.59849
    },
    {
      "id": 786834,
      "name": "Poum",
      "nativeName": "Poum",
      "code": "MK-312-786834",
      "countryId": 718075,
      "countryCode": "MK",
      "stateCode": "MK-312",
      "latitude": 41.28102,
      "longitude": 20.71164
    },
    {
      "id": 786716,
      "name": "Prisovjani",
      "nativeName": "Prisovjani",
      "code": "MK-312-786716",
      "countryId": 718075,
      "countryCode": "MK",
      "stateCode": "MK-312",
      "latitude": 41.33056,
      "longitude": 20.68444
    },
    {
      "id": 786582,
      "name": "Radolista",
      "nativeName": "Radolista",
      "code": "MK-312-786582",
      "countryId": 718075,
      "countryCode": "MK",
      "stateCode": "MK-312",
      "latitude": 41.16417,
      "longitude": 20.62333
    },
    {
      "id": 786560,
      "name": "Radožda",
      "nativeName": "Radožda",
      "code": "MK-312-786560",
      "countryId": 718075,
      "countryCode": "MK",
      "stateCode": "MK-312",
      "latitude": 41.10389,
      "longitude": 20.63306
    },
    {
      "id": 786159,
      "name": "Ržanovo",
      "nativeName": "Ržanovo",
      "code": "MK-312-786159",
      "countryId": 718075,
      "countryCode": "MK",
      "stateCode": "MK-312",
      "latitude": 41.37355,
      "longitude": 20.66583
    },
    {
      "id": 786009,
      "name": "Selce",
      "nativeName": "Selce",
      "code": "MK-312-786009",
      "countryId": 718075,
      "countryCode": "MK",
      "stateCode": "MK-312",
      "latitude": 41.39899,
      "longitude": 20.62357
    },
    {
      "id": 785121,
      "name": "Tašmaruništa",
      "nativeName": "Tašmaruništa",
      "code": "MK-312-785121",
      "countryId": 718075,
      "countryCode": "MK",
      "stateCode": "MK-312",
      "latitude": 41.26887,
      "longitude": 20.63892
    },
    {
      "id": 784679,
      "name": "Velesta",
      "nativeName": "Velesta",
      "code": "MK-312-784679",
      "countryId": 718075,
      "countryCode": "MK",
      "stateCode": "MK-312",
      "latitude": 41.24083,
      "longitude": 20.64389
    },
    {
      "id": 784399,
      "name": "Višni",
      "nativeName": "Višni",
      "code": "MK-312-784399",
      "countryId": 718075,
      "countryCode": "MK",
      "stateCode": "MK-312",
      "latitude": 41.19333,
      "longitude": 20.59889
    },
    {
      "id": 784231,
      "name": "Vraništa",
      "nativeName": "Vraništa",
      "code": "MK-312-784231",
      "countryId": 718075,
      "countryCode": "MK",
      "stateCode": "MK-312",
      "latitude": 41.21022,
      "longitude": 20.66394
    },
    {
      "id": 784038,
      "name": "Zagračani",
      "nativeName": "Zagračani",
      "code": "MK-312-784038",
      "countryId": 718075,
      "countryCode": "MK",
      "stateCode": "MK-312",
      "latitude": 41.19139,
      "longitude": 20.62861
    },
    {
      "id": 783976,
      "name": "Zbaždi",
      "nativeName": "Zbaždi",
      "code": "MK-312-783976",
      "countryId": 718075,
      "countryCode": "MK",
      "stateCode": "MK-312",
      "latitude": 41.34935,
      "longitude": 20.67207
    },
    {
      "id": 10191292,
      "name": "Šajnova Maala",
      "nativeName": "Šajnova Maala",
      "code": "MK-312-10191292",
      "countryId": 718075,
      "countryCode": "MK",
      "stateCode": "MK-312",
      "latitude": 41.3192,
      "longitude": 20.57406
    },
    {
      "id": 8427056,
      "name": "Šum",
      "nativeName": "Šum",
      "code": "MK-312-8427056",
      "countryId": 718075,
      "countryCode": "MK",
      "stateCode": "MK-312",
      "latitude": 41.18673,
      "longitude": 20.63435
    },
    {
      "id": 8427041,
      "name": "Fjorište",
      "nativeName": "Fjorište",
      "code": "MK-312-8427041",
      "countryId": 718075,
      "countryCode": "MK",
      "stateCode": "MK-312",
      "latitude": 41.15324,
      "longitude": 20.62738
    },
    {
      "id": 789952,
      "name": "Jablanica",
      "nativeName": "Jablanica",
      "code": "MK-312-789952",
      "countryId": 718075,
      "countryCode": "MK",
      "stateCode": "MK-312",
      "latitude": 41.31479,
      "longitude": 20.58025
    },
    {
      "id": 8427091,
      "name": "Senokose",
      "nativeName": "Senokose",
      "code": "MK-312-8427091",
      "countryId": 718075,
      "countryCode": "MK",
      "stateCode": "MK-312",
      "latitude": 41.17081,
      "longitude": 20.71288
    },
    {
      "id": 8427074,
      "name": "Teferiḱ",
      "nativeName": "Teferiḱ",
      "code": "MK-312-8427074",
      "countryId": 718075,
      "countryCode": "MK",
      "stateCode": "MK-312",
      "latitude": 41.17386,
      "longitude": 20.64949
    },
    {
      "id": 788819,
      "name": "Labunista",
      "nativeName": "Labunista",
      "code": "MK-312-788819",
      "countryId": 718075,
      "countryCode": "MK",
      "stateCode": "MK-312",
      "latitude": 41.26861,
      "longitude": 20.59611
    }
  ]
}