{
  "stateId": 7056271,
  "stateCode": "MK-304",
  "countryCode": "MK",
  "cities": [
    {
      "id": 792767,
      "name": "Belčišta",
      "nativeName": "Belčišta",
      "code": "MK-304-792767",
      "countryId": 718075,
      "countryCode": "MK",
      "stateCode": "MK-304",
      "latitude": 41.30278,
      "longitude": 20.83028
    },
    {
      "id": 793098,
      "name": "Arbinovo",
      "nativeName": "Arbinovo",
      "code": "MK-304-793098",
      "countryId": 718075,
      "countryCode": "MK",
      "stateCode": "MK-304",
      "latitude": 41.37046,
      "longitude": 20.82981
    },
    {
      "id": 792403,
      "name": "Botun",
      "nativeName": "Botun",
      "code": "MK-304-792403",
      "countryId": 718075,
      "countryCode": "MK",
      "stateCode": "MK-304",
      "latitude": 41.28627,
      "longitude": 20.78986
    },
    {
      "id": 792296,
      "name": "Brežani",
      "nativeName": "Brežani",
      "code": "MK-304-792296",
      "countryId": 718075,
      "countryCode": "MK",
      "stateCode": "MK-304",
      "latitude": 41.27167,
      "longitude": 20.96131
    },
    {
      "id": 791742,
      "name": "Crvena Voda",
      "nativeName": "Crvena Voda",
      "code": "MK-304-791742",
      "countryId": 718075,
      "countryCode": "MK",
      "stateCode": "MK-304",
      "latitude": 41.32062,
      "longitude": 20.76709
    },
    {
      "id": 791329,
      "name": "Dolno Sredorečje",
      "nativeName": "Dolno Sredorečje",
      "code": "MK-304-791329",
      "countryId": 718075,
      "countryCode": "MK",
      "stateCode": "MK-304",
      "latitude": 41.29468,
      "longitude": 20.84388
    },
    {
      "id": 790662,
      "name": "Godivje",
      "nativeName": "Godivje",
      "code": "MK-304-790662",
      "countryId": 718075,
      "countryCode": "MK",
      "stateCode": "MK-304",
      "latitude": 41.40167,
      "longitude": 20.79056
    },
    {
      "id": 790543,
      "name": "Gorenci",
      "nativeName": "Gorenci",
      "code": "MK-304-790543",
      "countryId": 718075,
      "countryCode": "MK",
      "stateCode": "MK-304",
      "latitude": 41.19028,
      "longitude": 20.7575
    },
    {
      "id": 790313,
      "name": "Gorno Sredorečje",
      "nativeName": "Gorno Sredorečje",
      "code": "MK-304-790313",
      "countryId": 718075,
      "countryCode": "MK",
      "stateCode": "MK-304",
      "latitude": 41.30056,
      "longitude": 20.8525
    },
    {
      "id": 790149,
      "name": "Grko Pole",
      "nativeName": "Grko Pole",
      "code": "MK-304-790149",
      "countryId": 718075,
      "countryCode": "MK",
      "stateCode": "MK-304",
      "latitude": 41.29082,
      "longitude": 20.8657
    },
    {
      "id": 789971,
      "name": "Izdeglavje",
      "nativeName": "Izdeglavje",
      "code": "MK-304-789971",
      "countryId": 718075,
      "countryCode": "MK",
      "stateCode": "MK-304",
      "latitude": 41.33639,
      "longitude": 20.82667
    },
    {
      "id": 789456,
      "name": "Klimeštani",
      "nativeName": "Klimeštani",
      "code": "MK-304-789456",
      "countryId": 718075,
      "countryCode": "MK",
      "stateCode": "MK-304",
      "latitude": 41.25589,
      "longitude": 20.76684
    },
    {
      "id": 788805,
      "name": "Laktinje",
      "nativeName": "Laktinje",
      "code": "MK-304-788805",
      "countryId": 718075,
      "countryCode": "MK",
      "stateCode": "MK-304",
      "latitude": 41.3875,
      "longitude": 20.79639
    },
    {
      "id": 788725,
      "name": "Lešani",
      "nativeName": "Lešani",
      "code": "MK-304-788725",
      "countryId": 718075,
      "countryCode": "MK",
      "stateCode": "MK-304",
      "latitude": 41.27778,
      "longitude": 20.86056
    },
    {
      "id": 788021,
      "name": "Mešeišta",
      "nativeName": "Mešeišta",
      "code": "MK-304-788021",
      "countryId": 718075,
      "countryCode": "MK",
      "stateCode": "MK-304",
      "latitude": 41.23814,
      "longitude": 20.77414
    },
    {
      "id": 787820,
      "name": "Mramorec",
      "nativeName": "Mramorec",
      "code": "MK-304-787820",
      "countryId": 718075,
      "countryCode": "MK",
      "stateCode": "MK-304",
      "latitude": 41.38191,
      "longitude": 20.87639
    },
    {
      "id": 787575,
      "name": "Novo Selo",
      "nativeName": "Novo Selo",
      "code": "MK-304-787575",
      "countryId": 718075,
      "countryCode": "MK",
      "stateCode": "MK-304",
      "latitude": 41.30972,
      "longitude": 20.80583
    },
    {
      "id": 787383,
      "name": "Orovnik",
      "nativeName": "Orovnik",
      "code": "MK-304-787383",
      "countryId": 718075,
      "countryCode": "MK",
      "stateCode": "MK-304",
      "latitude": 41.17333,
      "longitude": 20.75417
    },
    {
      "id": 787284,
      "name": "Ozdoleni",
      "nativeName": "Ozdoleni",
      "code": "MK-304-787284",
      "countryId": 718075,
      "countryCode": "MK",
      "stateCode": "MK-304",
      "latitude": 41.33194,
      "longitude": 20.855
    },
    {
      "id": 787113,
      "name": "Pesočani",
      "nativeName": "Pesočani",
      "code": "MK-304-787113",
      "countryId": 718075,
      "countryCode": "MK",
      "stateCode": "MK-304",
      "latitude": 41.32757,
      "longitude": 20.78812
    },
    {
      "id": 864714,
      "name": "Radomirovo",
      "nativeName": "Radomirovo",
      "code": "MK-304-864714",
      "countryId": 718075,
      "countryCode": "MK",
      "stateCode": "MK-304",
      "latitude": 41.3526,
      "longitude": 20.74023
    },
    {
      "id": 785803,
      "name": "Slatino",
      "nativeName": "Slatino",
      "code": "MK-304-785803",
      "countryId": 718075,
      "countryCode": "MK",
      "stateCode": "MK-304",
      "latitude": 41.34833,
      "longitude": 20.86639
    },
    {
      "id": 8659658,
      "name": "Slatinski Čiflik",
      "nativeName": "Slatinski Čiflik",
      "code": "MK-304-8659658",
      "countryId": 718075,
      "countryCode": "MK",
      "stateCode": "MK-304",
      "latitude": 41.33607,
      "longitude": 20.85006
    },
    {
      "id": 785778,
      "name": "Slivovo",
      "nativeName": "Slivovo",
      "code": "MK-304-785778",
      "countryId": 718075,
      "countryCode": "MK",
      "stateCode": "MK-304",
      "latitude": 41.40525,
      "longitude": 20.84389
    },
    {
      "id": 785664,
      "name": "Sošani",
      "nativeName": "Sošani",
      "code": "MK-304-785664",
      "countryId": 718075,
      "countryCode": "MK",
      "stateCode": "MK-304",
      "latitude": 41.32017,
      "longitude": 20.87109
    },
    {
      "id": 784973,
      "name": "Trebeništa",
      "nativeName": "Trebeništa",
      "code": "MK-304-784973",
      "countryId": 718075,
      "countryCode": "MK",
      "stateCode": "MK-304",
      "latitude": 41.20639,
      "longitude": 20.755
    },
    {
      "id": 784811,
      "name": "Turje",
      "nativeName": "Turje",
      "code": "MK-304-784811",
      "countryId": 718075,
      "countryCode": "MK",
      "stateCode": "MK-304",
      "latitude": 41.41395,
      "longitude": 20.86587
    },
    {
      "id": 784503,
      "name": "Velmej",
      "nativeName": "Velmej",
      "code": "MK-304-784503",
      "countryId": 718075,
      "countryCode": "MK",
      "stateCode": "MK-304",
      "latitude": 41.29838,
      "longitude": 20.90174
    },
    {
      "id": 784268,
      "name": "Volino",
      "nativeName": "Volino",
      "code": "MK-304-784268",
      "countryId": 718075,
      "countryCode": "MK",
      "stateCode": "MK-304",
      "latitude": 41.22028,
      "longitude": 20.74056
    },
    {
      "id": 784185,
      "name": "Vrbjani",
      "nativeName": "Vrbjani",
      "code": "MK-304-784185",
      "countryId": 718075,
      "countryCode": "MK",
      "stateCode": "MK-304",
      "latitude": 41.41943,
      "longitude": 20.79392
    },
    {
      "id": 783846,
      "name": "Zlesti",
      "nativeName": "Zlesti",
      "code": "MK-304-783846",
      "countryId": 718075,
      "countryCode": "MK",
      "stateCode": "MK-304",
      "latitude": 41.2825,
      "longitude": 20.83028
    }
  ]
}