{
  "stateId": 862945,
  "stateCode": "MK-408",
  "countryCode": "MK",
  "cities": [
    {
      "id": 787574,
      "name": "Novo Selo",
      "nativeName": "Novo Selo",
      "code": "MK-408-787574",
      "countryId": 718075,
      "countryCode": "MK",
      "stateCode": "MK-408",
      "latitude": 41.41486,
      "longitude": 22.88164
    },
    {
      "id": 793010,
      "name": "Badolen",
      "nativeName": "Badolen",
      "code": "MK-408-793010",
      "countryId": 718075,
      "countryCode": "MK",
      "stateCode": "MK-408",
      "latitude": 41.44322,
      "longitude": 22.95323
    },
    {
      "id": 792992,
      "name": "Bajkovo",
      "nativeName": "Bajkovo",
      "code": "MK-408-792992",
      "countryId": 718075,
      "countryCode": "MK",
      "stateCode": "MK-408",
      "latitude": 41.41811,
      "longitude": 22.92732
    },
    {
      "id": 792885,
      "name": "Barbarevo",
      "nativeName": "Barbarevo",
      "code": "MK-408-792885",
      "countryId": 718075,
      "countryCode": "MK",
      "stateCode": "MK-408",
      "latitude": 41.46397,
      "longitude": 22.89583
    },
    {
      "id": 792444,
      "name": "Borisovo",
      "nativeName": "Borisovo",
      "code": "MK-408-792444",
      "countryId": 718075,
      "countryCode": "MK",
      "stateCode": "MK-408",
      "latitude": 41.37877,
      "longitude": 22.82599
    },
    {
      "id": 791076,
      "name": "Draževo",
      "nativeName": "Draževo",
      "code": "MK-408-791076",
      "countryId": 718075,
      "countryCode": "MK",
      "stateCode": "MK-408",
      "latitude": 41.37356,
      "longitude": 22.92063
    },
    {
      "id": 789366,
      "name": "Kolešino",
      "nativeName": "Kolešino",
      "code": "MK-408-789366",
      "countryId": 718075,
      "countryCode": "MK",
      "stateCode": "MK-408",
      "latitude": 41.38071,
      "longitude": 22.81432
    },
    {
      "id": 787858,
      "name": "Mokrievo",
      "nativeName": "Mokrievo",
      "code": "MK-408-787858",
      "countryId": 718075,
      "countryCode": "MK",
      "stateCode": "MK-408",
      "latitude": 41.375,
      "longitude": 22.83861
    },
    {
      "id": 787856,
      "name": "Mokrino",
      "nativeName": "Mokrino",
      "code": "MK-408-787856",
      "countryId": 718075,
      "countryCode": "MK",
      "stateCode": "MK-408",
      "latitude": 41.37785,
      "longitude": 22.85479
    },
    {
      "id": 787588,
      "name": "Novo Konjarevo",
      "nativeName": "Novo Konjarevo",
      "code": "MK-408-787588",
      "countryId": 718075,
      "countryCode": "MK",
      "stateCode": "MK-408",
      "latitude": 41.39375,
      "longitude": 22.94082
    },
    {
      "id": 8427586,
      "name": "Samoilovo",
      "nativeName": "Samoilovo",
      "code": "MK-408-8427586",
      "countryId": 718075,
      "countryCode": "MK",
      "stateCode": "MK-408",
      "latitude": 41.40257,
      "longitude": 22.90485
    },
    {
      "id": 785733,
      "name": "Smolari",
      "nativeName": "Smolari",
      "code": "MK-408-785733",
      "countryId": 718075,
      "countryCode": "MK",
      "stateCode": "MK-408",
      "latitude": 41.37496,
      "longitude": 22.90399
    },
    {
      "id": 785519,
      "name": "Staro Konjarevo",
      "nativeName": "Staro Konjarevo",
      "code": "MK-408-785519",
      "countryId": 718075,
      "countryCode": "MK",
      "stateCode": "MK-408",
      "latitude": 41.36749,
      "longitude": 22.95624
    },
    {
      "id": 785483,
      "name": "Stinik",
      "nativeName": "Stinik",
      "code": "MK-408-785483",
      "countryId": 718075,
      "countryCode": "MK",
      "stateCode": "MK-408",
      "latitude": 41.46611,
      "longitude": 22.92409
    },
    {
      "id": 785270,
      "name": "Sušica",
      "nativeName": "Sušica",
      "code": "MK-408-785270",
      "countryId": 718075,
      "countryCode": "MK",
      "stateCode": "MK-408",
      "latitude": 41.43982,
      "longitude": 22.83676
    },
    {
      "id": 783798,
      "name": "Zubovo",
      "nativeName": "Zubovo",
      "code": "MK-408-783798",
      "countryId": 718075,
      "countryCode": "MK",
      "stateCode": "MK-408",
      "latitude": 41.40872,
      "longitude": 22.83766
    }
  ]
}