{
  "stateId": 862949,
  "stateCode": "MK-406",
  "countryCode": "MK",
  "cities": [
    {
      "id": 785537,
      "name": "Star Dojran",
      "nativeName": "Star Dojran",
      "code": "MK-406-785537",
      "countryId": 718075,
      "countryCode": "MK",
      "stateCode": "MK-406",
      "latitude": 41.18647,
      "longitude": 22.7203
    },
    {
      "id": 791827,
      "name": "Crničani",
      "nativeName": "Crničani",
      "code": "MK-406-791827",
      "countryId": 718075,
      "countryCode": "MK",
      "stateCode": "MK-406",
      "latitude": 41.236,
      "longitude": 22.65456
    },
    {
      "id": 790885,
      "name": "Durutli",
      "nativeName": "Durutli",
      "code": "MK-406-790885",
      "countryId": 718075,
      "countryCode": "MK",
      "stateCode": "MK-406",
      "latitude": 41.29365,
      "longitude": 22.67809
    },
    {
      "id": 790810,
      "name": "Furka",
      "nativeName": "Furka",
      "code": "MK-406-790810",
      "countryId": 718075,
      "countryCode": "MK",
      "stateCode": "MK-406",
      "latitude": 41.24138,
      "longitude": 22.61316
    },
    {
      "id": 788849,
      "name": "Kurtamzali",
      "nativeName": "Kurtamzali",
      "code": "MK-406-788849",
      "countryId": 718075,
      "countryCode": "MK",
      "stateCode": "MK-406",
      "latitude": 41.29471,
      "longitude": 22.69437
    },
    {
      "id": 787667,
      "name": "Nikoliḱ",
      "nativeName": "Nikoliḱ",
      "code": "MK-406-787667",
      "countryId": 718075,
      "countryCode": "MK",
      "stateCode": "MK-406",
      "latitude": 41.26284,
      "longitude": 22.745
    },
    {
      "id": 787605,
      "name": "Nov Dojran",
      "nativeName": "Nov Dojran",
      "code": "MK-406-787605",
      "countryId": 718075,
      "countryCode": "MK",
      "stateCode": "MK-406",
      "latitude": 41.21915,
      "longitude": 22.70464
    },
    {
      "id": 787417,
      "name": "Organdžali",
      "nativeName": "Organdžali",
      "code": "MK-406-787417",
      "countryId": 718075,
      "countryCode": "MK",
      "stateCode": "MK-406",
      "latitude": 41.29593,
      "longitude": 22.70311
    },
    {
      "id": 785943,
      "name": "Sevendekli",
      "nativeName": "Sevendekli",
      "code": "MK-406-785943",
      "countryId": 718075,
      "countryCode": "MK",
      "stateCode": "MK-406",
      "latitude": 41.28556,
      "longitude": 22.68
    },
    {
      "id": 838672,
      "name": "Sretenovo",
      "nativeName": "Sretenovo",
      "code": "MK-406-838672",
      "countryId": 718075,
      "countryCode": "MK",
      "stateCode": "MK-406",
      "latitude": 41.17554,
      "longitude": 22.72809
    },
    {
      "id": 791151,
      "name": "Ǵopčeli",
      "nativeName": "Ǵopčeli",
      "code": "MK-406-791151",
      "countryId": 718075,
      "countryCode": "MK",
      "stateCode": "MK-406",
      "latitude": 41.25594,
      "longitude": 22.6651
    }
  ]
}