{
  "stateId": 863846,
  "stateCode": "MK-502",
  "countryCode": "MK",
  "cities": [
    {
      "id": 787778,
      "name": "Demir Hisar",
      "nativeName": "Demir Hisar",
      "code": "MK-502-787778",
      "countryId": 718075,
      "countryCode": "MK",
      "stateCode": "MK-502",
      "latitude": 41.22097,
      "longitude": 21.20302
    },
    {
      "id": 793047,
      "name": "Babino",
      "nativeName": "Babino",
      "code": "MK-502-793047",
      "countryId": 718075,
      "countryCode": "MK",
      "stateCode": "MK-502",
      "latitude": 41.2989,
      "longitude": 21.0787
    },
    {
      "id": 792889,
      "name": "Barakovo",
      "nativeName": "Barakovo",
      "code": "MK-502-792889",
      "countryId": 718075,
      "countryCode": "MK",
      "stateCode": "MK-502",
      "latitude": 41.25043,
      "longitude": 21.22826
    },
    {
      "id": 792818,
      "name": "Bazernik",
      "nativeName": "Bazernik",
      "code": "MK-502-792818",
      "countryId": 718075,
      "countryCode": "MK",
      "stateCode": "MK-502",
      "latitude": 41.28208,
      "longitude": 21.04842
    },
    {
      "id": 792768,
      "name": "Belče",
      "nativeName": "Belče",
      "code": "MK-502-792768",
      "countryId": 718075,
      "countryCode": "MK",
      "stateCode": "MK-502",
      "latitude": 41.24435,
      "longitude": 21.2018
    },
    {
      "id": 798459,
      "name": "Boište",
      "nativeName": "Boište",
      "code": "MK-502-798459",
      "countryId": 718075,
      "countryCode": "MK",
      "stateCode": "MK-502",
      "latitude": 41.19667,
      "longitude": 21.10139
    },
    {
      "id": 792274,
      "name": "Brezovo",
      "nativeName": "Brezovo",
      "code": "MK-502-792274",
      "countryId": 718075,
      "countryCode": "MK",
      "stateCode": "MK-502",
      "latitude": 41.34222,
      "longitude": 21.12722
    },
    {
      "id": 791963,
      "name": "Cerovo",
      "nativeName": "Cerovo",
      "code": "MK-502-791963",
      "countryId": 718075,
      "countryCode": "MK",
      "stateCode": "MK-502",
      "latitude": 41.21588,
      "longitude": 21.09129
    },
    {
      "id": 791384,
      "name": "Dolenci",
      "nativeName": "Dolenci",
      "code": "MK-502-791384",
      "countryId": 718075,
      "countryCode": "MK",
      "stateCode": "MK-502",
      "latitude": 41.31537,
      "longitude": 21.09795
    },
    {
      "id": 790846,
      "name": "Edinakovci",
      "nativeName": "Edinakovci",
      "code": "MK-502-790846",
      "countryId": 718075,
      "countryCode": "MK",
      "stateCode": "MK-502",
      "latitude": 41.26031,
      "longitude": 21.24873
    },
    {
      "id": 790609,
      "name": "Golemo Ilino",
      "nativeName": "Golemo Ilino",
      "code": "MK-502-790609",
      "countryId": 718075,
      "countryCode": "MK",
      "stateCode": "MK-502",
      "latitude": 41.31399,
      "longitude": 21.00298
    },
    {
      "id": 790212,
      "name": "Graište",
      "nativeName": "Graište",
      "code": "MK-502-790212",
      "countryId": 718075,
      "countryCode": "MK",
      "stateCode": "MK-502",
      "latitude": 41.23692,
      "longitude": 21.21985
    },
    {
      "id": 789393,
      "name": "Kočište",
      "nativeName": "Kočište",
      "code": "MK-502-789393",
      "countryId": 718075,
      "countryCode": "MK",
      "stateCode": "MK-502",
      "latitude": 41.34486,
      "longitude": 21.17161
    },
    {
      "id": 788828,
      "name": "Kutretino",
      "nativeName": "Kutretino",
      "code": "MK-502-788828",
      "countryId": 718075,
      "countryCode": "MK",
      "stateCode": "MK-502",
      "latitude": 41.20736,
      "longitude": 21.2112
    },
    {
      "id": 788696,
      "name": "Leskovo",
      "nativeName": "Leskovo",
      "code": "MK-502-788696",
      "countryId": 718075,
      "countryCode": "MK",
      "stateCode": "MK-502",
      "latitude": 41.22194,
      "longitude": 21.12056
    },
    {
      "id": 788212,
      "name": "Malo Ilino",
      "nativeName": "Malo Ilino",
      "code": "MK-502-788212",
      "countryId": 718075,
      "countryCode": "MK",
      "stateCode": "MK-502",
      "latitude": 41.2975,
      "longitude": 21.03694
    },
    {
      "id": 787816,
      "name": "Mrenoga",
      "nativeName": "Mrenoga",
      "code": "MK-502-787816",
      "countryId": 718075,
      "countryCode": "MK",
      "stateCode": "MK-502",
      "latitude": 41.25592,
      "longitude": 21.10798
    },
    {
      "id": 787576,
      "name": "Novo Selo",
      "nativeName": "Novo Selo",
      "code": "MK-502-787576",
      "countryId": 718075,
      "countryCode": "MK",
      "stateCode": "MK-502",
      "latitude": 41.30474,
      "longitude": 21.19072
    },
    {
      "id": 787537,
      "name": "Obednik",
      "nativeName": "Obednik",
      "code": "MK-502-787537",
      "countryId": 718075,
      "countryCode": "MK",
      "stateCode": "MK-502",
      "latitude": 41.16006,
      "longitude": 21.16031
    },
    {
      "id": 786753,
      "name": "Pribilci",
      "nativeName": "Pribilci",
      "code": "MK-502-786753",
      "countryId": 718075,
      "countryCode": "MK",
      "stateCode": "MK-502",
      "latitude": 41.27123,
      "longitude": 21.20142
    },
    {
      "id": 786561,
      "name": "Radovo",
      "nativeName": "Radovo",
      "code": "MK-502-786561",
      "countryId": 718075,
      "countryCode": "MK",
      "stateCode": "MK-502",
      "latitude": 41.32219,
      "longitude": 21.17081
    },
    {
      "id": 786519,
      "name": "Rakitnica",
      "nativeName": "Rakitnica",
      "code": "MK-502-786519",
      "countryId": 718075,
      "countryCode": "MK",
      "stateCode": "MK-502",
      "latitude": 41.31606,
      "longitude": 21.18978
    },
    {
      "id": 786437,
      "name": "Rastojca",
      "nativeName": "Rastojca",
      "code": "MK-502-786437",
      "countryId": 718075,
      "countryCode": "MK",
      "stateCode": "MK-502",
      "latitude": 41.32861,
      "longitude": 21.19389
    },
    {
      "id": 785821,
      "name": "Sladuevo",
      "nativeName": "Sladuevo",
      "code": "MK-502-785821",
      "countryId": 718075,
      "countryCode": "MK",
      "stateCode": "MK-502",
      "latitude": 41.25583,
      "longitude": 21.20861
    },
    {
      "id": 785792,
      "name": "Slepče",
      "nativeName": "Slepče",
      "code": "MK-502-785792",
      "countryId": 718075,
      "countryCode": "MK",
      "stateCode": "MK-502",
      "latitude": 41.23333,
      "longitude": 21.175
    },
    {
      "id": 785765,
      "name": "Sloeštica",
      "nativeName": "Sloeštica",
      "code": "MK-502-785765",
      "countryId": 718075,
      "countryCode": "MK",
      "stateCode": "MK-502",
      "latitude": 41.26655,
      "longitude": 21.07812
    },
    {
      "id": 785747,
      "name": "Smilevo",
      "nativeName": "Smilevo",
      "code": "MK-502-785747",
      "countryId": 718075,
      "countryCode": "MK",
      "stateCode": "MK-502",
      "latitude": 41.15411,
      "longitude": 21.11054
    },
    {
      "id": 785669,
      "name": "Sopotnica",
      "nativeName": "Sopotnica",
      "code": "MK-502-785669",
      "countryId": 718075,
      "countryCode": "MK",
      "stateCode": "MK-502",
      "latitude": 41.29594,
      "longitude": 21.15357
    },
    {
      "id": 785381,
      "name": "Strugovo",
      "nativeName": "Strugovo",
      "code": "MK-502-785381",
      "countryId": 718075,
      "countryCode": "MK",
      "stateCode": "MK-502",
      "latitude": 41.19972,
      "longitude": 21.18139
    },
    {
      "id": 785219,
      "name": "Suvo Grlo",
      "nativeName": "Suvo Grlo",
      "code": "MK-502-785219",
      "countryId": 718075,
      "countryCode": "MK",
      "stateCode": "MK-502",
      "latitude": 41.30158,
      "longitude": 21.16589
    },
    {
      "id": 785223,
      "name": "Suvodol",
      "nativeName": "Suvodol",
      "code": "MK-502-785223",
      "countryId": 718075,
      "countryCode": "MK",
      "stateCode": "MK-502",
      "latitude": 41.2104,
      "longitude": 21.22247
    },
    {
      "id": 785212,
      "name": "Sveta",
      "nativeName": "Sveta",
      "code": "MK-502-785212",
      "countryId": 718075,
      "countryCode": "MK",
      "stateCode": "MK-502",
      "latitude": 41.26727,
      "longitude": 21.27236
    },
    {
      "id": 784746,
      "name": "Utovo",
      "nativeName": "Utovo",
      "code": "MK-502-784746",
      "countryId": 718075,
      "countryCode": "MK",
      "stateCode": "MK-502",
      "latitude": 41.1825,
      "longitude": 21.19389
    },
    {
      "id": 784717,
      "name": "Vardino",
      "nativeName": "Vardino",
      "code": "MK-502-784717",
      "countryId": 718075,
      "countryCode": "MK",
      "stateCode": "MK-502",
      "latitude": 41.23583,
      "longitude": 21.2425
    },
    {
      "id": 784502,
      "name": "Velmevci",
      "nativeName": "Velmevci",
      "code": "MK-502-784502",
      "countryId": 718075,
      "countryCode": "MK",
      "stateCode": "MK-502",
      "latitude": 41.34669,
      "longitude": 21.01001
    },
    {
      "id": 784411,
      "name": "Virovo",
      "nativeName": "Virovo",
      "code": "MK-502-784411",
      "countryId": 718075,
      "countryCode": "MK",
      "stateCode": "MK-502",
      "latitude": 41.23278,
      "longitude": 21.09
    },
    {
      "id": 784040,
      "name": "Zagoriče",
      "nativeName": "Zagoriče",
      "code": "MK-502-784040",
      "countryId": 718075,
      "countryCode": "MK",
      "stateCode": "MK-502",
      "latitude": 41.18806,
      "longitude": 21.19611
    },
    {
      "id": 783985,
      "name": "Zašle",
      "nativeName": "Zašle",
      "code": "MK-502-783985",
      "countryId": 718075,
      "countryCode": "MK",
      "stateCode": "MK-502",
      "latitude": 41.3728,
      "longitude": 21.14361
    },
    {
      "id": 783930,
      "name": "Železnec",
      "nativeName": "Železnec",
      "code": "MK-502-783930",
      "countryId": 718075,
      "countryCode": "MK",
      "stateCode": "MK-502",
      "latitude": 41.32417,
      "longitude": 21.06333
    },
    {
      "id": 783779,
      "name": "Žurče",
      "nativeName": "Žurče",
      "code": "MK-502-783779",
      "countryId": 718075,
      "countryCode": "MK",
      "stateCode": "MK-502",
      "latitude": 41.28296,
      "longitude": 21.23432
    },
    {
      "id": 783771,
      "name": "Žvan",
      "nativeName": "Žvan",
      "code": "MK-502-783771",
      "countryId": 718075,
      "countryCode": "MK",
      "stateCode": "MK-502",
      "latitude": 41.28997,
      "longitude": 21.1189
    }
  ]
}