{
  "stateId": 863486,
  "stateCode": "MK-501",
  "countryCode": "MK",
  "cities": [
    {
      "id": 792578,
      "name": "Bitola",
      "nativeName": "Bitola",
      "code": "MK-501-792578",
      "countryId": 718075,
      "countryCode": "MK",
      "stateCode": "MK-501",
      "latitude": 41.03143,
      "longitude": 21.33474
    },
    {
      "id": 792867,
      "name": "Barešani",
      "nativeName": "Barešani",
      "code": "MK-501-792867",
      "countryId": 718075,
      "countryCode": "MK",
      "stateCode": "MK-501",
      "latitude": 40.95264,
      "longitude": 21.35545
    },
    {
      "id": 792592,
      "name": "Bistrica",
      "nativeName": "Bistrica",
      "code": "MK-501-792592",
      "countryId": 718075,
      "countryCode": "MK",
      "stateCode": "MK-501",
      "latitude": 40.97892,
      "longitude": 21.3658
    },
    {
      "id": 792351,
      "name": "Bratin Dol",
      "nativeName": "Bratin Dol",
      "code": "MK-501-792351",
      "countryId": 718075,
      "countryCode": "MK",
      "stateCode": "MK-501",
      "latitude": 41.055,
      "longitude": 21.26139
    },
    {
      "id": 792235,
      "name": "Brusnik",
      "nativeName": "Brusnik",
      "code": "MK-501-792235",
      "countryId": 718075,
      "countryCode": "MK",
      "stateCode": "MK-501",
      "latitude": 41.02306,
      "longitude": 21.28528
    },
    {
      "id": 792135,
      "name": "Bukovo",
      "nativeName": "Bukovo",
      "code": "MK-501-792135",
      "countryId": 718075,
      "countryCode": "MK",
      "stateCode": "MK-501",
      "latitude": 40.99435,
      "longitude": 21.33228
    },
    {
      "id": 792055,
      "name": "Capari",
      "nativeName": "Capari",
      "code": "MK-501-792055",
      "countryId": 718075,
      "countryCode": "MK",
      "stateCode": "MK-501",
      "latitude": 41.05656,
      "longitude": 21.17884
    },
    {
      "id": 791769,
      "name": "Crnobuki",
      "nativeName": "Crnobuki",
      "code": "MK-501-791769",
      "countryId": 718075,
      "countryCode": "MK",
      "stateCode": "MK-501",
      "latitude": 41.12356,
      "longitude": 21.32229
    },
    {
      "id": 791756,
      "name": "Crnovec",
      "nativeName": "Crnovec",
      "code": "MK-501-791756",
      "countryId": 718075,
      "countryCode": "MK",
      "stateCode": "MK-501",
      "latitude": 41.15574,
      "longitude": 21.22399
    },
    {
      "id": 791492,
      "name": "Dihovo",
      "nativeName": "Dihovo",
      "code": "MK-501-791492",
      "countryId": 718075,
      "countryCode": "MK",
      "stateCode": "MK-501",
      "latitude": 41.03028,
      "longitude": 21.26389
    },
    {
      "id": 791385,
      "name": "Dolenci",
      "nativeName": "Dolenci",
      "code": "MK-501-791385",
      "countryId": 718075,
      "countryCode": "MK",
      "stateCode": "MK-501",
      "latitude": 41.08389,
      "longitude": 21.155
    },
    {
      "id": 791334,
      "name": "Dolno Orizari",
      "nativeName": "Dolno Orizari",
      "code": "MK-501-791334",
      "countryId": 718075,
      "countryCode": "MK",
      "stateCode": "MK-501",
      "latitude": 41.05028,
      "longitude": 21.37944
    },
    {
      "id": 791123,
      "name": "Dragarino",
      "nativeName": "Dragarino",
      "code": "MK-501-791123",
      "countryId": 718075,
      "countryCode": "MK",
      "stateCode": "MK-501",
      "latitude": 41.09786,
      "longitude": 21.30898
    },
    {
      "id": 791104,
      "name": "Dragoš",
      "nativeName": "Dragoš",
      "code": "MK-501-791104",
      "countryId": 718075,
      "countryCode": "MK",
      "stateCode": "MK-501",
      "latitude": 40.88191,
      "longitude": 21.35091
    },
    {
      "id": 791094,
      "name": "Dragožani",
      "nativeName": "Dragožani",
      "code": "MK-501-791094",
      "countryId": 718075,
      "countryCode": "MK",
      "stateCode": "MK-501",
      "latitude": 41.11083,
      "longitude": 21.29278
    },
    {
      "id": 791022,
      "name": "Drevenik",
      "nativeName": "Drevenik",
      "code": "MK-501-791022",
      "countryId": 718075,
      "countryCode": "MK",
      "stateCode": "MK-501",
      "latitude": 41.20001,
      "longitude": 21.29614
    },
    {
      "id": 790808,
      "name": "Gabalavci",
      "nativeName": "Gabalavci",
      "code": "MK-501-790808",
      "countryId": 718075,
      "countryCode": "MK",
      "stateCode": "MK-501",
      "latitude": 41.13394,
      "longitude": 21.24109
    },
    {
      "id": 790551,
      "name": "Gopeš",
      "nativeName": "Gopeš",
      "code": "MK-501-790551",
      "countryId": 718075,
      "countryCode": "MK",
      "stateCode": "MK-501",
      "latitude": 41.12,
      "longitude": 21.12194
    },
    {
      "id": 838664,
      "name": "Gorna Maala",
      "nativeName": "Gorna Maala",
      "code": "MK-501-838664",
      "countryId": 718075,
      "countryCode": "MK",
      "stateCode": "MK-501",
      "latitude": 41.09389,
      "longitude": 21.19056
    },
    {
      "id": 790214,
      "name": "Graešnica",
      "nativeName": "Graešnica",
      "code": "MK-501-790214",
      "countryId": 718075,
      "countryCode": "MK",
      "stateCode": "MK-501",
      "latitude": 40.90101,
      "longitude": 21.34398
    },
    {
      "id": 789601,
      "name": "Kanino",
      "nativeName": "Kanino",
      "code": "MK-501-789601",
      "countryId": 718075,
      "countryCode": "MK",
      "stateCode": "MK-501",
      "latitude": 40.94585,
      "longitude": 21.35488
    },
    {
      "id": 789574,
      "name": "Karamani",
      "nativeName": "Karamani",
      "code": "MK-501-789574",
      "countryId": 718075,
      "countryCode": "MK",
      "stateCode": "MK-501",
      "latitude": 41.06472,
      "longitude": 21.39389
    },
    {
      "id": 789534,
      "name": "Kažani",
      "nativeName": "Kažani",
      "code": "MK-501-789534",
      "countryId": 718075,
      "countryCode": "MK",
      "stateCode": "MK-501",
      "latitude": 41.06604,
      "longitude": 21.14706
    },
    {
      "id": 789513,
      "name": "Kišava",
      "nativeName": "Kišava",
      "code": "MK-501-789513",
      "countryId": 718075,
      "countryCode": "MK",
      "stateCode": "MK-501",
      "latitude": 40.88769,
      "longitude": 21.31251
    },
    {
      "id": 789088,
      "name": "Kravari",
      "nativeName": "Kravari",
      "code": "MK-501-789088",
      "countryId": 718075,
      "countryCode": "MK",
      "stateCode": "MK-501",
      "latitude": 40.99398,
      "longitude": 21.37839
    },
    {
      "id": 789066,
      "name": "Kremenica",
      "nativeName": "Kremenica",
      "code": "MK-501-789066",
      "countryId": 718075,
      "countryCode": "MK",
      "stateCode": "MK-501",
      "latitude": 40.92371,
      "longitude": 21.459
    },
    {
      "id": 789026,
      "name": "Krklino",
      "nativeName": "Krklino",
      "code": "MK-501-789026",
      "countryId": 718075,
      "countryCode": "MK",
      "stateCode": "MK-501",
      "latitude": 41.07357,
      "longitude": 21.32959
    },
    {
      "id": 789000,
      "name": "Krstoar",
      "nativeName": "Krstoar",
      "code": "MK-501-789000",
      "countryId": 718075,
      "countryCode": "MK",
      "stateCode": "MK-501",
      "latitude": 40.99209,
      "longitude": 21.34648
    },
    {
      "id": 788906,
      "name": "Kukurečani",
      "nativeName": "Kukurečani",
      "code": "MK-501-788906",
      "countryId": 718075,
      "countryCode": "MK",
      "stateCode": "MK-501",
      "latitude": 41.09562,
      "longitude": 21.32454
    },
    {
      "id": 788777,
      "name": "Lavci",
      "nativeName": "Lavci",
      "code": "MK-501-788777",
      "countryId": 718075,
      "countryCode": "MK",
      "stateCode": "MK-501",
      "latitude": 41.01472,
      "longitude": 21.3025
    },
    {
      "id": 788765,
      "name": "Lažec",
      "nativeName": "Lažec",
      "code": "MK-501-788765",
      "countryId": 718075,
      "countryCode": "MK",
      "stateCode": "MK-501",
      "latitude": 40.91165,
      "longitude": 21.37882
    },
    {
      "id": 788728,
      "name": "Lera",
      "nativeName": "Lera",
      "code": "MK-501-788728",
      "countryId": 718075,
      "countryCode": "MK",
      "stateCode": "MK-501",
      "latitude": 41.10243,
      "longitude": 21.17224
    },
    {
      "id": 788602,
      "name": "Lisolaj",
      "nativeName": "Lisolaj",
      "code": "MK-501-788602",
      "countryId": 718075,
      "countryCode": "MK",
      "stateCode": "MK-501",
      "latitude": 41.14832,
      "longitude": 21.30251
    },
    {
      "id": 788517,
      "name": "Logovardi",
      "nativeName": "Logovardi",
      "code": "MK-501-788517",
      "countryId": 718075,
      "countryCode": "MK",
      "stateCode": "MK-501",
      "latitude": 41.03096,
      "longitude": 21.40967
    },
    {
      "id": 788493,
      "name": "Lopatica",
      "nativeName": "Lopatica",
      "code": "MK-501-788493",
      "countryId": 718075,
      "countryCode": "MK",
      "stateCode": "MK-501",
      "latitude": 41.15973,
      "longitude": 21.25449
    },
    {
      "id": 788367,
      "name": "Magarevo",
      "nativeName": "Magarevo",
      "code": "MK-501-788367",
      "countryId": 718075,
      "countryCode": "MK",
      "stateCode": "MK-501",
      "latitude": 41.04215,
      "longitude": 21.23612
    },
    {
      "id": 788192,
      "name": "Malovište",
      "nativeName": "Malovište",
      "code": "MK-501-788192",
      "countryId": 718075,
      "countryCode": "MK",
      "stateCode": "MK-501",
      "latitude": 41.03395,
      "longitude": 21.13065
    },
    {
      "id": 788048,
      "name": "Medžitlija",
      "nativeName": "Medžitlija",
      "code": "MK-501-788048",
      "countryId": 718075,
      "countryCode": "MK",
      "stateCode": "MK-501",
      "latitude": 40.92789,
      "longitude": 21.4289
    },
    {
      "id": 788011,
      "name": "Metimir",
      "nativeName": "Metimir",
      "code": "MK-501-788011",
      "countryId": 718075,
      "countryCode": "MK",
      "stateCode": "MK-501",
      "latitude": 41.13824,
      "longitude": 21.1453
    },
    {
      "id": 787641,
      "name": "Nižepole",
      "nativeName": "Nižepole",
      "code": "MK-501-787641",
      "countryId": 718075,
      "countryCode": "MK",
      "stateCode": "MK-501",
      "latitude": 41.01057,
      "longitude": 21.24548
    },
    {
      "id": 787540,
      "name": "Novo Zmirnevo",
      "nativeName": "Novo Zmirnevo",
      "code": "MK-501-787540",
      "countryId": 718075,
      "countryCode": "MK",
      "stateCode": "MK-501",
      "latitude": 41.12072,
      "longitude": 21.31414
    },
    {
      "id": 787528,
      "name": "Oblakovo",
      "nativeName": "Oblakovo",
      "code": "MK-501-787528",
      "countryId": 718075,
      "countryCode": "MK",
      "stateCode": "MK-501",
      "latitude": 41.12434,
      "longitude": 21.22093
    },
    {
      "id": 787474,
      "name": "Oleveni",
      "nativeName": "Oleveni",
      "code": "MK-501-787474",
      "countryId": 718075,
      "countryCode": "MK",
      "stateCode": "MK-501",
      "latitude": 40.9614,
      "longitude": 21.35893
    },
    {
      "id": 787458,
      "name": "Optičari",
      "nativeName": "Optičari",
      "code": "MK-501-787458",
      "countryId": 718075,
      "countryCode": "MK",
      "stateCode": "MK-501",
      "latitude": 40.99057,
      "longitude": 21.42153
    },
    {
      "id": 787433,
      "name": "Orehovo",
      "nativeName": "Orehovo",
      "code": "MK-501-787433",
      "countryId": 718075,
      "countryCode": "MK",
      "stateCode": "MK-501",
      "latitude": 40.98357,
      "longitude": 21.31187
    },
    {
      "id": 787333,
      "name": "Ostrec",
      "nativeName": "Ostrec",
      "code": "MK-501-787333",
      "countryId": 718075,
      "countryCode": "MK",
      "stateCode": "MK-501",
      "latitude": 40.92985,
      "longitude": 21.30064
    },
    {
      "id": 786943,
      "name": "Poeševo",
      "nativeName": "Poeševo",
      "code": "MK-501-786943",
      "countryId": 718075,
      "countryCode": "MK",
      "stateCode": "MK-501",
      "latitude": 41.01611,
      "longitude": 21.39167
    },
    {
      "id": 786854,
      "name": "Porodin",
      "nativeName": "Porodin",
      "code": "MK-501-786854",
      "countryId": 718075,
      "countryCode": "MK",
      "stateCode": "MK-501",
      "latitude": 40.93645,
      "longitude": 21.37137
    },
    {
      "id": 786491,
      "name": "Ramna",
      "nativeName": "Ramna",
      "code": "MK-501-786491",
      "countryId": 718075,
      "countryCode": "MK",
      "stateCode": "MK-501",
      "latitude": 41.09,
      "longitude": 21.18583
    },
    {
      "id": 786443,
      "name": "Raštani",
      "nativeName": "Raštani",
      "code": "MK-501-786443",
      "countryId": 718075,
      "countryCode": "MK",
      "stateCode": "MK-501",
      "latitude": 41.05286,
      "longitude": 21.32503
    },
    {
      "id": 786237,
      "name": "Rotino",
      "nativeName": "Rotino",
      "code": "MK-501-786237",
      "countryId": 718075,
      "countryCode": "MK",
      "stateCode": "MK-501",
      "latitude": 41.05748,
      "longitude": 21.21049
    },
    {
      "id": 786016,
      "name": "Sekirani",
      "nativeName": "Sekirani",
      "code": "MK-501-786016",
      "countryId": 718075,
      "countryCode": "MK",
      "stateCode": "MK-501",
      "latitude": 41.12333,
      "longitude": 21.26483
    },
    {
      "id": 785621,
      "name": "Sredno Egri",
      "nativeName": "Sredno Egri",
      "code": "MK-501-785621",
      "countryId": 718075,
      "countryCode": "MK",
      "stateCode": "MK-501",
      "latitude": 40.95842,
      "longitude": 21.46147
    },
    {
      "id": 785605,
      "name": "Srpci",
      "nativeName": "Srpci",
      "code": "MK-501-785605",
      "countryId": 718075,
      "countryCode": "MK",
      "stateCode": "MK-501",
      "latitude": 41.08611,
      "longitude": 21.21139
    },
    {
      "id": 785506,
      "name": "Staro Zmirnevo",
      "nativeName": "Staro Zmirnevo",
      "code": "MK-501-785506",
      "countryId": 718075,
      "countryCode": "MK",
      "stateCode": "MK-501",
      "latitude": 41.09617,
      "longitude": 21.29335
    },
    {
      "id": 785421,
      "name": "Streževo",
      "nativeName": "Streževo",
      "code": "MK-501-785421",
      "countryId": 718075,
      "countryCode": "MK",
      "stateCode": "MK-501",
      "latitude": 41.13694,
      "longitude": 21.18778
    },
    {
      "id": 784931,
      "name": "Trn",
      "nativeName": "Trn",
      "code": "MK-501-784931",
      "countryId": 718075,
      "countryCode": "MK",
      "stateCode": "MK-501",
      "latitude": 41.07306,
      "longitude": 21.41222
    },
    {
      "id": 784902,
      "name": "Trnovo",
      "nativeName": "Trnovo",
      "code": "MK-501-784902",
      "countryId": 718075,
      "countryCode": "MK",
      "stateCode": "MK-501",
      "latitude": 41.04398,
      "longitude": 21.24828
    },
    {
      "id": 863583,
      "name": "Turska Malaa",
      "nativeName": "Turska Malaa",
      "code": "MK-501-863583",
      "countryId": 718075,
      "countryCode": "MK",
      "stateCode": "MK-501",
      "latitude": 41.09917,
      "longitude": 21.17083
    },
    {
      "id": 784500,
      "name": "Velušina",
      "nativeName": "Velušina",
      "code": "MK-501-784500",
      "countryId": 718075,
      "countryCode": "MK",
      "stateCode": "MK-501",
      "latitude": 40.92904,
      "longitude": 21.35142
    },
    {
      "id": 838680,
      "name": "Zulica",
      "nativeName": "Zulica",
      "code": "MK-501-838680",
      "countryId": 718075,
      "countryCode": "MK",
      "stateCode": "MK-501",
      "latitude": 41.14216,
      "longitude": 21.26036
    },
    {
      "id": 10670763,
      "name": "Žabeni",
      "nativeName": "Žabeni",
      "code": "MK-501-10670763",
      "countryId": 718075,
      "countryCode": "MK",
      "stateCode": "MK-501",
      "latitude": 40.95578,
      "longitude": 21.39155
    },
    {
      "id": 791616,
      "name": "Ǵavato",
      "nativeName": "Ǵavato",
      "code": "MK-501-791616",
      "countryId": 718075,
      "countryCode": "MK",
      "stateCode": "MK-501",
      "latitude": 41.08224,
      "longitude": 21.13654
    }
  ]
}