{
  "stateId": 863919,
  "stateCode": "MK-605",
  "countryCode": "MK",
  "cities": [
    {
      "id": 783926,
      "name": "Zelino",
      "nativeName": "Zelino",
      "code": "MK-605-783926",
      "countryId": 718075,
      "countryCode": "MK",
      "stateCode": "MK-605",
      "latitude": 41.98028,
      "longitude": 21.06417
    },
    {
      "id": 791961,
      "name": "Cerovo",
      "nativeName": "Cerovo",
      "code": "MK-605-791961",
      "countryId": 718075,
      "countryCode": "MK",
      "stateCode": "MK-605",
      "latitude": 41.99228,
      "longitude": 21.13636
    },
    {
      "id": 796096,
      "name": "Dobarce",
      "nativeName": "Dobarce",
      "code": "MK-605-796096",
      "countryId": 718075,
      "countryCode": "MK",
      "stateCode": "MK-605",
      "latitude": 41.9553,
      "longitude": 21.08875
    },
    {
      "id": 791366,
      "name": "Dolna Lešnica",
      "nativeName": "Dolna Lešnica",
      "code": "MK-605-791366",
      "countryId": 718075,
      "countryCode": "MK",
      "stateCode": "MK-605",
      "latitude": 41.95667,
      "longitude": 21.06028
    },
    {
      "id": 796097,
      "name": "Gorna Lešnica",
      "nativeName": "Gorna Lešnica",
      "code": "MK-605-796097",
      "countryId": 718075,
      "countryCode": "MK",
      "stateCode": "MK-605",
      "latitude": 41.9284,
      "longitude": 21.06236
    },
    {
      "id": 790118,
      "name": "Grupčin",
      "nativeName": "Grupčin",
      "code": "MK-605-790118",
      "countryId": 718075,
      "countryCode": "MK",
      "stateCode": "MK-605",
      "latitude": 41.96749,
      "longitude": 21.13053
    },
    {
      "id": 863670,
      "name": "Jablanica",
      "nativeName": "Jablanica",
      "code": "MK-605-863670",
      "countryId": 718075,
      "countryCode": "MK",
      "stateCode": "MK-605",
      "latitude": 41.9272,
      "longitude": 21.14461
    },
    {
      "id": 789311,
      "name": "Kopačin Dol",
      "nativeName": "Kopačin Dol",
      "code": "MK-605-789311",
      "countryId": 718075,
      "countryCode": "MK",
      "stateCode": "MK-605",
      "latitude": 41.959,
      "longitude": 21.13867
    },
    {
      "id": 788790,
      "name": "Larce",
      "nativeName": "Larce",
      "code": "MK-605-788790",
      "countryId": 718075,
      "countryCode": "MK",
      "stateCode": "MK-605",
      "latitude": 41.93319,
      "longitude": 21.12628
    },
    {
      "id": 796098,
      "name": "Lukovica",
      "nativeName": "Lukovica",
      "code": "MK-605-796098",
      "countryId": 718075,
      "countryCode": "MK",
      "stateCode": "MK-605",
      "latitude": 41.89005,
      "longitude": 21.1547
    },
    {
      "id": 788023,
      "name": "Merovo",
      "nativeName": "Merovo",
      "code": "MK-605-788023",
      "countryId": 718075,
      "countryCode": "MK",
      "stateCode": "MK-605",
      "latitude": 41.93753,
      "longitude": 21.17459
    },
    {
      "id": 787563,
      "name": "Novo Selo",
      "nativeName": "Novo Selo",
      "code": "MK-605-787563",
      "countryId": 718075,
      "countryCode": "MK",
      "stateCode": "MK-605",
      "latitude": 41.96389,
      "longitude": 21.15889
    },
    {
      "id": 787282,
      "name": "Ozormište",
      "nativeName": "Ozormište",
      "code": "MK-605-787282",
      "countryId": 718075,
      "countryCode": "MK",
      "stateCode": "MK-605",
      "latitude": 42.01458,
      "longitude": 21.06974
    },
    {
      "id": 833617,
      "name": "Palatica",
      "nativeName": "Palatica",
      "code": "MK-605-833617",
      "countryId": 718075,
      "countryCode": "MK",
      "stateCode": "MK-605",
      "latitude": 42.0043,
      "longitude": 21.05656
    },
    {
      "id": 786263,
      "name": "Rogle",
      "nativeName": "Rogle",
      "code": "MK-605-786263",
      "countryId": 718075,
      "countryCode": "MK",
      "stateCode": "MK-605",
      "latitude": 41.96778,
      "longitude": 21.16528
    },
    {
      "id": 786026,
      "name": "Sedlarevo",
      "nativeName": "Sedlarevo",
      "code": "MK-605-786026",
      "countryId": 718075,
      "countryCode": "MK",
      "stateCode": "MK-605",
      "latitude": 41.88306,
      "longitude": 21.1275
    },
    {
      "id": 796095,
      "name": "Strimnica",
      "nativeName": "Strimnica",
      "code": "MK-605-796095",
      "countryId": 718075,
      "countryCode": "MK",
      "stateCode": "MK-605",
      "latitude": 41.96719,
      "longitude": 21.03598
    },
    {
      "id": 784967,
      "name": "Treboš",
      "nativeName": "Treboš",
      "code": "MK-605-784967",
      "countryId": 718075,
      "countryCode": "MK",
      "stateCode": "MK-605",
      "latitude": 42.01335,
      "longitude": 21.03175
    },
    {
      "id": 791929,
      "name": "Čiflik",
      "nativeName": "Čiflik",
      "code": "MK-605-791929",
      "countryId": 718075,
      "countryCode": "MK",
      "stateCode": "MK-605",
      "latitude": 41.95139,
      "longitude": 21.12056
    }
  ]
}