{
  "stateId": 863873,
  "stateCode": "MK-703",
  "countryCode": "MK",
  "cities": [
    {
      "id": 788886,
      "name": "Kumanovo",
      "nativeName": "Kumanovo",
      "code": "MK-703-788886",
      "countryId": 718075,
      "countryCode": "MK",
      "stateCode": "MK-703",
      "latitude": 42.13222,
      "longitude": 21.71444
    },
    {
      "id": 793162,
      "name": "Agino Selo",
      "nativeName": "Agino Selo",
      "code": "MK-703-793162",
      "countryId": 718075,
      "countryCode": "MK",
      "stateCode": "MK-703",
      "latitude": 42.04798,
      "longitude": 21.68093
    },
    {
      "id": 10306483,
      "name": "Amalinci",
      "nativeName": "Amalinci",
      "code": "MK-703-10306483",
      "countryId": 718075,
      "countryCode": "MK",
      "stateCode": "MK-703",
      "latitude": 42.19894,
      "longitude": 21.75421
    },
    {
      "id": 792619,
      "name": "Biljanovce",
      "nativeName": "Biljanovce",
      "code": "MK-703-792619",
      "countryId": 718075,
      "countryCode": "MK",
      "stateCode": "MK-703",
      "latitude": 42.10274,
      "longitude": 21.7326
    },
    {
      "id": 10306334,
      "name": "Buzina Mahala",
      "nativeName": "Buzina Mahala",
      "code": "MK-703-10306334",
      "countryId": 718075,
      "countryCode": "MK",
      "stateCode": "MK-703",
      "latitude": 42.20476,
      "longitude": 21.71956
    },
    {
      "id": 791473,
      "name": "D'lga",
      "nativeName": "D'lga",
      "code": "MK-703-791473",
      "countryId": 718075,
      "countryCode": "MK",
      "stateCode": "MK-703",
      "latitude": 42.00617,
      "longitude": 21.78332
    },
    {
      "id": 10356868,
      "name": "Džankova Maala",
      "nativeName": "Džankova Maala",
      "code": "MK-703-10356868",
      "countryId": 718075,
      "countryCode": "MK",
      "stateCode": "MK-703",
      "latitude": 42.09568,
      "longitude": 21.90337
    },
    {
      "id": 790806,
      "name": "Gabreš",
      "nativeName": "Gabreš",
      "code": "MK-703-790806",
      "countryId": 718075,
      "countryCode": "MK",
      "stateCode": "MK-703",
      "latitude": 42.00836,
      "longitude": 21.85579
    },
    {
      "id": 790329,
      "name": "Gorno Konjare",
      "nativeName": "Gorno Konjare",
      "code": "MK-703-790329",
      "countryId": 718075,
      "countryCode": "MK",
      "stateCode": "MK-703",
      "latitude": 42.18167,
      "longitude": 21.7275
    },
    {
      "id": 790232,
      "name": "Gradište",
      "nativeName": "Gradište",
      "code": "MK-703-790232",
      "countryId": 718075,
      "countryCode": "MK",
      "stateCode": "MK-703",
      "latitude": 42.02306,
      "longitude": 21.88778
    },
    {
      "id": 10356953,
      "name": "Ipčovci",
      "nativeName": "Ipčovci",
      "code": "MK-703-10356953",
      "countryId": 718075,
      "countryCode": "MK",
      "stateCode": "MK-703",
      "latitude": 42.05541,
      "longitude": 21.93802
    },
    {
      "id": 10356831,
      "name": "Jačinska Maala",
      "nativeName": "Jačinska Maala",
      "code": "MK-703-10356831",
      "countryId": 718075,
      "countryCode": "MK",
      "stateCode": "MK-703",
      "latitude": 42.12402,
      "longitude": 21.87164
    },
    {
      "id": 10356878,
      "name": "Kajsevska Maala",
      "nativeName": "Kajsevska Maala",
      "code": "MK-703-10356878",
      "countryId": 718075,
      "countryCode": "MK",
      "stateCode": "MK-703",
      "latitude": 42.1001,
      "longitude": 21.94301
    },
    {
      "id": 789585,
      "name": "Karabičane",
      "nativeName": "Karabičane",
      "code": "MK-703-789585",
      "countryId": 718075,
      "countryCode": "MK",
      "stateCode": "MK-703",
      "latitude": 42.22889,
      "longitude": 21.74139
    },
    {
      "id": 10356871,
      "name": "Kačarovci",
      "nativeName": "Kačarovci",
      "code": "MK-703-10356871",
      "countryId": 718075,
      "countryCode": "MK",
      "stateCode": "MK-703",
      "latitude": 42.11971,
      "longitude": 21.93595
    },
    {
      "id": 789473,
      "name": "Klečevce",
      "nativeName": "Klečevce",
      "code": "MK-703-789473",
      "countryId": 718075,
      "countryCode": "MK",
      "stateCode": "MK-703",
      "latitude": 42.11636,
      "longitude": 21.85436
    },
    {
      "id": 789374,
      "name": "Kokošinje",
      "nativeName": "Kokošinje",
      "code": "MK-703-789374",
      "countryId": 718075,
      "countryCode": "MK",
      "stateCode": "MK-703",
      "latitude": 42.01306,
      "longitude": 21.96639
    },
    {
      "id": 789362,
      "name": "Kolicko",
      "nativeName": "Kolicko",
      "code": "MK-703-789362",
      "countryId": 718075,
      "countryCode": "MK",
      "stateCode": "MK-703",
      "latitude": 42.01666,
      "longitude": 21.81575
    },
    {
      "id": 789236,
      "name": "Kosmatac",
      "nativeName": "Kosmatac",
      "code": "MK-703-789236",
      "countryId": 718075,
      "countryCode": "MK",
      "stateCode": "MK-703",
      "latitude": 42.07139,
      "longitude": 21.87694
    },
    {
      "id": 10306355,
      "name": "Kosturnik",
      "nativeName": "Kosturnik",
      "code": "MK-703-10306355",
      "countryId": 718075,
      "countryCode": "MK",
      "stateCode": "MK-703",
      "latitude": 42.19145,
      "longitude": 21.70911
    },
    {
      "id": 10306650,
      "name": "Krstovska Maala",
      "nativeName": "Krstovska Maala",
      "code": "MK-703-10306650",
      "countryId": 718075,
      "countryCode": "MK",
      "stateCode": "MK-703",
      "latitude": 42.13117,
      "longitude": 21.93648
    },
    {
      "id": 788834,
      "name": "Kutlibeg",
      "nativeName": "Kutlibeg",
      "code": "MK-703-788834",
      "countryId": 718075,
      "countryCode": "MK",
      "stateCode": "MK-703",
      "latitude": 42.05444,
      "longitude": 21.90611
    },
    {
      "id": 788930,
      "name": "Kučkarevo",
      "nativeName": "Kučkarevo",
      "code": "MK-703-788930",
      "countryId": 718075,
      "countryCode": "MK",
      "stateCode": "MK-703",
      "latitude": 42.03394,
      "longitude": 21.8609
    },
    {
      "id": 788943,
      "name": "K’šanje",
      "nativeName": "K’šanje",
      "code": "MK-703-788943",
      "countryId": 718075,
      "countryCode": "MK",
      "stateCode": "MK-703",
      "latitude": 42.02829,
      "longitude": 21.94601
    },
    {
      "id": 10306479,
      "name": "Ljubanovci",
      "nativeName": "Ljubanovci",
      "code": "MK-703-10306479",
      "countryId": 718075,
      "countryCode": "MK",
      "stateCode": "MK-703",
      "latitude": 42.20995,
      "longitude": 21.75854
    },
    {
      "id": 788556,
      "name": "Ljubodrag",
      "nativeName": "Ljubodrag",
      "code": "MK-703-788556",
      "countryId": 718075,
      "countryCode": "MK",
      "stateCode": "MK-703",
      "latitude": 42.11797,
      "longitude": 21.66158
    },
    {
      "id": 10356961,
      "name": "Markovci",
      "nativeName": "Markovci",
      "code": "MK-703-10356961",
      "countryId": 718075,
      "countryCode": "MK",
      "stateCode": "MK-703",
      "latitude": 42.05761,
      "longitude": 21.95627
    },
    {
      "id": 10356883,
      "name": "Marčevci",
      "nativeName": "Marčevci",
      "code": "MK-703-10356883",
      "countryId": 718075,
      "countryCode": "MK",
      "stateCode": "MK-703",
      "latitude": 42.0813,
      "longitude": 21.89743
    },
    {
      "id": 10306484,
      "name": "Matičanci",
      "nativeName": "Matičanci",
      "code": "MK-703-10306484",
      "countryId": 718075,
      "countryCode": "MK",
      "stateCode": "MK-703",
      "latitude": 42.20661,
      "longitude": 21.74695
    },
    {
      "id": 10356865,
      "name": "Mutavdžii",
      "nativeName": "Mutavdžii",
      "code": "MK-703-10356865",
      "countryId": 718075,
      "countryCode": "MK",
      "stateCode": "MK-703",
      "latitude": 42.10057,
      "longitude": 21.92092
    },
    {
      "id": 859561,
      "name": "Petrovci",
      "nativeName": "Petrovci",
      "code": "MK-703-859561",
      "countryId": 718075,
      "countryCode": "MK",
      "stateCode": "MK-703",
      "latitude": 42.25507,
      "longitude": 21.78392
    },
    {
      "id": 787062,
      "name": "Pezovo",
      "nativeName": "Pezovo",
      "code": "MK-703-787062",
      "countryId": 718075,
      "countryCode": "MK",
      "stateCode": "MK-703",
      "latitude": 42.04278,
      "longitude": 21.92917
    },
    {
      "id": 787159,
      "name": "Pčinja",
      "nativeName": "Pčinja",
      "code": "MK-703-787159",
      "countryId": 718075,
      "countryCode": "MK",
      "stateCode": "MK-703",
      "latitude": 42.04011,
      "longitude": 21.75541
    },
    {
      "id": 786373,
      "name": "Rečica",
      "nativeName": "Rečica",
      "code": "MK-703-786373",
      "countryId": 718075,
      "countryCode": "MK",
      "stateCode": "MK-703",
      "latitude": 42.17444,
      "longitude": 21.69472
    },
    {
      "id": 786251,
      "name": "Romanovci",
      "nativeName": "Romanovci",
      "code": "MK-703-786251",
      "countryId": 718075,
      "countryCode": "MK",
      "stateCode": "MK-703",
      "latitude": 42.09472,
      "longitude": 21.69306
    },
    {
      "id": 10306480,
      "name": "Skačkolinci",
      "nativeName": "Skačkolinci",
      "code": "MK-703-10306480",
      "countryId": 718075,
      "countryCode": "MK",
      "stateCode": "MK-703",
      "latitude": 42.20896,
      "longitude": 21.77002
    },
    {
      "id": 785851,
      "name": "Skačkovce",
      "nativeName": "Skačkovce",
      "code": "MK-703-785851",
      "countryId": 718075,
      "countryCode": "MK",
      "stateCode": "MK-703",
      "latitude": 42.04806,
      "longitude": 21.82528
    },
    {
      "id": 10356960,
      "name": "Smokarci",
      "nativeName": "Smokarci",
      "code": "MK-703-10356960",
      "countryId": 718075,
      "countryCode": "MK",
      "stateCode": "MK-703",
      "latitude": 42.0455,
      "longitude": 21.94745
    },
    {
      "id": 785673,
      "name": "Sopot",
      "nativeName": "Sopot",
      "code": "MK-703-785673",
      "countryId": 718075,
      "countryCode": "MK",
      "stateCode": "MK-703",
      "latitude": 42.24339,
      "longitude": 21.72909
    },
    {
      "id": 10306335,
      "name": "Starčani",
      "nativeName": "Starčani",
      "code": "MK-703-10306335",
      "countryId": 718075,
      "countryCode": "MK",
      "stateCode": "MK-703",
      "latitude": 42.20574,
      "longitude": 21.72755
    },
    {
      "id": 10306482,
      "name": "Stojčinci",
      "nativeName": "Stojčinci",
      "code": "MK-703-10306482",
      "countryId": 718075,
      "countryCode": "MK",
      "stateCode": "MK-703",
      "latitude": 42.20233,
      "longitude": 21.76136
    },
    {
      "id": 785354,
      "name": "Studena Bara",
      "nativeName": "Studena Bara",
      "code": "MK-703-785354",
      "countryId": 718075,
      "countryCode": "MK",
      "stateCode": "MK-703",
      "latitude": 42.02139,
      "longitude": 21.72583
    },
    {
      "id": 785271,
      "name": "Suševo",
      "nativeName": "Suševo",
      "code": "MK-703-785271",
      "countryId": 718075,
      "countryCode": "MK",
      "stateCode": "MK-703",
      "latitude": 42.24624,
      "longitude": 21.76499
    },
    {
      "id": 10306481,
      "name": "Tasinci",
      "nativeName": "Tasinci",
      "code": "MK-703-10306481",
      "countryId": 718075,
      "countryCode": "MK",
      "stateCode": "MK-703",
      "latitude": 42.20333,
      "longitude": 21.77101
    },
    {
      "id": 10306356,
      "name": "Tovilište",
      "nativeName": "Tovilište",
      "code": "MK-703-10306356",
      "countryId": 718075,
      "countryCode": "MK",
      "stateCode": "MK-703",
      "latitude": 42.18545,
      "longitude": 21.71517
    },
    {
      "id": 784739,
      "name": "Vak’v",
      "nativeName": "Vak’v",
      "code": "MK-703-784739",
      "countryId": 718075,
      "countryCode": "MK",
      "stateCode": "MK-703",
      "latitude": 42.02278,
      "longitude": 21.74694
    },
    {
      "id": 10356873,
      "name": "Vardarci",
      "nativeName": "Vardarci",
      "code": "MK-703-10356873",
      "countryId": 718075,
      "countryCode": "MK",
      "stateCode": "MK-703",
      "latitude": 42.11716,
      "longitude": 21.95054
    },
    {
      "id": 10356988,
      "name": "Vilipovci",
      "nativeName": "Vilipovci",
      "code": "MK-703-10356988",
      "countryId": 718075,
      "countryCode": "MK",
      "stateCode": "MK-703",
      "latitude": 42.03447,
      "longitude": 21.9351
    },
    {
      "id": 784426,
      "name": "Vince",
      "nativeName": "Vince",
      "code": "MK-703-784426",
      "countryId": 718075,
      "countryCode": "MK",
      "stateCode": "MK-703",
      "latitude": 41.99444,
      "longitude": 21.75917
    },
    {
      "id": 10356869,
      "name": "Vukanovci",
      "nativeName": "Vukanovci",
      "code": "MK-703-10356869",
      "countryId": 718075,
      "countryCode": "MK",
      "stateCode": "MK-703",
      "latitude": 42.09733,
      "longitude": 21.91516
    },
    {
      "id": 10356990,
      "name": "Vučkovci",
      "nativeName": "Vučkovci",
      "code": "MK-703-10356990",
      "countryId": 718075,
      "countryCode": "MK",
      "stateCode": "MK-703",
      "latitude": 42.03267,
      "longitude": 21.95195
    },
    {
      "id": 10356978,
      "name": "Zdravkovci",
      "nativeName": "Zdravkovci",
      "code": "MK-703-10356978",
      "countryId": 718075,
      "countryCode": "MK",
      "stateCode": "MK-703",
      "latitude": 42.05388,
      "longitude": 21.94711
    },
    {
      "id": 783799,
      "name": "Zubovce",
      "nativeName": "Zubovce",
      "code": "MK-703-783799",
      "countryId": 718075,
      "countryCode": "MK",
      "stateCode": "MK-703",
      "latitude": 42.09611,
      "longitude": 21.83583
    },
    {
      "id": 791942,
      "name": "Četirce",
      "nativeName": "Četirce",
      "code": "MK-703-791942",
      "countryId": 718075,
      "countryCode": "MK",
      "stateCode": "MK-703",
      "latitude": 42.21556,
      "longitude": 21.76278
    },
    {
      "id": 10306651,
      "name": "Šantirovci",
      "nativeName": "Šantirovci",
      "code": "MK-703-10306651",
      "countryId": 718075,
      "countryCode": "MK",
      "stateCode": "MK-703",
      "latitude": 42.13081,
      "longitude": 21.94829
    },
    {
      "id": 785294,
      "name": "Šupli Kamen",
      "nativeName": "Šupli Kamen",
      "code": "MK-703-785294",
      "countryId": 718075,
      "countryCode": "MK",
      "stateCode": "MK-703",
      "latitude": 42.10529,
      "longitude": 21.80587
    },
    {
      "id": 10356922,
      "name": "Žabarska Maala",
      "nativeName": "Žabarska Maala",
      "code": "MK-703-10356922",
      "countryId": 718075,
      "countryCode": "MK",
      "stateCode": "MK-703",
      "latitude": 42.0303,
      "longitude": 21.90144
    },
    {
      "id": 783872,
      "name": "Živinje",
      "nativeName": "Živinje",
      "code": "MK-703-783872",
      "countryId": 718075,
      "countryCode": "MK",
      "stateCode": "MK-703",
      "latitude": 41.97917,
      "longitude": 21.80889
    },
    {
      "id": 792726,
      "name": "Beljakovce",
      "nativeName": "Beljakovce",
      "code": "MK-703-792726",
      "countryId": 718075,
      "countryCode": "MK",
      "stateCode": "MK-703",
      "latitude": 42.11425,
      "longitude": 21.94026
    },
    {
      "id": 791137,
      "name": "Dovezance",
      "nativeName": "Dovezence",
      "code": "MK-703-791137",
      "countryId": 718075,
      "countryCode": "MK",
      "stateCode": "MK-703",
      "latitude": 42.10194,
      "longitude": 21.9075
    },
    {
      "id": 789931,
      "name": "Jačince",
      "nativeName": "Jačince",
      "code": "MK-703-789931",
      "countryId": 718075,
      "countryCode": "MK",
      "stateCode": "MK-703",
      "latitude": 42.1049,
      "longitude": 21.88014
    },
    {
      "id": 787780,
      "name": "Murgaš",
      "nativeName": "Murgaš",
      "code": "MK-703-787780",
      "countryId": 718075,
      "countryCode": "MK",
      "stateCode": "MK-703",
      "latitude": 42.07222,
      "longitude": 21.89917
    },
    {
      "id": 787578,
      "name": "Novoseljane",
      "nativeName": "Novoseljane",
      "code": "MK-703-787578",
      "countryId": 718075,
      "countryCode": "MK",
      "stateCode": "MK-703",
      "latitude": 42.07299,
      "longitude": 21.84831
    }
  ]
}