{
  "stateId": 789090,
  "stateCode": "MK-701",
  "countryCode": "MK",
  "cities": [
    {
      "id": 789091,
      "name": "Kratovo",
      "nativeName": "Kratovo",
      "code": "MK-701-789091",
      "countryId": 718075,
      "countryCode": "MK",
      "stateCode": "MK-701",
      "latitude": 42.07838,
      "longitude": 22.1807
    },
    {
      "id": 9112496,
      "name": "Ambar Maala",
      "nativeName": "Ambar Maala",
      "code": "MK-701-9112496",
      "countryId": 718075,
      "countryCode": "MK",
      "stateCode": "MK-701",
      "latitude": 42.04817,
      "longitude": 22.06429
    },
    {
      "id": 9112573,
      "name": "Arnautovci",
      "nativeName": "Arnautovci",
      "code": "MK-701-9112573",
      "countryId": 718075,
      "countryCode": "MK",
      "stateCode": "MK-701",
      "latitude": 42.11948,
      "longitude": 22.08169
    },
    {
      "id": 10356804,
      "name": "Bantevci",
      "nativeName": "Bantevci",
      "code": "MK-701-10356804",
      "countryId": 718075,
      "countryCode": "MK",
      "stateCode": "MK-701",
      "latitude": 42.1134,
      "longitude": 21.96391
    },
    {
      "id": 10409235,
      "name": "Baraktarci",
      "nativeName": "Baraktarci",
      "code": "MK-701-10409235",
      "countryId": 718075,
      "countryCode": "MK",
      "stateCode": "MK-701",
      "latitude": 42.13742,
      "longitude": 22.03677
    },
    {
      "id": 10356790,
      "name": "Baštevci",
      "nativeName": "Baštevci",
      "code": "MK-701-10356790",
      "countryId": 718075,
      "countryCode": "MK",
      "stateCode": "MK-701",
      "latitude": 42.1133,
      "longitude": 21.98048
    },
    {
      "id": 792543,
      "name": "Blizanci",
      "nativeName": "Blizanci",
      "code": "MK-701-792543",
      "countryId": 718075,
      "countryCode": "MK",
      "stateCode": "MK-701",
      "latitude": 42.0525,
      "longitude": 22.21694
    },
    {
      "id": 10409243,
      "name": "Bogojska Maala",
      "nativeName": "Bogojska Maala",
      "code": "MK-701-10409243",
      "countryId": 718075,
      "countryCode": "MK",
      "stateCode": "MK-701",
      "latitude": 42.15646,
      "longitude": 22.06442
    },
    {
      "id": 10409229,
      "name": "Bončevci",
      "nativeName": "Bončevci",
      "code": "MK-701-10409229",
      "countryId": 718075,
      "countryCode": "MK",
      "stateCode": "MK-701",
      "latitude": 42.1663,
      "longitude": 22.03009
    },
    {
      "id": 10409244,
      "name": "Bončevo",
      "nativeName": "Bončevo",
      "code": "MK-701-10409244",
      "countryId": 718075,
      "countryCode": "MK",
      "stateCode": "MK-701",
      "latitude": 42.17432,
      "longitude": 22.03853
    },
    {
      "id": 9112455,
      "name": "Bornatska Maala",
      "nativeName": "Bornatska Maala",
      "code": "MK-701-9112455",
      "countryId": 718075,
      "countryCode": "MK",
      "stateCode": "MK-701",
      "latitude": 42.06629,
      "longitude": 22.00553
    },
    {
      "id": 10356795,
      "name": "Cocevci",
      "nativeName": "Cocevci",
      "code": "MK-701-10356795",
      "countryId": 718075,
      "countryCode": "MK",
      "stateCode": "MK-701",
      "latitude": 42.078,
      "longitude": 21.98651
    },
    {
      "id": 10356811,
      "name": "Crnorukovci",
      "nativeName": "Crnorukovci",
      "code": "MK-701-10356811",
      "countryId": 718075,
      "countryCode": "MK",
      "stateCode": "MK-701",
      "latitude": 42.08977,
      "longitude": 21.95247
    },
    {
      "id": 9112572,
      "name": "Dingovci",
      "nativeName": "Dingovci",
      "code": "MK-701-9112572",
      "countryId": 718075,
      "countryCode": "MK",
      "stateCode": "MK-701",
      "latitude": 42.12386,
      "longitude": 22.07154
    },
    {
      "id": 9112550,
      "name": "Dodaci",
      "nativeName": "Dodaci",
      "code": "MK-701-9112550",
      "countryId": 718075,
      "countryCode": "MK",
      "stateCode": "MK-701",
      "latitude": 42.11407,
      "longitude": 22.02213
    },
    {
      "id": 10356762,
      "name": "Dodevci",
      "nativeName": "Dodevci",
      "code": "MK-701-10356762",
      "countryId": 718075,
      "countryCode": "MK",
      "stateCode": "MK-701",
      "latitude": 42.04048,
      "longitude": 21.98408
    },
    {
      "id": 10356810,
      "name": "Dolna Maala",
      "nativeName": "Dolna Maala",
      "code": "MK-701-10356810",
      "countryId": 718075,
      "countryCode": "MK",
      "stateCode": "MK-701",
      "latitude": 42.08228,
      "longitude": 21.96242
    },
    {
      "id": 10356784,
      "name": "Drakarci",
      "nativeName": "Drakarci",
      "code": "MK-701-10356784",
      "countryId": 718075,
      "countryCode": "MK",
      "stateCode": "MK-701",
      "latitude": 42.1221,
      "longitude": 21.98444
    },
    {
      "id": 9112575,
      "name": "Glaševci",
      "nativeName": "Glaševci",
      "code": "MK-701-9112575",
      "countryId": 718075,
      "countryCode": "MK",
      "stateCode": "MK-701",
      "latitude": 42.10915,
      "longitude": 22.1115
    },
    {
      "id": 9113285,
      "name": "Gorna Maala",
      "nativeName": "Gorna Maala",
      "code": "MK-701-9113285",
      "countryId": 718075,
      "countryCode": "MK",
      "stateCode": "MK-701",
      "latitude": 42.09153,
      "longitude": 22.12256
    },
    {
      "id": 10409205,
      "name": "Grandževci",
      "nativeName": "Grandževci",
      "code": "MK-701-10409205",
      "countryId": 718075,
      "countryCode": "MK",
      "stateCode": "MK-701",
      "latitude": 42.13628,
      "longitude": 22.00727
    },
    {
      "id": 9112539,
      "name": "Grmadari",
      "nativeName": "Grmadari",
      "code": "MK-701-9112539",
      "countryId": 718075,
      "countryCode": "MK",
      "stateCode": "MK-701",
      "latitude": 42.12164,
      "longitude": 22.05217
    },
    {
      "id": 10410140,
      "name": "Jankovci Maala",
      "nativeName": "Jankovci Maala",
      "code": "MK-701-10410140",
      "countryId": 718075,
      "countryCode": "MK",
      "stateCode": "MK-701",
      "latitude": 42.13013,
      "longitude": 22.12136
    },
    {
      "id": 9112522,
      "name": "Jaškovci Maala",
      "nativeName": "Jaškovci Maala",
      "code": "MK-701-9112522",
      "countryId": 718075,
      "countryCode": "MK",
      "stateCode": "MK-701",
      "latitude": 42.05305,
      "longitude": 22.10376
    },
    {
      "id": 834546,
      "name": "Kajganci",
      "nativeName": "Kajganci",
      "code": "MK-701-834546",
      "countryId": 718075,
      "countryCode": "MK",
      "stateCode": "MK-701",
      "latitude": 42.11992,
      "longitude": 22.32895
    },
    {
      "id": 10409220,
      "name": "Karadak",
      "nativeName": "Karadak",
      "code": "MK-701-10409220",
      "countryId": 718075,
      "countryCode": "MK",
      "stateCode": "MK-701",
      "latitude": 42.17207,
      "longitude": 22.00805
    },
    {
      "id": 9112523,
      "name": "Karamanska Maala",
      "nativeName": "Karamanska Maala",
      "code": "MK-701-9112523",
      "countryId": 718075,
      "countryCode": "MK",
      "stateCode": "MK-701",
      "latitude": 42.05678,
      "longitude": 22.10651
    },
    {
      "id": 789530,
      "name": "Ketenovo",
      "nativeName": "Ketenovo",
      "code": "MK-701-789530",
      "countryId": 718075,
      "countryCode": "MK",
      "stateCode": "MK-701",
      "latitude": 42.10586,
      "longitude": 22.08793
    },
    {
      "id": 9112567,
      "name": "Kilibarska Maala",
      "nativeName": "Kilibarska Maala",
      "code": "MK-701-9112567",
      "countryId": 718075,
      "countryCode": "MK",
      "stateCode": "MK-701",
      "latitude": 42.0855,
      "longitude": 22.08239
    },
    {
      "id": 9112456,
      "name": "Kitanovska Maala",
      "nativeName": "Kitanovska Maala",
      "code": "MK-701-9112456",
      "countryId": 718075,
      "countryCode": "MK",
      "stateCode": "MK-701",
      "latitude": 42.06214,
      "longitude": 22.0033
    },
    {
      "id": 789322,
      "name": "Konjuh",
      "nativeName": "Konjuh",
      "code": "MK-701-789322",
      "countryId": 718075,
      "countryCode": "MK",
      "stateCode": "MK-701",
      "latitude": 42.08139,
      "longitude": 21.95972
    },
    {
      "id": 9112533,
      "name": "Kovačevci",
      "nativeName": "Kovačevci",
      "code": "MK-701-9112533",
      "countryId": 718075,
      "countryCode": "MK",
      "stateCode": "MK-701",
      "latitude": 42.09806,
      "longitude": 22.04149
    },
    {
      "id": 10409211,
      "name": "Krpuzovci",
      "nativeName": "Krpuzovci",
      "code": "MK-701-10409211",
      "countryId": 718075,
      "countryCode": "MK",
      "stateCode": "MK-701",
      "latitude": 42.13813,
      "longitude": 22.0593
    },
    {
      "id": 789536,
      "name": "Krvačko",
      "nativeName": "Krvačko",
      "code": "MK-701-789536",
      "countryId": 718075,
      "countryCode": "MK",
      "stateCode": "MK-701",
      "latitude": 42.11766,
      "longitude": 22.2829
    },
    {
      "id": 9113312,
      "name": "Kukovište Maala",
      "nativeName": "Kukovište Maala",
      "code": "MK-701-9113312",
      "countryId": 718075,
      "countryCode": "MK",
      "stateCode": "MK-701",
      "latitude": 42.12187,
      "longitude": 22.13428
    },
    {
      "id": 10356792,
      "name": "Kulak",
      "nativeName": "Kulak",
      "code": "MK-701-10356792",
      "countryId": 718075,
      "countryCode": "MK",
      "stateCode": "MK-701",
      "latitude": 42.10604,
      "longitude": 21.99044
    },
    {
      "id": 788874,
      "name": "Kunovo",
      "nativeName": "Kunovo",
      "code": "MK-701-788874",
      "countryId": 718075,
      "countryCode": "MK",
      "stateCode": "MK-701",
      "latitude": 42.07066,
      "longitude": 22.24914
    },
    {
      "id": 10356791,
      "name": "Kurlevci",
      "nativeName": "Kurlevci",
      "code": "MK-701-10356791",
      "countryId": 718075,
      "countryCode": "MK",
      "stateCode": "MK-701",
      "latitude": 42.10492,
      "longitude": 21.97877
    },
    {
      "id": 10409201,
      "name": "Lazinci",
      "nativeName": "Lazinci",
      "code": "MK-701-10409201",
      "countryId": 718075,
      "countryCode": "MK",
      "stateCode": "MK-701",
      "latitude": 42.13429,
      "longitude": 22.10794
    },
    {
      "id": 10409239,
      "name": "Lepanovci",
      "nativeName": "Lepanovci",
      "code": "MK-701-10409239",
      "countryId": 718075,
      "countryCode": "MK",
      "stateCode": "MK-701",
      "latitude": 42.14873,
      "longitude": 22.05333
    },
    {
      "id": 9111952,
      "name": "Lepoviḱ Maala",
      "nativeName": "Lepoviḱ Maala",
      "code": "MK-701-9111952",
      "countryId": 718075,
      "countryCode": "MK",
      "stateCode": "MK-701",
      "latitude": 42.09085,
      "longitude": 22.10658
    },
    {
      "id": 9112457,
      "name": "Levkovci",
      "nativeName": "Levkovci",
      "code": "MK-701-9112457",
      "countryId": 718075,
      "countryCode": "MK",
      "stateCode": "MK-701",
      "latitude": 42.0591,
      "longitude": 22.00066
    },
    {
      "id": 10409219,
      "name": "Levkovci",
      "nativeName": "Levkovci",
      "code": "MK-701-10409219",
      "countryId": 718075,
      "countryCode": "MK",
      "stateCode": "MK-701",
      "latitude": 42.1294,
      "longitude": 22.10116
    },
    {
      "id": 834518,
      "name": "Lukovo",
      "nativeName": "Lukovo",
      "code": "MK-701-834518",
      "countryId": 718075,
      "countryCode": "MK",
      "stateCode": "MK-701",
      "latitude": 42.04778,
      "longitude": 22.24444
    },
    {
      "id": 9115491,
      "name": "Maala Bukovica",
      "nativeName": "Maala Bukovica",
      "code": "MK-701-9115491",
      "countryId": 718075,
      "countryCode": "MK",
      "stateCode": "MK-701",
      "latitude": 42.08498,
      "longitude": 22.32604
    },
    {
      "id": 9112472,
      "name": "Milkinci",
      "nativeName": "Milkinci",
      "code": "MK-701-9112472",
      "countryId": 718075,
      "countryCode": "MK",
      "stateCode": "MK-701",
      "latitude": 42.06149,
      "longitude": 22.03062
    },
    {
      "id": 9112577,
      "name": "Minci",
      "nativeName": "Minci",
      "code": "MK-701-9112577",
      "countryId": 718075,
      "countryCode": "MK",
      "stateCode": "MK-701",
      "latitude": 42.10155,
      "longitude": 22.11189
    },
    {
      "id": 9113311,
      "name": "Mišina Maala",
      "nativeName": "Mišina Maala",
      "code": "MK-701-9113311",
      "countryId": 718075,
      "countryCode": "MK",
      "stateCode": "MK-701",
      "latitude": 42.11538,
      "longitude": 22.12721
    },
    {
      "id": 9113326,
      "name": "Mlakari Maala",
      "nativeName": "Mlakari Maala",
      "code": "MK-701-9113326",
      "countryId": 718075,
      "countryCode": "MK",
      "stateCode": "MK-701",
      "latitude": 42.10825,
      "longitude": 22.19529
    },
    {
      "id": 9112070,
      "name": "Musinci",
      "nativeName": "Musinci",
      "code": "MK-701-9112070",
      "countryId": 718075,
      "countryCode": "MK",
      "stateCode": "MK-701",
      "latitude": 42.11522,
      "longitude": 22.11218
    },
    {
      "id": 787765,
      "name": "Muškovo",
      "nativeName": "Muškovo",
      "code": "MK-701-787765",
      "countryId": 718075,
      "countryCode": "MK",
      "stateCode": "MK-701",
      "latitude": 42.09507,
      "longitude": 22.24959
    },
    {
      "id": 9112505,
      "name": "Nikolovska Maala",
      "nativeName": "Nikolovska Maala",
      "code": "MK-701-9112505",
      "countryId": 718075,
      "countryCode": "MK",
      "stateCode": "MK-701",
      "latitude": 42.03494,
      "longitude": 22.07972
    },
    {
      "id": 9112485,
      "name": "Novakovci",
      "nativeName": "Novakovci",
      "code": "MK-701-9112485",
      "countryId": 718075,
      "countryCode": "MK",
      "stateCode": "MK-701",
      "latitude": 42.04512,
      "longitude": 22.04971
    },
    {
      "id": 9111955,
      "name": "Novoselci",
      "nativeName": "Novoselci",
      "code": "MK-701-9111955",
      "countryId": 718075,
      "countryCode": "MK",
      "stateCode": "MK-701",
      "latitude": 42.11276,
      "longitude": 21.99547
    },
    {
      "id": 10409214,
      "name": "Orašje",
      "nativeName": "Orašje",
      "code": "MK-701-10409214",
      "countryId": 718075,
      "countryCode": "MK",
      "stateCode": "MK-701",
      "latitude": 42.13494,
      "longitude": 22.06559
    },
    {
      "id": 10409216,
      "name": "Pindžur Maala",
      "nativeName": "Pindžur Maala",
      "code": "MK-701-10409216",
      "countryId": 718075,
      "countryCode": "MK",
      "stateCode": "MK-701",
      "latitude": 42.14195,
      "longitude": 22.07563
    },
    {
      "id": 10409222,
      "name": "Pindžur Maala",
      "nativeName": "Pindžur Maala",
      "code": "MK-701-10409222",
      "countryId": 718075,
      "countryCode": "MK",
      "stateCode": "MK-701",
      "latitude": 42.15395,
      "longitude": 22.00877
    },
    {
      "id": 786737,
      "name": "Prikovci",
      "nativeName": "Prikovci",
      "code": "MK-701-786737",
      "countryId": 718075,
      "countryCode": "MK",
      "stateCode": "MK-701",
      "latitude": 42.06028,
      "longitude": 22.14694
    },
    {
      "id": 10409233,
      "name": "Ralevci",
      "nativeName": "Ralevci",
      "code": "MK-701-10409233",
      "countryId": 718075,
      "countryCode": "MK",
      "stateCode": "MK-701",
      "latitude": 42.14286,
      "longitude": 22.03126
    },
    {
      "id": 10356814,
      "name": "Rasovci",
      "nativeName": "Rasovci",
      "code": "MK-701-10356814",
      "countryId": 718075,
      "countryCode": "MK",
      "stateCode": "MK-701",
      "latitude": 42.06538,
      "longitude": 21.9451
    },
    {
      "id": 9113307,
      "name": "Rekari Maala",
      "nativeName": "Rekari Maala",
      "code": "MK-701-9113307",
      "countryId": 718075,
      "countryCode": "MK",
      "stateCode": "MK-701",
      "latitude": 42.10482,
      "longitude": 22.23099
    },
    {
      "id": 9112385,
      "name": "Ruinci",
      "nativeName": "Ruinci",
      "code": "MK-701-9112385",
      "countryId": 718075,
      "countryCode": "MK",
      "stateCode": "MK-701",
      "latitude": 42.08821,
      "longitude": 22.02162
    },
    {
      "id": 10409237,
      "name": "Sarivinci",
      "nativeName": "Sarivinci",
      "code": "MK-701-10409237",
      "countryId": 718075,
      "countryCode": "MK",
      "stateCode": "MK-701",
      "latitude": 42.14374,
      "longitude": 22.04896
    },
    {
      "id": 9112525,
      "name": "Smilkovci Maala",
      "nativeName": "Smilkovci Maala",
      "code": "MK-701-9112525",
      "countryId": 718075,
      "countryCode": "MK",
      "stateCode": "MK-701",
      "latitude": 42.06311,
      "longitude": 22.10193
    },
    {
      "id": 10409213,
      "name": "Smokarci",
      "nativeName": "Smokarci",
      "code": "MK-701-10409213",
      "countryId": 718075,
      "countryCode": "MK",
      "stateCode": "MK-701",
      "latitude": 42.13262,
      "longitude": 22.07165
    },
    {
      "id": 9111956,
      "name": "Sotirova Maala",
      "nativeName": "Sotirova Maala",
      "code": "MK-701-9111956",
      "countryId": 718075,
      "countryCode": "MK",
      "stateCode": "MK-701",
      "latitude": 42.10385,
      "longitude": 22.00603
    },
    {
      "id": 9112517,
      "name": "Spiridonova Maala",
      "nativeName": "Spiridonova Maala",
      "code": "MK-701-9112517",
      "countryId": 718075,
      "countryCode": "MK",
      "stateCode": "MK-701",
      "latitude": 42.05331,
      "longitude": 22.0826
    },
    {
      "id": 10409240,
      "name": "Srbinci",
      "nativeName": "Srbinci",
      "code": "MK-701-10409240",
      "countryId": 718075,
      "countryCode": "MK",
      "stateCode": "MK-701",
      "latitude": 42.14361,
      "longitude": 22.058
    },
    {
      "id": 10410141,
      "name": "Sredna Maala",
      "nativeName": "Sredna Maala",
      "code": "MK-701-10410141",
      "countryId": 718075,
      "countryCode": "MK",
      "stateCode": "MK-701",
      "latitude": 42.12632,
      "longitude": 22.12061
    },
    {
      "id": 834538,
      "name": "Staro Muškovo",
      "nativeName": "Staro Muškovo",
      "code": "MK-701-834538",
      "countryId": 718075,
      "countryCode": "MK",
      "stateCode": "MK-701",
      "latitude": 42.09761,
      "longitude": 22.27052
    },
    {
      "id": 9112534,
      "name": "Stevanovci",
      "nativeName": "Stevanovci",
      "code": "MK-701-9112534",
      "countryId": 718075,
      "countryCode": "MK",
      "stateCode": "MK-701",
      "latitude": 42.10746,
      "longitude": 22.03068
    },
    {
      "id": 9112499,
      "name": "Stubljanci",
      "nativeName": "Stubljanci",
      "code": "MK-701-9112499",
      "countryId": 718075,
      "countryCode": "MK",
      "stateCode": "MK-701",
      "latitude": 42.0314,
      "longitude": 22.06373
    },
    {
      "id": 10409207,
      "name": "Tanasovci",
      "nativeName": "Tanasovci",
      "code": "MK-701-10409207",
      "countryId": 718075,
      "countryCode": "MK",
      "stateCode": "MK-701",
      "latitude": 42.13311,
      "longitude": 22.0205
    },
    {
      "id": 10409210,
      "name": "Tano Brce",
      "nativeName": "Tano Brce",
      "code": "MK-701-10409210",
      "countryId": 718075,
      "countryCode": "MK",
      "stateCode": "MK-701",
      "latitude": 42.13132,
      "longitude": 22.00394
    },
    {
      "id": 10356797,
      "name": "Tasevci",
      "nativeName": "Tasevci",
      "code": "MK-701-10356797",
      "countryId": 718075,
      "countryCode": "MK",
      "stateCode": "MK-701",
      "latitude": 42.06837,
      "longitude": 21.98284
    },
    {
      "id": 10409228,
      "name": "Tasino",
      "nativeName": "Tasino",
      "code": "MK-701-10409228",
      "countryId": 718075,
      "countryCode": "MK",
      "stateCode": "MK-701",
      "latitude": 42.17771,
      "longitude": 22.03038
    },
    {
      "id": 9112535,
      "name": "Tokmaci",
      "nativeName": "Tokmaci",
      "code": "MK-701-9112535",
      "countryId": 718075,
      "countryCode": "MK",
      "stateCode": "MK-701",
      "latitude": 42.10932,
      "longitude": 22.03782
    },
    {
      "id": 10356760,
      "name": "Umarci",
      "nativeName": "Umarci",
      "code": "MK-701-10356760",
      "countryId": 718075,
      "countryCode": "MK",
      "stateCode": "MK-701",
      "latitude": 42.03177,
      "longitude": 21.99007
    },
    {
      "id": 9112560,
      "name": "Vakuf Maala",
      "nativeName": "Vakuf Maala",
      "code": "MK-701-9112560",
      "countryId": 718075,
      "countryCode": "MK",
      "stateCode": "MK-701",
      "latitude": 42.08952,
      "longitude": 22.04726
    },
    {
      "id": 834537,
      "name": "Valjanovec",
      "nativeName": "Valjanovec",
      "code": "MK-701-834537",
      "countryId": 718075,
      "countryCode": "MK",
      "stateCode": "MK-701",
      "latitude": 42.09056,
      "longitude": 22.23167
    },
    {
      "id": 10409236,
      "name": "Vatlino",
      "nativeName": "Vatlino",
      "code": "MK-701-10409236",
      "countryId": 718075,
      "countryCode": "MK",
      "stateCode": "MK-701",
      "latitude": 42.14166,
      "longitude": 22.04205
    },
    {
      "id": 9115489,
      "name": "Vrdovačka Maala",
      "nativeName": "Vrdovačka Maala",
      "code": "MK-701-9115489",
      "countryId": 718075,
      "countryCode": "MK",
      "stateCode": "MK-701",
      "latitude": 42.08862,
      "longitude": 22.3347
    },
    {
      "id": 9112497,
      "name": "Vukanovci",
      "nativeName": "Vukanovci",
      "code": "MK-701-9112497",
      "countryId": 718075,
      "countryCode": "MK",
      "stateCode": "MK-701",
      "latitude": 42.03756,
      "longitude": 22.05384
    },
    {
      "id": 9112552,
      "name": "Zabel Maala",
      "nativeName": "Zabel Maala",
      "code": "MK-701-9112552",
      "countryId": 718075,
      "countryCode": "MK",
      "stateCode": "MK-701",
      "latitude": 42.12361,
      "longitude": 22.02062
    },
    {
      "id": 10409218,
      "name": "Zlatkovci",
      "nativeName": "Zlatkovci",
      "code": "MK-701-10409218",
      "countryId": 718075,
      "countryCode": "MK",
      "stateCode": "MK-701",
      "latitude": 42.14283,
      "longitude": 22.08838
    },
    {
      "id": 9112465,
      "name": "Čezaci",
      "nativeName": "Čezaci",
      "code": "MK-701-9112465",
      "countryId": 718075,
      "countryCode": "MK",
      "stateCode": "MK-701",
      "latitude": 42.05947,
      "longitude": 22.01404
    },
    {
      "id": 10409231,
      "name": "Čivlevci",
      "nativeName": "Čivlevci",
      "code": "MK-701-10409231",
      "countryId": 718075,
      "countryCode": "MK",
      "stateCode": "MK-701",
      "latitude": 42.15893,
      "longitude": 22.03511
    },
    {
      "id": 9112549,
      "name": "Šalevci",
      "nativeName": "Šalevci",
      "code": "MK-701-9112549",
      "countryId": 718075,
      "countryCode": "MK",
      "stateCode": "MK-701",
      "latitude": 42.12295,
      "longitude": 22.00287
    },
    {
      "id": 785794,
      "name": "Šlegovo",
      "nativeName": "Šlegovo",
      "code": "MK-701-785794",
      "countryId": 718075,
      "countryCode": "MK",
      "stateCode": "MK-701",
      "latitude": 42.06529,
      "longitude": 22.16214
    },
    {
      "id": 9112498,
      "name": "Šopavci",
      "nativeName": "Šopavci",
      "code": "MK-701-9112498",
      "countryId": 718075,
      "countryCode": "MK",
      "stateCode": "MK-701",
      "latitude": 42.03736,
      "longitude": 22.06111
    },
    {
      "id": 9180527,
      "name": "Šopsko Rudare",
      "nativeName": "Šopsko Rudare",
      "code": "MK-701-9180527",
      "countryId": 718075,
      "countryCode": "MK",
      "stateCode": "MK-701",
      "latitude": 42.05192,
      "longitude": 22.03907
    },
    {
      "id": 9115488,
      "name": "Šumanska Maala",
      "nativeName": "Šumanska Maala",
      "code": "MK-701-9115488",
      "countryId": 718075,
      "countryCode": "MK",
      "stateCode": "MK-701",
      "latitude": 42.094,
      "longitude": 22.33848
    },
    {
      "id": 9112384,
      "name": "Šutinci",
      "nativeName": "Šutinci",
      "code": "MK-701-9112384",
      "countryId": 718075,
      "countryCode": "MK",
      "stateCode": "MK-701",
      "latitude": 42.09558,
      "longitude": 22.00999
    },
    {
      "id": 783876,
      "name": "Živalevo",
      "nativeName": "Živalevo",
      "code": "MK-701-783876",
      "countryId": 718075,
      "countryCode": "MK",
      "stateCode": "MK-701",
      "latitude": 42.09111,
      "longitude": 22.11722
    },
    {
      "id": 10356796,
      "name": "Ǵakovci",
      "nativeName": "Ǵakovci",
      "code": "MK-701-10356796",
      "countryId": 718075,
      "countryCode": "MK",
      "stateCode": "MK-701",
      "latitude": 42.07251,
      "longitude": 21.97981
    },
    {
      "id": 9112543,
      "name": "Ǵavci",
      "nativeName": "Ǵavci",
      "code": "MK-701-9112543",
      "countryId": 718075,
      "countryCode": "MK",
      "stateCode": "MK-701",
      "latitude": 42.11506,
      "longitude": 22.054
    },
    {
      "id": 9112461,
      "name": "Ǵačka Maala",
      "nativeName": "Ǵačka Maala",
      "code": "MK-701-9112461",
      "countryId": 718075,
      "countryCode": "MK",
      "stateCode": "MK-701",
      "latitude": 42.05012,
      "longitude": 22.01324
    },
    {
      "id": 10356798,
      "name": "Ǵorgovci",
      "nativeName": "Ǵorgovci",
      "code": "MK-701-10356798",
      "countryId": 718075,
      "countryCode": "MK",
      "stateCode": "MK-701",
      "latitude": 42.07012,
      "longitude": 21.99072
    },
    {
      "id": 10410142,
      "name": "Ǵorinska Maala",
      "nativeName": "Ǵorinska Maala",
      "code": "MK-701-10410142",
      "countryId": 718075,
      "countryCode": "MK",
      "stateCode": "MK-701",
      "latitude": 42.13092,
      "longitude": 22.22754
    },
    {
      "id": 10356793,
      "name": "Dimonce",
      "nativeName": "Dimonce",
      "code": "MK-701-10356793",
      "countryId": 718075,
      "countryCode": "MK",
      "stateCode": "MK-701",
      "latitude": 42.10828,
      "longitude": 21.98603
    },
    {
      "id": 790835,
      "name": "Emirica",
      "nativeName": "Emirica",
      "code": "MK-701-790835",
      "countryId": 718075,
      "countryCode": "MK",
      "stateCode": "MK-701",
      "latitude": 42.08547,
      "longitude": 22.35031
    },
    {
      "id": 790818,
      "name": "Filipovci",
      "nativeName": "Filipovci",
      "code": "MK-701-790818",
      "countryId": 718075,
      "countryCode": "MK",
      "stateCode": "MK-701",
      "latitude": 42.05684,
      "longitude": 22.09089
    },
    {
      "id": 790327,
      "name": "Gorno Kratovo",
      "nativeName": "Gorno Kratovo",
      "code": "MK-701-790327",
      "countryId": 718075,
      "countryCode": "MK",
      "stateCode": "MK-701",
      "latitude": 42.09278,
      "longitude": 22.20806
    },
    {
      "id": 789423,
      "name": "Kneževo",
      "nativeName": "Kneževo",
      "code": "MK-701-789423",
      "countryId": 718075,
      "countryCode": "MK",
      "stateCode": "MK-701",
      "latitude": 42.11042,
      "longitude": 22.31334
    },
    {
      "id": 789377,
      "name": "Kojkovo",
      "nativeName": "Kojkovo",
      "code": "MK-701-789377",
      "countryId": 718075,
      "countryCode": "MK",
      "stateCode": "MK-701",
      "latitude": 42.08064,
      "longitude": 22.29263
    },
    {
      "id": 789055,
      "name": "Krilatica",
      "nativeName": "Krilatica",
      "code": "MK-701-789055",
      "countryId": 718075,
      "countryCode": "MK",
      "stateCode": "MK-701",
      "latitude": 42.1222,
      "longitude": 22.12078
    },
    {
      "id": 788916,
      "name": "Kuklica",
      "nativeName": "Kuklica",
      "code": "MK-701-788916",
      "countryId": 718075,
      "countryCode": "MK",
      "stateCode": "MK-701",
      "latitude": 42.10861,
      "longitude": 22.03806
    },
    {
      "id": 787677,
      "name": "Nežilovo",
      "nativeName": "Nežilovo",
      "code": "MK-701-787677",
      "countryId": 718075,
      "countryCode": "MK",
      "stateCode": "MK-701",
      "latitude": 42.1212,
      "longitude": 22.23792
    },
    {
      "id": 787137,
      "name": "Pendak",
      "nativeName": "Pendak",
      "code": "MK-701-787137",
      "countryId": 718075,
      "countryCode": "MK",
      "stateCode": "MK-701",
      "latitude": 42.12504,
      "longitude": 22.01404
    },
    {
      "id": 786136,
      "name": "Sekulica",
      "nativeName": "Sekulica",
      "code": "MK-701-786136",
      "countryId": 718075,
      "countryCode": "MK",
      "stateCode": "MK-701",
      "latitude": 42.03712,
      "longitude": 22.05954
    },
    {
      "id": 785453,
      "name": "Stracin",
      "nativeName": "Stracin",
      "code": "MK-701-785453",
      "countryId": 718075,
      "countryCode": "MK",
      "stateCode": "MK-701",
      "latitude": 42.1504,
      "longitude": 22.03284
    },
    {
      "id": 785139,
      "name": "Talašmance",
      "nativeName": "Talašmance",
      "code": "MK-701-785139",
      "countryId": 718075,
      "countryCode": "MK",
      "stateCode": "MK-701",
      "latitude": 42.10556,
      "longitude": 22.12417
    },
    {
      "id": 785117,
      "name": "Tatomir",
      "nativeName": "Tatomir",
      "code": "MK-701-785117",
      "countryId": 718075,
      "countryCode": "MK",
      "stateCode": "MK-701",
      "latitude": 42.03299,
      "longitude": 22.00972
    },
    {
      "id": 785005,
      "name": "Topoloviḱ",
      "nativeName": "Topoloviḱ",
      "code": "MK-701-785005",
      "countryId": 718075,
      "countryCode": "MK",
      "stateCode": "MK-701",
      "latitude": 42.08152,
      "longitude": 22.0798
    },
    {
      "id": 784909,
      "name": "Trnovac",
      "nativeName": "Trnovac",
      "code": "MK-701-784909",
      "countryId": 718075,
      "countryCode": "MK",
      "stateCode": "MK-701",
      "latitude": 42.12828,
      "longitude": 22.07693
    },
    {
      "id": 784828,
      "name": "Turalevo",
      "nativeName": "Turalevo",
      "code": "MK-701-784828",
      "countryId": 718075,
      "countryCode": "MK",
      "stateCode": "MK-701",
      "latitude": 42.07161,
      "longitude": 22.11934
    },
    {
      "id": 784738,
      "name": "Vakuf",
      "nativeName": "Vakaf",
      "code": "MK-701-784738",
      "countryId": 718075,
      "countryCode": "MK",
      "stateCode": "MK-701",
      "latitude": 42.06836,
      "longitude": 22.04701
    },
    {
      "id": 785666,
      "name": "Šopsko Rudare",
      "nativeName": "Šopsko Rudare",
      "code": "MK-701-785666",
      "countryId": 718075,
      "countryCode": "MK",
      "stateCode": "MK-701",
      "latitude": 42.06991,
      "longitude": 22.00389
    },
    {
      "id": 783929,
      "name": "Železnica",
      "nativeName": "Železnica",
      "code": "MK-701-783929",
      "countryId": 718075,
      "countryCode": "MK",
      "stateCode": "MK-701",
      "latitude": 42.09736,
      "longitude": 22.15664
    }
  ]
}