{
  "stateId": 863856,
  "stateCode": "MK-807",
  "countryCode": "MK",
  "cities": [
    {
      "id": 833357,
      "name": "Ilinden",
      "nativeName": "Ilinden",
      "code": "MK-807-833357",
      "countryId": 718075,
      "countryCode": "MK",
      "stateCode": "MK-807",
      "latitude": 41.99451,
      "longitude": 21.58002
    },
    {
      "id": 791549,
      "name": "Deljadrovci",
      "nativeName": "Deljadrovci",
      "code": "MK-807-791549",
      "countryId": 718075,
      "countryCode": "MK",
      "stateCode": "MK-807",
      "latitude": 42.015,
      "longitude": 21.67028
    },
    {
      "id": 789703,
      "name": "Kadino",
      "nativeName": "Kadino",
      "code": "MK-807-789703",
      "countryId": 718075,
      "countryCode": "MK",
      "stateCode": "MK-807",
      "latitude": 41.96889,
      "longitude": 21.60139
    },
    {
      "id": 788145,
      "name": "Marino",
      "nativeName": "Marino",
      "code": "MK-807-788145",
      "countryId": 718075,
      "countryCode": "MK",
      "stateCode": "MK-807",
      "latitude": 41.98776,
      "longitude": 21.59148
    },
    {
      "id": 787985,
      "name": "Miladinovci",
      "nativeName": "Miladinovci",
      "code": "MK-807-787985",
      "countryId": 718075,
      "countryCode": "MK",
      "stateCode": "MK-807",
      "latitude": 41.98029,
      "longitude": 21.64982
    },
    {
      "id": 787806,
      "name": "Mrševci",
      "nativeName": "Mrševci",
      "code": "MK-807-787806",
      "countryId": 718075,
      "countryCode": "MK",
      "stateCode": "MK-807",
      "latitude": 42.01672,
      "longitude": 21.65245
    },
    {
      "id": 785106,
      "name": "Tekija",
      "nativeName": "Tekija",
      "code": "MK-807-785106",
      "countryId": 718075,
      "countryCode": "MK",
      "stateCode": "MK-807",
      "latitude": 42.007,
      "longitude": 21.66529
    },
    {
      "id": 8549262,
      "name": "Ezerište",
      "nativeName": "Ezerište",
      "code": "MK-807-8549262",
      "countryId": 718075,
      "countryCode": "MK",
      "stateCode": "MK-807",
      "latitude": 41.9615,
      "longitude": 21.60048
    }
  ]
}