{
  "stateId": 2255422,
  "stateCode": "CG-14",
  "countryCode": "CG",
  "cities": [
    {
      "id": 7870660,
      "name": "Abala",
      "nativeName": "Abala",
      "code": "CG-14-7870660",
      "countryId": 2260494,
      "countryCode": "CG",
      "stateCode": "CG-14",
      "latitude": -1.33268,
      "longitude": 15.52106
    },
    {
      "id": 11996198,
      "name": "Allembe",
      "nativeName": "Allembe",
      "code": "CG-14-11996198",
      "countryId": 2260494,
      "countryCode": "CG",
      "stateCode": "CG-14",
      "latitude": -1.36518,
      "longitude": 15.24755
    },
    {
      "id": 7731999,
      "name": "Djambala",
      "nativeName": "Djambala",
      "code": "CG-14-7731999",
      "countryId": 2260494,
      "countryCode": "CG",
      "stateCode": "CG-14",
      "latitude": -2.59009,
      "longitude": 14.77949
    },
    {
      "id": 7731998,
      "name": "Gamboma",
      "nativeName": "Gamboma",
      "code": "CG-14-7731998",
      "countryId": 2260494,
      "countryCode": "CG",
      "stateCode": "CG-14",
      "latitude": -1.93412,
      "longitude": 16.02073
    },
    {
      "id": 7870663,
      "name": "Lekana",
      "nativeName": "Lekana",
      "code": "CG-14-7870663",
      "countryId": 2260494,
      "countryCode": "CG",
      "stateCode": "CG-14",
      "latitude": -2.3293,
      "longitude": 14.46838
    },
    {
      "id": 11996211,
      "name": "Makotimpoko",
      "nativeName": "Makotimpoko",
      "code": "CG-14-11996211",
      "countryId": 2260494,
      "countryCode": "CG",
      "stateCode": "CG-14",
      "latitude": -1.73033,
      "longitude": 16.39209
    },
    {
      "id": 11996190,
      "name": "Mbon",
      "nativeName": "Mbon",
      "code": "CG-14-11996190",
      "countryId": 2260494,
      "countryCode": "CG",
      "stateCode": "CG-14",
      "latitude": -2.01924,
      "longitude": 15.01683
    },
    {
      "id": 11996219,
      "name": "Mpouya",
      "nativeName": "Mpouya",
      "code": "CG-14-11996219",
      "countryId": 2260494,
      "countryCode": "CG",
      "stateCode": "CG-14",
      "latitude": -2.63943,
      "longitude": 16.02406
    },
    {
      "id": 11996199,
      "name": "Ngo",
      "nativeName": "Ngo",
      "code": "CG-14-11996199",
      "countryId": 2260494,
      "countryCode": "CG",
      "stateCode": "CG-14",
      "latitude": -2.56077,
      "longitude": 15.46851
    },
    {
      "id": 11996217,
      "name": "Ollombo",
      "nativeName": "Ollombo",
      "code": "CG-14-11996217",
      "countryId": 2260494,
      "countryCode": "CG",
      "stateCode": "CG-14",
      "latitude": -1.33862,
      "longitude": 15.95492
    },
    {
      "id": 11996218,
      "name": "Ongogni",
      "nativeName": "Ongogni",
      "code": "CG-14-11996218",
      "countryId": 2260494,
      "countryCode": "CG",
      "stateCode": "CG-14",
      "latitude": -1.55782,
      "longitude": 16.0218
    }
  ]
}