{
  "stateId": 2256175,
  "stateCode": "CG-9",
  "countryCode": "CG",
  "cities": [
    {
      "id": 11996214,
      "name": "Banba",
      "nativeName": "Banba",
      "code": "CG-9-11996214",
      "countryId": 2260494,
      "countryCode": "CG",
      "stateCode": "CG-9",
      "latitude": -3.66373,
      "longitude": 12.09565
    },
    {
      "id": 7870640,
      "name": "Divenie",
      "nativeName": "Divenie",
      "code": "CG-9-7870640",
      "countryId": 2260494,
      "countryCode": "CG",
      "stateCode": "CG-9",
      "latitude": -2.6397,
      "longitude": 11.98046
    },
    {
      "id": 7870641,
      "name": "Kibangou",
      "nativeName": "Kibangou",
      "code": "CG-9-7870641",
      "countryId": 2260494,
      "countryCode": "CG",
      "stateCode": "CG-9",
      "latitude": -3.38221,
      "longitude": 12.19339
    },
    {
      "id": 7870642,
      "name": "Kimongo",
      "nativeName": "Kimongo",
      "code": "CG-9-7870642",
      "countryId": 2260494,
      "countryCode": "CG",
      "stateCode": "CG-9",
      "latitude": -4.4413,
      "longitude": 12.9135
    },
    {
      "id": 11996215,
      "name": "Londela-Kayes",
      "nativeName": "Londela-Kayes",
      "code": "CG-9-11996215",
      "countryId": 2260494,
      "countryCode": "CG",
      "stateCode": "CG-9",
      "latitude": -4.72726,
      "longitude": 13.41234
    },
    {
      "id": 7870646,
      "name": "Louvakou",
      "nativeName": "Louvakou",
      "code": "CG-9-7870646",
      "countryId": 2260494,
      "countryCode": "CG",
      "stateCode": "CG-9",
      "latitude": -3.996,
      "longitude": 12.584
    },
    {
      "id": 11996235,
      "name": "Makabana",
      "nativeName": "Makabana",
      "code": "CG-9-11996235",
      "countryId": 2260494,
      "countryCode": "CG",
      "stateCode": "CG-9",
      "latitude": -3.58489,
      "longitude": 12.53078
    },
    {
      "id": 7870650,
      "name": "Mayoko",
      "nativeName": "Mayoko",
      "code": "CG-9-7870650",
      "countryId": 2260494,
      "countryCode": "CG",
      "stateCode": "CG-9",
      "latitude": -2.2847,
      "longitude": 12.80832
    },
    {
      "id": 11996200,
      "name": "Mbinda",
      "nativeName": "Mbinda",
      "code": "CG-9-11996200",
      "countryId": 2260494,
      "countryCode": "CG",
      "stateCode": "CG-9",
      "latitude": -2.07739,
      "longitude": 12.83916
    },
    {
      "id": 11996232,
      "name": "Moungoundou-Nord",
      "nativeName": "Moungoundou-Nord",
      "code": "CG-9-11996232",
      "countryId": 2260494,
      "countryCode": "CG",
      "stateCode": "CG-9",
      "latitude": -1.99078,
      "longitude": 12.61684
    },
    {
      "id": 11996210,
      "name": "Moungoundou-Sud",
      "nativeName": "Moungoundou-Sud",
      "code": "CG-9-11996210",
      "countryId": 2260494,
      "countryCode": "CG",
      "stateCode": "CG-9",
      "latitude": -2.67586,
      "longitude": 12.7314
    },
    {
      "id": 11996231,
      "name": "Moutamba",
      "nativeName": "Moutamba",
      "code": "CG-9-11996231",
      "countryId": 2260494,
      "countryCode": "CG",
      "stateCode": "CG-9",
      "latitude": -3.08166,
      "longitude": 12.63589
    },
    {
      "id": 11996213,
      "name": "Nyanga",
      "nativeName": "Nyanga",
      "code": "CG-9-11996213",
      "countryId": 2260494,
      "countryCode": "CG",
      "stateCode": "CG-9",
      "latitude": -2.76271,
      "longitude": 11.84957
    },
    {
      "id": 11996234,
      "name": "Yaya",
      "nativeName": "Yaya",
      "code": "CG-9-11996234",
      "countryId": 2260494,
      "countryCode": "CG",
      "stateCode": "CG-9",
      "latitude": -3.03742,
      "longitude": 12.9739
    }
  ]
}