{
  "stateId": 1923045,
  "stateCode": "ID-BT",
  "countryCode": "ID",
  "cities": [
    {
      "id": 1632822,
      "name": "Kabupaten Pandeglang",
      "nativeName": "Kabupaten Pandeglang",
      "code": "ID-BT-1632822",
      "countryId": 1643084,
      "countryCode": "ID",
      "stateCode": "ID-BT",
      "latitude": -6.49861,
      "longitude": 105.89167
    },
    {
      "id": 1625083,
      "name": "Kabupaten Tangerang",
      "nativeName": "Kabupaten Tangerang",
      "code": "ID-BT-1625083",
      "countryId": 1643084,
      "countryCode": "ID",
      "stateCode": "ID-BT",
      "latitude": -6.16667,
      "longitude": 106.48333
    },
    {
      "id": 6758625,
      "name": "Kota Cilegon",
      "nativeName": "Kota Cilegon",
      "code": "ID-BT-6758625",
      "countryId": 1643084,
      "countryCode": "ID",
      "stateCode": "ID-BT",
      "latitude": -6,
      "longitude": 106.02917
    },
    {
      "id": 9845383,
      "name": "Kota Serang",
      "nativeName": "Kota Serang",
      "code": "ID-BT-9845383",
      "countryId": 1643084,
      "countryCode": "ID",
      "stateCode": "ID-BT",
      "latitude": -6.12563,
      "longitude": 106.14999
    },
    {
      "id": 1638238,
      "name": "Lebak Regency",
      "nativeName": "Kabupaten Lebak",
      "code": "ID-BT-1638238",
      "countryId": 1643084,
      "countryCode": "ID",
      "stateCode": "ID-BT",
      "latitude": -6.65,
      "longitude": 106.21667
    },
    {
      "id": 1627545,
      "name": "Serang Regency",
      "nativeName": "Kabupaten Serang",
      "code": "ID-BT-1627545",
      "countryId": 1643084,
      "countryCode": "ID",
      "stateCode": "ID-BT",
      "latitude": -6.15,
      "longitude": 105.96667
    },
    {
      "id": 9845480,
      "name": "South Tangerang",
      "nativeName": "Kota Tangerang Selatan",
      "code": "ID-BT-9845480",
      "countryId": 1643084,
      "countryCode": "ID",
      "stateCode": "ID-BT",
      "latitude": -6.29373,
      "longitude": 106.71244
    },
    {
      "id": 9849891,
      "name": "Tangerang Regency",
      "nativeName": "Kota Tangerang",
      "code": "ID-BT-9849891",
      "countryId": 1643084,
      "countryCode": "ID",
      "stateCode": "ID-BT",
      "latitude": -6.17944,
      "longitude": 106.62991
    }
  ]
}