{
  "stateId": 1633792,
  "stateCode": "ID-NB",
  "countryCode": "ID",
  "cities": [
    {
      "id": 8659101,
      "name": "Bima City",
      "nativeName": "Kota Bima",
      "code": "ID-NB-8659101",
      "countryId": 1643084,
      "countryCode": "ID",
      "stateCode": "ID-NB",
      "latitude": -8.46728,
      "longitude": 118.75259
    },
    {
      "id": 1648758,
      "name": "Bima Regency",
      "nativeName": "Kabupaten Bima",
      "code": "ID-NB-1648758",
      "countryId": 1643084,
      "countryCode": "ID",
      "stateCode": "ID-NB",
      "latitude": -8.61667,
      "longitude": 118.75
    },
    {
      "id": 1637366,
      "name": "Central Lombok Regency",
      "nativeName": "Kabupaten Lombok Tengah",
      "code": "ID-NB-1637366",
      "countryId": 1643084,
      "countryCode": "ID",
      "stateCode": "ID-NB",
      "latitude": -8.7,
      "longitude": 116.3
    },
    {
      "id": 7057508,
      "name": "Dompu Regency",
      "nativeName": "Kabupaten Dompu",
      "code": "ID-NB-7057508",
      "countryId": 1643084,
      "countryCode": "ID",
      "stateCode": "ID-NB",
      "latitude": -8.5094,
      "longitude": 118.4816
    },
    {
      "id": 1637365,
      "name": "Kabupaten Lombok Timur",
      "nativeName": "Kabupaten Lombok Timur",
      "code": "ID-NB-1637365",
      "countryId": 1643084,
      "countryCode": "ID",
      "stateCode": "ID-NB",
      "latitude": -8.53333,
      "longitude": 116.51667
    },
    {
      "id": 1635881,
      "name": "Kota Mataram",
      "nativeName": "Kota Mataram",
      "code": "ID-NB-1635881",
      "countryId": 1643084,
      "countryCode": "ID",
      "stateCode": "ID-NB",
      "latitude": -8.58333,
      "longitude": 116.11667
    },
    {
      "id": 8659092,
      "name": "North Lombok Regency",
      "nativeName": "Kabupaten Lombok Utara",
      "code": "ID-NB-8659092",
      "countryId": 1643084,
      "countryCode": "ID",
      "stateCode": "ID-NB",
      "latitude": -8.35214,
      "longitude": 116.40152
    },
    {
      "id": 8594735,
      "name": "Sumbawa Regency",
      "nativeName": "Kabupaten Sumbawa",
      "code": "ID-NB-8594735",
      "countryId": 1643084,
      "countryCode": "ID",
      "stateCode": "ID-NB",
      "latitude": -8.7439,
      "longitude": 117.3324
    },
    {
      "id": 1637367,
      "name": "West Lombok Regency",
      "nativeName": "Kabupaten Lombok Barat",
      "code": "ID-NB-1637367",
      "countryId": 1643084,
      "countryCode": "ID",
      "stateCode": "ID-NB",
      "latitude": -8.66667,
      "longitude": 116.13333
    },
    {
      "id": 6984549,
      "name": "West Sumbawa Regency",
      "nativeName": "Kabupaten Sumbawa Barat",
      "code": "ID-NB-6984549",
      "countryId": 1643084,
      "countryCode": "ID",
      "stateCode": "ID-NB",
      "latitude": -8.75159,
      "longitude": 116.92132
    }
  ]
}