{
  "stateId": 1213642,
  "stateCode": "ID-SU",
  "countryCode": "ID",
  "cities": [
    {
      "id": 9821911,
      "name": "Batubara Regency",
      "nativeName": "Kabupaten Batu Bara",
      "code": "ID-SU-9821911",
      "countryId": 1643084,
      "countryCode": "ID",
      "stateCode": "ID-SU",
      "latitude": 3.16166,
      "longitude": 99.52652
    },
    {
      "id": 1213518,
      "name": "Central Tapanuli Regency",
      "nativeName": "Kabupaten Tapanuli Tengah",
      "code": "ID-SU-1213518",
      "countryId": 1643084,
      "countryCode": "ID",
      "stateCode": "ID-SU",
      "latitude": 1.9,
      "longitude": 98.66667
    },
    {
      "id": 1215554,
      "name": "Kabupaten Asahan",
      "nativeName": "Kabupaten Asahan",
      "code": "ID-SU-1215554",
      "countryId": 1643084,
      "countryCode": "ID",
      "stateCode": "ID-SU",
      "latitude": 2.83333,
      "longitude": 99.56667
    },
    {
      "id": 1215221,
      "name": "Kabupaten Dairi",
      "nativeName": "Kabupaten Dairi",
      "code": "ID-SU-1215221",
      "countryId": 1643084,
      "countryCode": "ID",
      "stateCode": "ID-SU",
      "latitude": 2.85,
      "longitude": 98.26667
    },
    {
      "id": 1215200,
      "name": "Kabupaten Deli Serdang",
      "nativeName": "Kabupaten Deli Serdang",
      "code": "ID-SU-1215200",
      "countryId": 1643084,
      "countryCode": "ID",
      "stateCode": "ID-SU",
      "latitude": 3.43333,
      "longitude": 98.7
    },
    {
      "id": 9162086,
      "name": "Kabupaten Humbang Hasundutan",
      "nativeName": "Kabupaten Humbang Hasundutan",
      "code": "ID-SU-9162086",
      "countryId": 1643084,
      "countryCode": "ID",
      "stateCode": "ID-SU",
      "latitude": 2.26551,
      "longitude": 98.50376
    },
    {
      "id": 1214929,
      "name": "Kabupaten Karo",
      "nativeName": "Kabupaten Karo",
      "code": "ID-SU-1214929",
      "countryId": 1643084,
      "countryCode": "ID",
      "stateCode": "ID-SU",
      "latitude": 3.1,
      "longitude": 98.3
    },
    {
      "id": 1214728,
      "name": "Kabupaten Langkat",
      "nativeName": "Kabupaten Langkat",
      "code": "ID-SU-1214728",
      "countryId": 1643084,
      "countryCode": "ID",
      "stateCode": "ID-SU",
      "latitude": 3.68528,
      "longitude": 98.21972
    },
    {
      "id": 9161518,
      "name": "Kabupaten Mandailing Natal",
      "nativeName": "Kabupaten Mandailing Natal",
      "code": "ID-SU-9161518",
      "countryId": 1643084,
      "countryCode": "ID",
      "stateCode": "ID-SU",
      "latitude": 0.78378,
      "longitude": 99.25495
    },
    {
      "id": 1214405,
      "name": "Kabupaten Nias",
      "nativeName": "Kabupaten Nias",
      "code": "ID-SU-1214405",
      "countryId": 1643084,
      "countryCode": "ID",
      "stateCode": "ID-SU",
      "latitude": 1.06667,
      "longitude": 97.73333
    },
    {
      "id": 8224057,
      "name": "Kabupaten Nias Selatan",
      "nativeName": "Kabupaten Nias Selatan",
      "code": "ID-SU-8224057",
      "countryId": 1643084,
      "countryCode": "ID",
      "stateCode": "ID-SU",
      "latitude": 0.77,
      "longitude": 97.75
    },
    {
      "id": 6725176,
      "name": "Kabupaten Pakpak Bharat",
      "nativeName": "Kabupaten Pakpak Bharat",
      "code": "ID-SU-6725176",
      "countryId": 1643084,
      "countryCode": "ID",
      "stateCode": "ID-SU",
      "latitude": 2.55444,
      "longitude": 98.24056
    },
    {
      "id": 6715130,
      "name": "Kabupaten Serdang Bedagai",
      "nativeName": "Kabupaten Serdang Bedagai",
      "code": "ID-SU-6715130",
      "countryId": 1643084,
      "countryCode": "ID",
      "stateCode": "ID-SU",
      "latitude": 3.36667,
      "longitude": 99.08333
    },
    {
      "id": 6726149,
      "name": "Kabupaten Tapanuli Utara",
      "nativeName": "Kabupaten Tapanuli Utara",
      "code": "ID-SU-6726149",
      "countryId": 1643084,
      "countryCode": "ID",
      "stateCode": "ID-SU",
      "latitude": 2.0028,
      "longitude": 99.0707
    },
    {
      "id": 9165769,
      "name": "Kabupaten Toba Samosir",
      "nativeName": "Kabupaten Toba Samosir",
      "code": "ID-SU-9165769",
      "countryId": 1643084,
      "countryCode": "ID",
      "stateCode": "ID-SU",
      "latitude": 2.39793,
      "longitude": 99.21678
    },
    {
      "id": 1648725,
      "name": "Kota Binjai",
      "nativeName": "Kota Binjai",
      "code": "ID-SU-1648725",
      "countryId": 1643084,
      "countryCode": "ID",
      "stateCode": "ID-SU",
      "latitude": 3.5986,
      "longitude": 98.48028
    },
    {
      "id": 9846663,
      "name": "Kota Gunungsitoli",
      "nativeName": "Kota Gunungsitoli",
      "code": "ID-SU-9846663",
      "countryId": 1643084,
      "countryCode": "ID",
      "stateCode": "ID-SU",
      "latitude": 1.32731,
      "longitude": 97.55018
    },
    {
      "id": 1214519,
      "name": "Kota Medan",
      "nativeName": "Kota Medan",
      "code": "ID-SU-1214519",
      "countryId": 1643084,
      "countryCode": "ID",
      "stateCode": "ID-SU",
      "latitude": 3.59333,
      "longitude": 98.66944
    },
    {
      "id": 9843575,
      "name": "Kota Padangsidimpuan",
      "nativeName": "Kota Padangsidimpuan",
      "code": "ID-SU-9843575",
      "countryId": 1643084,
      "countryCode": "ID",
      "stateCode": "ID-SU",
      "latitude": 1.37375,
      "longitude": 99.26843
    },
    {
      "id": 1214203,
      "name": "Kota Pematang Siantar",
      "nativeName": "Kota Pematang Siantar",
      "code": "ID-SU-1214203",
      "countryId": 1643084,
      "countryCode": "ID",
      "stateCode": "ID-SU",
      "latitude": 2.96667,
      "longitude": 99.06667
    },
    {
      "id": 1213854,
      "name": "Kota Sibolga",
      "nativeName": "Kota Sibolga",
      "code": "ID-SU-1213854",
      "countryId": 1643084,
      "countryCode": "ID",
      "stateCode": "ID-SU",
      "latitude": 1.74333,
      "longitude": 98.78694
    },
    {
      "id": 1213546,
      "name": "Kota Tanjung Balai",
      "nativeName": "Kota Tanjung Balai",
      "code": "ID-SU-1213546",
      "countryId": 1643084,
      "countryCode": "ID",
      "stateCode": "ID-SU",
      "latitude": 2.95,
      "longitude": 99.8
    },
    {
      "id": 1213498,
      "name": "Kota Tebing Tinggi",
      "nativeName": "Kota Tebing Tinggi",
      "code": "ID-SU-1213498",
      "countryId": 1643084,
      "countryCode": "ID",
      "stateCode": "ID-SU",
      "latitude": 3.325,
      "longitude": 99.14167
    },
    {
      "id": 1214801,
      "name": "Labuhan Batu Regency",
      "nativeName": "Kabupaten Labuhan Batu",
      "code": "ID-SU-1214801",
      "countryId": 1643084,
      "countryCode": "ID",
      "stateCode": "ID-SU",
      "latitude": 2.26667,
      "longitude": 100.1
    },
    {
      "id": 9821913,
      "name": "North Labuhan Batu Regency",
      "nativeName": "Kabupaten Labuhan Batu Utara",
      "code": "ID-SU-9821913",
      "countryId": 1643084,
      "countryCode": "ID",
      "stateCode": "ID-SU",
      "latitude": 2.33349,
      "longitude": 99.63776
    },
    {
      "id": 9843567,
      "name": "North Nias Regency",
      "nativeName": "Kabupaten Nias Utara",
      "code": "ID-SU-9843567",
      "countryId": 1643084,
      "countryCode": "ID",
      "stateCode": "ID-SU",
      "latitude": 1.33037,
      "longitude": 97.31964
    },
    {
      "id": 9821910,
      "name": "North Padang Lawas Regency",
      "nativeName": "Kabupaten Padang Lawas Utara",
      "code": "ID-SU-9821910",
      "countryId": 1643084,
      "countryCode": "ID",
      "stateCode": "ID-SU",
      "latitude": 1.46011,
      "longitude": 99.67346
    },
    {
      "id": 9821912,
      "name": "Padang Lawas Regency",
      "nativeName": "Kabupaten Padang Lawas",
      "code": "ID-SU-9821912",
      "countryId": 1643084,
      "countryCode": "ID",
      "stateCode": "ID-SU",
      "latitude": 1.15659,
      "longitude": 99.81136
    },
    {
      "id": 9162842,
      "name": "Samosir Regency",
      "nativeName": "Kabupaten Samosir",
      "code": "ID-SU-9162842",
      "countryId": 1643084,
      "countryCode": "ID",
      "stateCode": "ID-SU",
      "latitude": 2.64025,
      "longitude": 98.71525
    },
    {
      "id": 1213765,
      "name": "Simalungun Regency",
      "nativeName": "Kabupaten Simalungun",
      "code": "ID-SU-1213765",
      "countryId": 1643084,
      "countryCode": "ID",
      "stateCode": "ID-SU",
      "latitude": 2.88333,
      "longitude": 98.96667
    },
    {
      "id": 8611929,
      "name": "South Labuhan Batu Regency",
      "nativeName": "Kabupaten Labuhan Batu Selatan",
      "code": "ID-SU-8611929",
      "countryId": 1643084,
      "countryCode": "ID",
      "stateCode": "ID-SU",
      "latitude": 1.983,
      "longitude": 100.0976
    },
    {
      "id": 1213519,
      "name": "South Tapanuli Regency",
      "nativeName": "South Tapanuli Regency",
      "code": "ID-SU-1213519",
      "countryId": 1643084,
      "countryCode": "ID",
      "stateCode": "ID-SU",
      "latitude": 1.51667,
      "longitude": 99.25
    },
    {
      "id": 9828978,
      "name": "West Nias Regency",
      "nativeName": "Kabupaten Nias Barat",
      "code": "ID-SU-9828978",
      "countryId": 1643084,
      "countryCode": "ID",
      "stateCode": "ID-SU",
      "latitude": 1.05966,
      "longitude": 97.58606
    }
  ]
}