{
  "stateId": 3164604,
  "stateCode": "IT-34",
  "countryCode": "IT",
  "cities": [
    {
      "id": 3171727,
      "name": "Padua",
      "nativeName": "Provincia di Padova",
      "code": "IT-34-3171727",
      "countryId": 3175395,
      "countryCode": "IT",
      "stateCode": "IT-34",
      "latitude": 45.35,
      "longitude": 11.81667
    },
    {
      "id": 3182209,
      "name": "Province of Belluno",
      "nativeName": "Provincia di Belluno",
      "code": "IT-34-3182209",
      "countryId": 3175395,
      "countryCode": "IT",
      "stateCode": "IT-34",
      "latitude": 46.25,
      "longitude": 12.13333
    },
    {
      "id": 3168842,
      "name": "Province of Rovigo",
      "nativeName": "Provincia di Rovigo",
      "code": "IT-34-3168842",
      "countryId": 3175395,
      "countryCode": "IT",
      "stateCode": "IT-34",
      "latitude": 45.03333,
      "longitude": 11.83333
    },
    {
      "id": 3165200,
      "name": "Province of Treviso",
      "nativeName": "Provincia di Treviso",
      "code": "IT-34-3165200",
      "countryId": 3175395,
      "countryCode": "IT",
      "stateCode": "IT-34",
      "latitude": 45.83333,
      "longitude": 12.21667
    },
    {
      "id": 3164526,
      "name": "Province of Verona",
      "nativeName": "Provincia di Verona",
      "code": "IT-34-3164526",
      "countryId": 3175395,
      "countryCode": "IT",
      "stateCode": "IT-34",
      "latitude": 45.41667,
      "longitude": 11.03333
    },
    {
      "id": 3164418,
      "name": "Province of Vicenza",
      "nativeName": "Provincia di Vicenza",
      "code": "IT-34-3164418",
      "countryId": 3175395,
      "countryCode": "IT",
      "stateCode": "IT-34",
      "latitude": 45.66667,
      "longitude": 11.45
    },
    {
      "id": 3164600,
      "name": "Venice",
      "nativeName": "Provincia di Venezia",
      "code": "IT-34-3164600",
      "countryId": 3175395,
      "countryCode": "IT",
      "stateCode": "IT-34",
      "latitude": 45.44045,
      "longitude": 12.32632
    }
  ]
}