{
  "stateId": 3165361,
  "stateCode": "IT-52",
  "countryCode": "IT",
  "cities": [
    {
      "id": 3182882,
      "name": "Arezzo",
      "nativeName": "Province of Arezzo",
      "code": "IT-52-3182882",
      "countryId": 3175395,
      "countryCode": "IT",
      "stateCode": "IT-52",
      "latitude": 43.53333,
      "longitude": 11.83333
    },
    {
      "id": 3176958,
      "name": "Florence",
      "nativeName": "Province of Florence",
      "code": "IT-52-3176958",
      "countryId": 3175395,
      "countryCode": "IT",
      "stateCode": "IT-52",
      "latitude": 43.83333,
      "longitude": 11.33333
    },
    {
      "id": 3170646,
      "name": "Pisa",
      "nativeName": "Province of Pisa",
      "code": "IT-52-3170646",
      "countryId": 3175395,
      "countryCode": "IT",
      "stateCode": "IT-52",
      "latitude": 43.41667,
      "longitude": 10.71667
    },
    {
      "id": 3174658,
      "name": "Province of Livorno",
      "nativeName": "Provincia di Livorno",
      "code": "IT-52-3174658",
      "countryId": 3175395,
      "countryCode": "IT",
      "stateCode": "IT-52",
      "latitude": 43.23333,
      "longitude": 10.58333
    },
    {
      "id": 3174529,
      "name": "Province of Lucca",
      "nativeName": "Provincia di Lucca",
      "code": "IT-52-3174529",
      "countryId": 3175395,
      "countryCode": "IT",
      "stateCode": "IT-52",
      "latitude": 44.03333,
      "longitude": 10.45
    },
    {
      "id": 3173767,
      "name": "Province of Massa-Carrara",
      "nativeName": "Provincia di Massa-Carrara",
      "code": "IT-52-3173767",
      "countryId": 3175395,
      "countryCode": "IT",
      "stateCode": "IT-52",
      "latitude": 44.25,
      "longitude": 10.05
    },
    {
      "id": 3170620,
      "name": "Province of Pistoia",
      "nativeName": "Provincia di Pistoia",
      "code": "IT-52-3170620",
      "countryId": 3175395,
      "countryCode": "IT",
      "stateCode": "IT-52",
      "latitude": 43.96667,
      "longitude": 10.83333
    },
    {
      "id": 3166546,
      "name": "Province of Siena",
      "nativeName": "Provincia di Siena",
      "code": "IT-52-3166546",
      "countryId": 3175395,
      "countryCode": "IT",
      "stateCode": "IT-52",
      "latitude": 43.21667,
      "longitude": 11.4
    },
    {
      "id": 3175784,
      "name": "Provincia di Grosseto",
      "nativeName": "Provincia di Grosseto",
      "code": "IT-52-3175784",
      "countryId": 3175395,
      "countryCode": "IT",
      "stateCode": "IT-52",
      "latitude": 42.83333,
      "longitude": 11.25
    },
    {
      "id": 6458618,
      "name": "Provincia di Prato",
      "nativeName": "Provincia di Prato",
      "code": "IT-52-6458618",
      "countryId": 3175395,
      "countryCode": "IT",
      "stateCode": "IT-52",
      "latitude": 43.88046,
      "longitude": 11.09686
    }
  ]
}