{
  "stateId": 616051,
  "stateCode": "AM-ER",
  "countryCode": "AM",
  "cities": [
    {
      "id": 13156594,
      "name": "Ajapnyak",
      "nativeName": "Ajapnyak",
      "code": "AM-ER-13156594",
      "countryId": 174982,
      "countryCode": "AM",
      "stateCode": "AM-ER",
      "latitude": 40.19705,
      "longitude": 44.46706
    },
    {
      "id": 616205,
      "name": "Arabkir",
      "nativeName": "Arabkir",
      "code": "AM-ER-616205",
      "countryId": 174982,
      "countryCode": "AM",
      "stateCode": "AM-ER",
      "latitude": 40.20549,
      "longitude": 44.50699
    },
    {
      "id": 13156595,
      "name": "Avan",
      "nativeName": "Avan",
      "code": "AM-ER-13156595",
      "countryId": 174982,
      "countryCode": "AM",
      "stateCode": "AM-ER",
      "latitude": 40.21261,
      "longitude": 44.57795
    },
    {
      "id": 13156596,
      "name": "Davtashen",
      "nativeName": "Davtashen",
      "code": "AM-ER-13156596",
      "countryId": 174982,
      "countryCode": "AM",
      "stateCode": "AM-ER",
      "latitude": 40.21499,
      "longitude": 44.48384
    },
    {
      "id": 13156597,
      "name": "Erebuni",
      "nativeName": "Erebuni",
      "code": "AM-ER-13156597",
      "countryId": 174982,
      "countryCode": "AM",
      "stateCode": "AM-ER",
      "latitude": 40.13317,
      "longitude": 44.52696
    },
    {
      "id": 13156598,
      "name": "Kanaker-Zeytun",
      "nativeName": "Kanaker-Zeytun",
      "code": "AM-ER-13156598",
      "countryId": 174982,
      "countryCode": "AM",
      "stateCode": "AM-ER",
      "latitude": 40.22245,
      "longitude": 44.54033
    },
    {
      "id": 13156599,
      "name": "Kentron District",
      "nativeName": "Kentron District",
      "code": "AM-ER-13156599",
      "countryId": 174982,
      "countryCode": "AM",
      "stateCode": "AM-ER",
      "latitude": 40.18147,
      "longitude": 44.50312
    },
    {
      "id": 13156600,
      "name": "Malatia-Sebastia",
      "nativeName": "Malatia-Sebastia",
      "code": "AM-ER-13156600",
      "countryId": 174982,
      "countryCode": "AM",
      "stateCode": "AM-ER",
      "latitude": 40.18067,
      "longitude": 44.44885
    },
    {
      "id": 13156602,
      "name": "Nor Nork",
      "nativeName": "Nor Nork",
      "code": "AM-ER-13156602",
      "countryId": 174982,
      "countryCode": "AM",
      "stateCode": "AM-ER",
      "latitude": 40.19522,
      "longitude": 44.56583
    },
    {
      "id": 13156601,
      "name": "Nork-Marash",
      "nativeName": "Nork-Marash",
      "code": "AM-ER-13156601",
      "countryId": 174982,
      "countryCode": "AM",
      "stateCode": "AM-ER",
      "latitude": 40.17294,
      "longitude": 44.54264
    },
    {
      "id": 13156603,
      "name": "Nubarashen",
      "nativeName": "Nubarashen",
      "code": "AM-ER-13156603",
      "countryId": 174982,
      "countryCode": "AM",
      "stateCode": "AM-ER",
      "latitude": 40.08834,
      "longitude": 44.55139
    },
    {
      "id": 13156604,
      "name": "Shengavit",
      "nativeName": "Shengavit",
      "code": "AM-ER-13156604",
      "countryId": 174982,
      "countryCode": "AM",
      "stateCode": "AM-ER",
      "latitude": 40.15401,
      "longitude": 44.47679
    }
  ]
}