{
  "stateId": 828262,
  "stateCode": "AM-KT",
  "countryCode": "AM",
  "cities": [
    {
      "id": 13156544,
      "name": "Abovyan Municipality",
      "nativeName": "Abovyan Municipality",
      "code": "AM-KT-13156544",
      "countryId": 174982,
      "countryCode": "AM",
      "stateCode": "AM-KT",
      "latitude": 40.23511,
      "longitude": 44.71211
    },
    {
      "id": 13156548,
      "name": "Akunk Municipality",
      "nativeName": "Akunk Municipality",
      "code": "AM-KT-13156548",
      "countryId": 174982,
      "countryCode": "AM",
      "stateCode": "AM-KT",
      "latitude": 40.3376,
      "longitude": 44.77165
    },
    {
      "id": 13156543,
      "name": "Arzni Municipality",
      "nativeName": "Arzni Municipality",
      "code": "AM-KT-13156543",
      "countryId": 174982,
      "countryCode": "AM",
      "stateCode": "AM-KT",
      "latitude": 40.29544,
      "longitude": 44.59878
    },
    {
      "id": 13156547,
      "name": "Byureghavan Municipality",
      "nativeName": "Byureghavan Municipality",
      "code": "AM-KT-13156547",
      "countryId": 174982,
      "countryCode": "AM",
      "stateCode": "AM-KT",
      "latitude": 40.33404,
      "longitude": 44.61597
    },
    {
      "id": 13156549,
      "name": "Charentsavan Municipality",
      "nativeName": "Charentsavan Municipality",
      "code": "AM-KT-13156549",
      "countryId": 174982,
      "countryCode": "AM",
      "stateCode": "AM-KT",
      "latitude": 40.46522,
      "longitude": 44.64367
    },
    {
      "id": 13156546,
      "name": "Garni Municipality",
      "nativeName": "Garni Municipality",
      "code": "AM-KT-13156546",
      "countryId": 174982,
      "countryCode": "AM",
      "stateCode": "AM-KT",
      "latitude": 40.14735,
      "longitude": 44.7103
    },
    {
      "id": 13156550,
      "name": "Hrazdan Municipality",
      "nativeName": "Hrazdan Municipality",
      "code": "AM-KT-13156550",
      "countryId": 174982,
      "countryCode": "AM",
      "stateCode": "AM-KT",
      "latitude": 40.49533,
      "longitude": 44.80473
    },
    {
      "id": 13156545,
      "name": "Jrvezh Municipality",
      "nativeName": "Jrvezh Municipality",
      "code": "AM-KT-13156545",
      "countryId": 174982,
      "countryCode": "AM",
      "stateCode": "AM-KT",
      "latitude": 40.20435,
      "longitude": 44.65262
    },
    {
      "id": 13156540,
      "name": "Nairi Municipality",
      "nativeName": "Nairi Municipality",
      "code": "AM-KT-13156540",
      "countryId": 174982,
      "countryCode": "AM",
      "stateCode": "AM-KT",
      "latitude": 40.35162,
      "longitude": 44.50721
    },
    {
      "id": 13156542,
      "name": "Nor Hachn Municipality",
      "nativeName": "Nor Hachn Municipality",
      "code": "AM-KT-13156542",
      "countryId": 174982,
      "countryCode": "AM",
      "stateCode": "AM-KT",
      "latitude": 40.35317,
      "longitude": 44.58797
    },
    {
      "id": 13156551,
      "name": "Tsaghkadzor Municipality",
      "nativeName": "Tsaghkadzor Municipality",
      "code": "AM-KT-13156551",
      "countryId": 174982,
      "countryCode": "AM",
      "stateCode": "AM-KT",
      "latitude": 40.63659,
      "longitude": 44.64337
    }
  ]
}