{
  "stateId": 828263,
  "stateCode": "AM-LO",
  "countryCode": "AM",
  "cities": [
    {
      "id": 13156275,
      "name": "Alaverdi Municipality",
      "nativeName": "Alaverdi Municipality",
      "code": "AM-LO-13156275",
      "countryId": 174982,
      "countryCode": "AM",
      "stateCode": "AM-LO",
      "latitude": 41.11792,
      "longitude": 44.70712
    },
    {
      "id": 13156279,
      "name": "Fioletovo Municipality",
      "nativeName": "Fioletovo Municipality",
      "code": "AM-LO-13156279",
      "countryId": 174982,
      "countryCode": "AM",
      "stateCode": "AM-LO",
      "latitude": 40.731,
      "longitude": 44.73098
    },
    {
      "id": 13156284,
      "name": "Gyulagarak Municipality",
      "nativeName": "Gyulagarak Municipality",
      "code": "AM-LO-13156284",
      "countryId": 174982,
      "countryCode": "AM",
      "stateCode": "AM-LO",
      "latitude": 40.96094,
      "longitude": 44.50283
    },
    {
      "id": 13156278,
      "name": "Lermontovo Municipality",
      "nativeName": "Lermontovo Municipality",
      "code": "AM-LO-13156278",
      "countryId": 174982,
      "countryCode": "AM",
      "stateCode": "AM-LO",
      "latitude": 40.75262,
      "longitude": 44.62671
    },
    {
      "id": 13156285,
      "name": "Lori Berd Municipality",
      "nativeName": "Lori Berd Municipality",
      "code": "AM-LO-13156285",
      "countryId": 174982,
      "countryCode": "AM",
      "stateCode": "AM-LO",
      "latitude": 41.00921,
      "longitude": 44.54182
    },
    {
      "id": 13156277,
      "name": "Pambak Municipality",
      "nativeName": "Pambak Municipality",
      "code": "AM-LO-13156277",
      "countryId": 174982,
      "countryCode": "AM",
      "stateCode": "AM-LO",
      "latitude": 40.85428,
      "longitude": 44.60638
    },
    {
      "id": 13156281,
      "name": "Spitak Municipality",
      "nativeName": "Spitak Municipality",
      "code": "AM-LO-13156281",
      "countryId": 174982,
      "countryCode": "AM",
      "stateCode": "AM-LO",
      "latitude": 40.85436,
      "longitude": 44.22018
    },
    {
      "id": 13156282,
      "name": "Stepanavan Municipality",
      "nativeName": "Stepanavan Municipality",
      "code": "AM-LO-13156282",
      "countryId": 174982,
      "countryCode": "AM",
      "stateCode": "AM-LO",
      "latitude": 40.99229,
      "longitude": 44.38391
    },
    {
      "id": 13156283,
      "name": "Tashir Municipality",
      "nativeName": "Tashir Municipality",
      "code": "AM-LO-13156283",
      "countryId": 174982,
      "countryCode": "AM",
      "stateCode": "AM-LO",
      "latitude": 41.15321,
      "longitude": 44.34969
    },
    {
      "id": 13156276,
      "name": "Tumanyan Municipality",
      "nativeName": "Tumanyan Municipality",
      "code": "AM-LO-13156276",
      "countryId": 174982,
      "countryCode": "AM",
      "stateCode": "AM-LO",
      "latitude": 40.94459,
      "longitude": 44.73273
    },
    {
      "id": 13156280,
      "name": "Vanadzor Municipality",
      "nativeName": "Vanadzor Municipality",
      "code": "AM-LO-13156280",
      "countryId": 174982,
      "countryCode": "AM",
      "stateCode": "AM-LO",
      "latitude": 40.79346,
      "longitude": 44.49393
    }
  ]
}