{
  "stateId": 225282,
  "stateCode": "DJ-AS",
  "countryCode": "DJ",
  "cities": [
    {
      "id": 225284,
      "name": "Ali Sabih",
      "nativeName": "Ali Sabih",
      "code": "DJ-AS-225284",
      "countryId": 223816,
      "countryCode": "DJ",
      "stateCode": "DJ-AS",
      "latitude": 11.15583,
      "longitude": 42.7125
    },
    {
      "id": 12041422,
      "name": "Ali Oune",
      "nativeName": "Ali Oune",
      "code": "DJ-AS-12041422",
      "countryId": 223816,
      "countryCode": "DJ",
      "stateCode": "DJ-AS",
      "latitude": 11.39153,
      "longitude": 43.1415
    },
    {
      "id": 12041425,
      "name": "Anaba",
      "nativeName": "Anaba",
      "code": "DJ-AS-12041425",
      "countryId": 223816,
      "countryCode": "DJ",
      "stateCode": "DJ-AS",
      "latitude": 11.35271,
      "longitude": 42.94184
    },
    {
      "id": 12041426,
      "name": "Assa Hougoud",
      "nativeName": "Assa Hougoud",
      "code": "DJ-AS-12041426",
      "countryId": 223816,
      "countryCode": "DJ",
      "stateCode": "DJ-AS",
      "latitude": 11.38526,
      "longitude": 42.82796
    },
    {
      "id": 12036312,
      "name": "Chabelley",
      "nativeName": "Chabelley",
      "code": "DJ-AS-12036312",
      "countryId": 223816,
      "countryCode": "DJ",
      "stateCode": "DJ-AS",
      "latitude": 11.4895,
      "longitude": 43.07528
    },
    {
      "id": 12041437,
      "name": "Dasbiyo",
      "nativeName": "Dasbiyo",
      "code": "DJ-AS-12041437",
      "countryId": 223816,
      "countryCode": "DJ",
      "stateCode": "DJ-AS",
      "latitude": 11.25271,
      "longitude": 42.79879
    },
    {
      "id": 223011,
      "name": "Goubéto",
      "nativeName": "Goubéto",
      "code": "DJ-AS-223011",
      "countryId": 223816,
      "countryCode": "DJ",
      "stateCode": "DJ-AS",
      "latitude": 11.41667,
      "longitude": 42.98333
    },
    {
      "id": 404235,
      "name": "Goubétto",
      "nativeName": "Goubétto",
      "code": "DJ-AS-404235",
      "countryId": 223816,
      "countryCode": "DJ",
      "stateCode": "DJ-AS",
      "latitude": 11.42389,
      "longitude": 43.00028
    },
    {
      "id": 222596,
      "name": "Holhol",
      "nativeName": "Holhol",
      "code": "DJ-AS-222596",
      "countryId": 223816,
      "countryCode": "DJ",
      "stateCode": "DJ-AS",
      "latitude": 11.31028,
      "longitude": 42.92944
    },
    {
      "id": 8346841,
      "name": "Vasama",
      "nativeName": "Vasama",
      "code": "DJ-AS-8346841",
      "countryId": 223816,
      "countryCode": "DJ",
      "stateCode": "DJ-AS",
      "latitude": 10.98914,
      "longitude": 42.84125
    },
    {
      "id": 409763,
      "name": "Ḏigri",
      "nativeName": "Ḏigri",
      "code": "DJ-AS-409763",
      "countryId": 223816,
      "countryCode": "DJ",
      "stateCode": "DJ-AS",
      "latitude": 11.2975,
      "longitude": 42.85333
    },
    {
      "id": 224152,
      "name": "Ḏânan",
      "nativeName": "Ḏânan",
      "code": "DJ-AS-224152",
      "countryId": 223816,
      "countryCode": "DJ",
      "stateCode": "DJ-AS",
      "latitude": 11.18333,
      "longitude": 42.93333
    },
    {
      "id": 225310,
      "name": "‘Ali ‘Addé",
      "nativeName": "‘Ali ‘Addé",
      "code": "DJ-AS-225310",
      "countryId": 223816,
      "countryCode": "DJ",
      "stateCode": "DJ-AS",
      "latitude": 11.13333,
      "longitude": 42.88583
    }
  ]
}