{
  "stateId": 220781,
  "stateCode": "DJ-TA",
  "countryCode": "DJ",
  "cities": [
    {
      "id": 220782,
      "name": "Tadjoura",
      "nativeName": "Tadjoura",
      "code": "DJ-TA-220782",
      "countryId": 223816,
      "countryCode": "DJ",
      "stateCode": "DJ-TA",
      "latitude": 11.78778,
      "longitude": 42.88222
    },
    {
      "id": 12041421,
      "name": "Adailou",
      "nativeName": "Adailou",
      "code": "DJ-TA-12041421",
      "countryId": 223816,
      "countryCode": "DJ",
      "stateCode": "DJ-TA",
      "latitude": 11.95186,
      "longitude": 42.90535
    },
    {
      "id": 12041424,
      "name": "Adoyla",
      "nativeName": "Adoyla",
      "code": "DJ-TA-12041424",
      "countryId": 223816,
      "countryCode": "DJ",
      "stateCode": "DJ-TA",
      "latitude": 11.9584,
      "longitude": 42.64788
    },
    {
      "id": 225398,
      "name": "Airolaf",
      "nativeName": "Airolaf",
      "code": "DJ-TA-225398",
      "countryId": 223816,
      "countryCode": "DJ",
      "stateCode": "DJ-TA",
      "latitude": 11.77028,
      "longitude": 42.65194
    },
    {
      "id": 398121,
      "name": "Ambabbo",
      "nativeName": "Ambabbo",
      "code": "DJ-TA-398121",
      "countryId": 223816,
      "countryCode": "DJ",
      "stateCode": "DJ-TA",
      "latitude": 11.75111,
      "longitude": 42.81444
    },
    {
      "id": 224660,
      "name": "Balho",
      "nativeName": "Balho",
      "code": "DJ-TA-224660",
      "countryId": 223816,
      "countryCode": "DJ",
      "stateCode": "DJ-TA",
      "latitude": 12.05786,
      "longitude": 42.19547
    },
    {
      "id": 224643,
      "name": "Bankoualé",
      "nativeName": "Bankoualé",
      "code": "DJ-TA-224643",
      "countryId": 223816,
      "countryCode": "DJ",
      "stateCode": "DJ-TA",
      "latitude": 11.82278,
      "longitude": 42.67361
    },
    {
      "id": 12041428,
      "name": "Bouyya",
      "nativeName": "Bouyya",
      "code": "DJ-TA-12041428",
      "countryId": 223816,
      "countryCode": "DJ",
      "stateCode": "DJ-TA",
      "latitude": 12.36799,
      "longitude": 42.36343
    },
    {
      "id": 223773,
      "name": "Dorra",
      "nativeName": "Dorra",
      "code": "DJ-TA-223773",
      "countryId": 223816,
      "countryCode": "DJ",
      "stateCode": "DJ-TA",
      "latitude": 12.15028,
      "longitude": 42.47624
    },
    {
      "id": 12041431,
      "name": "Guirrari",
      "nativeName": "Guirrari",
      "code": "DJ-TA-12041431",
      "countryId": 223816,
      "countryCode": "DJ",
      "stateCode": "DJ-TA",
      "latitude": 12.04898,
      "longitude": 42.78536
    },
    {
      "id": 12041441,
      "name": "Madgoul",
      "nativeName": "Madgoul",
      "code": "DJ-TA-12041441",
      "countryId": 223816,
      "countryCode": "DJ",
      "stateCode": "DJ-TA",
      "latitude": 12.35495,
      "longitude": 42.47629
    },
    {
      "id": 12041442,
      "name": "Malaho",
      "nativeName": "Malaho",
      "code": "DJ-TA-12041442",
      "countryId": 223816,
      "countryCode": "DJ",
      "stateCode": "DJ-TA",
      "latitude": 12.09889,
      "longitude": 42.20977
    },
    {
      "id": 221629,
      "name": "Mouddo",
      "nativeName": "Moudo",
      "code": "DJ-TA-221629",
      "countryId": 223816,
      "countryCode": "DJ",
      "stateCode": "DJ-TA",
      "latitude": 12.3,
      "longitude": 42.43333
    },
    {
      "id": 12041443,
      "name": "Oued Ouea",
      "nativeName": "Oued Ouea",
      "code": "DJ-TA-12041443",
      "countryId": 223816,
      "countryCode": "DJ",
      "stateCode": "DJ-TA",
      "latitude": 11.68004,
      "longitude": 42.68989
    },
    {
      "id": 398086,
      "name": "Ouê‘a",
      "nativeName": "Ouê‘a",
      "code": "DJ-TA-398086",
      "countryId": 223816,
      "countryCode": "DJ",
      "stateCode": "DJ-TA",
      "latitude": 11.69056,
      "longitude": 42.68667
    },
    {
      "id": 221103,
      "name": "Randa",
      "nativeName": "Randa",
      "code": "DJ-TA-221103",
      "countryId": 223816,
      "countryCode": "DJ",
      "stateCode": "DJ-TA",
      "latitude": 11.84694,
      "longitude": 42.66056
    }
  ]
}