{
  "stateId": 865734,
  "stateCode": "AL-06",
  "countryCode": "AL",
  "cities": [
    {
      "id": 10944400,
      "name": "Bashkia Devoll",
      "nativeName": "Bashkia Devoll",
      "code": "AL-06-10944400",
      "countryId": 783754,
      "countryCode": "AL",
      "stateCode": "AL-06",
      "latitude": 40.60078,
      "longitude": 20.93814
    },
    {
      "id": 10944401,
      "name": "Bashkia Kolonjë",
      "nativeName": "Bashkia Kolonjë",
      "code": "AL-06-10944401",
      "countryId": 783754,
      "countryCode": "AL",
      "stateCode": "AL-06",
      "latitude": 40.3142,
      "longitude": 20.61482
    },
    {
      "id": 10944402,
      "name": "Bashkia Korçë",
      "nativeName": "Bashkia Korçë",
      "code": "AL-06-10944402",
      "countryId": 783754,
      "countryCode": "AL",
      "stateCode": "AL-06",
      "latitude": 40.57506,
      "longitude": 20.62952
    },
    {
      "id": 10944403,
      "name": "Bashkia Maliq",
      "nativeName": "Bashkia Maliq",
      "code": "AL-06-10944403",
      "countryId": 783754,
      "countryCode": "AL",
      "stateCode": "AL-06",
      "latitude": 40.75508,
      "longitude": 20.60748
    },
    {
      "id": 10944404,
      "name": "Bashkia Pogradec",
      "nativeName": "Bashkia Pogradec",
      "code": "AL-06-10944404",
      "countryId": 783754,
      "countryCode": "AL",
      "stateCode": "AL-06",
      "latitude": 40.92409,
      "longitude": 20.59645
    },
    {
      "id": 10944405,
      "name": "Bashkia Pustec",
      "nativeName": "Bashkia Pustec",
      "code": "AL-06-10944405",
      "countryId": 783754,
      "countryCode": "AL",
      "stateCode": "AL-06",
      "latitude": 40.83591,
      "longitude": 20.89405
    }
  ]
}