{
  "stateId": 1508290,
  "stateCode": "RU-CHE",
  "countryCode": "RU",
  "cities": [
    {
      "id": 584048,
      "name": "Agapovskiy Rayon",
      "nativeName": "Agapovskiy Rayon",
      "code": "RU-CHE-584048",
      "countryId": 2017370,
      "countryCode": "RU",
      "stateCode": "RU-CHE",
      "latitude": 53.27263,
      "longitude": 59.31083
    },
    {
      "id": 1511424,
      "name": "Argayashsky District",
      "nativeName": "Argayashskiy Rayon",
      "code": "RU-CHE-1511424",
      "countryId": 2017370,
      "countryCode": "RU",
      "stateCode": "RU-CHE",
      "latitude": 55.41667,
      "longitude": 60.75
    },
    {
      "id": 580620,
      "name": "Ashinskiy Rayon",
      "nativeName": "Ashinskiy Rayon",
      "code": "RU-CHE-580620",
      "countryId": 2017370,
      "countryCode": "RU",
      "stateCode": "RU-CHE",
      "latitude": 55.02306,
      "longitude": 57.56186
    },
    {
      "id": 13197482,
      "name": "Ashinskoye Gorodskoye Poseleniye",
      "nativeName": "Ashinskoye Gorodskoye Poseleniye",
      "code": "RU-CHE-13197482",
      "countryId": 2017370,
      "countryCode": "RU",
      "stateCode": "RU-CHE",
      "latitude": 54.98814,
      "longitude": 57.26211
    },
    {
      "id": 1508812,
      "name": "Bredinsky District",
      "nativeName": "Bredinskiy Rayon",
      "code": "RU-CHE-1508812",
      "countryId": 2017370,
      "countryCode": "RU",
      "stateCode": "RU-CHE",
      "latitude": 52.5,
      "longitude": 60.41667
    },
    {
      "id": 13197486,
      "name": "Chebarkul'skiy Gorodskoy Okrug",
      "nativeName": "Chebarkul'skiy Gorodskoy Okrug",
      "code": "RU-CHE-13197486",
      "countryId": 2017370,
      "countryCode": "RU",
      "stateCode": "RU-CHE",
      "latitude": 54.96966,
      "longitude": 60.40379
    },
    {
      "id": 1508346,
      "name": "Chebarkulsky District",
      "nativeName": "Chebarkul’skiy Rayon",
      "code": "RU-CHE-1508346",
      "countryId": 2017370,
      "countryCode": "RU",
      "stateCode": "RU-CHE",
      "latitude": 54.83333,
      "longitude": 60.5
    },
    {
      "id": 12625109,
      "name": "Chebarkulsky Urban Okrug",
      "nativeName": "Chebarkulsky Urban Okrug",
      "code": "RU-CHE-12625109",
      "countryId": 2017370,
      "countryCode": "RU",
      "stateCode": "RU-CHE",
      "latitude": 54.9703,
      "longitude": 60.34977
    },
    {
      "id": 1535932,
      "name": "Chelyabinskiy Gorodskoy Okrug",
      "nativeName": "Chelyabinskiy Gorodskoy Okrug",
      "code": "RU-CHE-1535932",
      "countryId": 2017370,
      "countryCode": "RU",
      "stateCode": "RU-CHE",
      "latitude": 55.16816,
      "longitude": 61.42824
    },
    {
      "id": 1507924,
      "name": "Chesmensky District",
      "nativeName": "Chesmenskiy Rayon",
      "code": "RU-CHE-1507924",
      "countryId": 2017370,
      "countryCode": "RU",
      "stateCode": "RU-CHE",
      "latitude": 53.7661,
      "longitude": 60.5965
    },
    {
      "id": 1535935,
      "name": "Karabashskiy Gorodskoy Okrug",
      "nativeName": "Karabashskiy Gorodskoy Okrug",
      "code": "RU-CHE-1535935",
      "countryId": 2017370,
      "countryCode": "RU",
      "stateCode": "RU-CHE",
      "latitude": 55.54252,
      "longitude": 60.18313
    },
    {
      "id": 1504318,
      "name": "Kartalinsky District",
      "nativeName": "Kartalinskiy Rayon",
      "code": "RU-CHE-1504318",
      "countryId": 2017370,
      "countryCode": "RU",
      "stateCode": "RU-CHE",
      "latitude": 53.07282,
      "longitude": 60.38953
    },
    {
      "id": 1504250,
      "name": "Kaslinsky District",
      "nativeName": "Kaslinskiy Rayon",
      "code": "RU-CHE-1504250",
      "countryId": 2017370,
      "countryCode": "RU",
      "stateCode": "RU-CHE",
      "latitude": 56.0233,
      "longitude": 60.98108
    },
    {
      "id": 551793,
      "name": "Katav-Ivanovsky District",
      "nativeName": "Katav-Ivanovskiy Rayon",
      "code": "RU-CHE-551793",
      "countryId": 2017370,
      "countryCode": "RU",
      "stateCode": "RU-CHE",
      "latitude": 54.67463,
      "longitude": 58.17715
    },
    {
      "id": 547854,
      "name": "Kizil’skiy Rayon",
      "nativeName": "Kizil’skiy Rayon",
      "code": "RU-CHE-547854",
      "countryId": 2017370,
      "countryCode": "RU",
      "stateCode": "RU-CHE",
      "latitude": 52.7271,
      "longitude": 59.24904
    },
    {
      "id": 1535936,
      "name": "Kopeyskiy Gorodskoy Okrug",
      "nativeName": "Kopeyskiy Gorodskoy Okrug",
      "code": "RU-CHE-1535936",
      "countryId": 2017370,
      "countryCode": "RU",
      "stateCode": "RU-CHE",
      "latitude": 55.06833,
      "longitude": 61.58101
    },
    {
      "id": 1535937,
      "name": "Korkinsky District",
      "nativeName": "Korkinskij rayon",
      "code": "RU-CHE-1535937",
      "countryId": 2017370,
      "countryCode": "RU",
      "stateCode": "RU-CHE",
      "latitude": 54.9,
      "longitude": 61.4
    },
    {
      "id": 1502125,
      "name": "Krasnoarmeysky District",
      "nativeName": "Krasnoarmeyskiy Rayon",
      "code": "RU-CHE-1502125",
      "countryId": 2017370,
      "countryCode": "RU",
      "stateCode": "RU-CHE",
      "latitude": 55.41258,
      "longitude": 61.99455
    },
    {
      "id": 1501399,
      "name": "Kunashaksky District",
      "nativeName": "Kunashakskiy Rayon",
      "code": "RU-CHE-1501399",
      "countryId": 2017370,
      "countryCode": "RU",
      "stateCode": "RU-CHE",
      "latitude": 55.82801,
      "longitude": 61.67625
    },
    {
      "id": 538327,
      "name": "Kusinskiy Rayon",
      "nativeName": "Kusinskiy Rayon",
      "code": "RU-CHE-538327",
      "countryId": 2017370,
      "countryCode": "RU",
      "stateCode": "RU-CHE",
      "latitude": 55.40501,
      "longitude": 59.5761
    },
    {
      "id": 1535938,
      "name": "Kyshtymskiy Gorodskoy Okrug",
      "nativeName": "Kyshtymskiy Gorodskoy Okrug",
      "code": "RU-CHE-1535938",
      "countryId": 2017370,
      "countryCode": "RU",
      "stateCode": "RU-CHE",
      "latitude": 55.72243,
      "longitude": 60.42598
    },
    {
      "id": 13197481,
      "name": "Lokomotivnyy Gorodskoy Okrug",
      "nativeName": "Lokomotivnyy Gorodskoy Okrug",
      "code": "RU-CHE-13197481",
      "countryId": 2017370,
      "countryCode": "RU",
      "stateCode": "RU-CHE",
      "latitude": 53.04095,
      "longitude": 60.60293
    },
    {
      "id": 825030,
      "name": "Magnitogorskiy Gorodskoy Okrug",
      "nativeName": "Magnitogorskiy Gorodskoy Okrug",
      "code": "RU-CHE-825030",
      "countryId": 2017370,
      "countryCode": "RU",
      "stateCode": "RU-CHE",
      "latitude": 53.40619,
      "longitude": 59.05798
    },
    {
      "id": 1535939,
      "name": "Miasskiy Gorodskoy Okrug",
      "nativeName": "Miasskiy Gorodskoy Okrug",
      "code": "RU-CHE-1535939",
      "countryId": 2017370,
      "countryCode": "RU",
      "stateCode": "RU-CHE",
      "latitude": 55.06781,
      "longitude": 60.05713
    },
    {
      "id": 523633,
      "name": "Nagaybaksky District",
      "nativeName": "Nagaybakskiy Rayon",
      "code": "RU-CHE-523633",
      "countryId": 2017370,
      "countryCode": "RU",
      "stateCode": "RU-CHE",
      "latitude": 53.57602,
      "longitude": 59.80361
    },
    {
      "id": 516613,
      "name": "Nyazepetrovsky District",
      "nativeName": "Nyazepetrovskiy Rayon",
      "code": "RU-CHE-516613",
      "countryId": 2017370,
      "countryCode": "RU",
      "stateCode": "RU-CHE",
      "latitude": 55.95316,
      "longitude": 59.55779
    },
    {
      "id": 1496266,
      "name": "Oktyabrsky District",
      "nativeName": "Oktyabr’skiy Rayon",
      "code": "RU-CHE-1496266",
      "countryId": 2017370,
      "countryCode": "RU",
      "stateCode": "RU-CHE",
      "latitude": 54.3776,
      "longitude": 62.66423
    },
    {
      "id": 12625360,
      "name": "Ozyorsky Urban District",
      "nativeName": "Ozyorsky Urban District",
      "code": "RU-CHE-12625360",
      "countryId": 2017370,
      "countryCode": "RU",
      "stateCode": "RU-CHE",
      "latitude": 55.75356,
      "longitude": 60.69921
    },
    {
      "id": 1535940,
      "name": "Plastovsky District",
      "nativeName": "Plastovskij rayon",
      "code": "RU-CHE-1535940",
      "countryId": 2017370,
      "countryCode": "RU",
      "stateCode": "RU-CHE",
      "latitude": 54.33333,
      "longitude": 60.66667
    },
    {
      "id": 498416,
      "name": "Sebezhsky District",
      "nativeName": "Satkinskiy Rayon",
      "code": "RU-CHE-498416",
      "countryId": 2017370,
      "countryCode": "RU",
      "stateCode": "RU-CHE",
      "latitude": 54.9735,
      "longitude": 59.02318
    },
    {
      "id": 12625361,
      "name": "Snezhinsk",
      "nativeName": "Snezhinsk",
      "code": "RU-CHE-12625361",
      "countryId": 2017370,
      "countryCode": "RU",
      "stateCode": "RU-CHE",
      "latitude": 56.07995,
      "longitude": 60.73537
    },
    {
      "id": 13197483,
      "name": "Snezhinskiy Gorodskoy Okrug",
      "nativeName": "Snezhinskiy Gorodskoy Okrug",
      "code": "RU-CHE-13197483",
      "countryId": 2017370,
      "countryCode": "RU",
      "stateCode": "RU-CHE",
      "latitude": 56.10327,
      "longitude": 60.68127
    },
    {
      "id": 1491282,
      "name": "Sosnovsky District",
      "nativeName": "Sosnovskiy Rayon",
      "code": "RU-CHE-1491282",
      "countryId": 2017370,
      "countryCode": "RU",
      "stateCode": "RU-CHE",
      "latitude": 55.25349,
      "longitude": 61.17844
    },
    {
      "id": 12625111,
      "name": "Trekhgorny Urban District",
      "nativeName": "Trekhgorny Urban District",
      "code": "RU-CHE-12625111",
      "countryId": 2017370,
      "countryCode": "RU",
      "stateCode": "RU-CHE",
      "latitude": 54.81398,
      "longitude": 58.44691
    },
    {
      "id": 13197487,
      "name": "Troitskiy Gorodskoy Okrug",
      "nativeName": "Troitskiy Gorodskoy Okrug",
      "code": "RU-CHE-13197487",
      "countryId": 2017370,
      "countryCode": "RU",
      "stateCode": "RU-CHE",
      "latitude": 54.07926,
      "longitude": 61.57183
    },
    {
      "id": 1489213,
      "name": "Troitsky District",
      "nativeName": "Troitskiy Rayon",
      "code": "RU-CHE-1489213",
      "countryId": 2017370,
      "countryCode": "RU",
      "stateCode": "RU-CHE",
      "latitude": 54.19669,
      "longitude": 61.33838
    },
    {
      "id": 13197485,
      "name": "Trëkhgornyy Gorodskoy Okrug",
      "nativeName": "Trëkhgornyy Gorodskoy Okrug",
      "code": "RU-CHE-13197485",
      "countryId": 2017370,
      "countryCode": "RU",
      "stateCode": "RU-CHE",
      "latitude": 54.80395,
      "longitude": 58.53955
    },
    {
      "id": 825031,
      "name": "Ust'-Katavskiy Gorodskoy Okrug",
      "nativeName": "Ust'-Katavskiy Gorodskoy Okrug",
      "code": "RU-CHE-825031",
      "countryId": 2017370,
      "countryCode": "RU",
      "stateCode": "RU-CHE",
      "latitude": 54.99921,
      "longitude": 58.28312
    },
    {
      "id": 1487930,
      "name": "Uvelsky District",
      "nativeName": "Uvel’skiy Rayon",
      "code": "RU-CHE-1487930",
      "countryId": 2017370,
      "countryCode": "RU",
      "stateCode": "RU-CHE",
      "latitude": 54.49394,
      "longitude": 61.52418
    },
    {
      "id": 1487907,
      "name": "Uysky District",
      "nativeName": "Uyskiy Rayon",
      "code": "RU-CHE-1487907",
      "countryId": 2017370,
      "countryCode": "RU",
      "stateCode": "RU-CHE",
      "latitude": 54.36128,
      "longitude": 60.08333
    },
    {
      "id": 1487759,
      "name": "Varnensky District",
      "nativeName": "Varnenskiy Rayon",
      "code": "RU-CHE-1487759",
      "countryId": 2017370,
      "countryCode": "RU",
      "stateCode": "RU-CHE",
      "latitude": 53.20251,
      "longitude": 61.17586
    },
    {
      "id": 1535933,
      "name": "Verkhneufaleyskiy Gorodskoy Okrug",
      "nativeName": "Verkhneufaleyskiy Gorodskoy Okrug",
      "code": "RU-CHE-1535933",
      "countryId": 2017370,
      "countryCode": "RU",
      "stateCode": "RU-CHE",
      "latitude": 55.99681,
      "longitude": 60.16134
    },
    {
      "id": 475462,
      "name": "Verkhneuralsky District",
      "nativeName": "Verkhneural’skiy Rayon",
      "code": "RU-CHE-475462",
      "countryId": 2017370,
      "countryCode": "RU",
      "stateCode": "RU-CHE",
      "latitude": 53.99767,
      "longitude": 59.45233
    },
    {
      "id": 12625362,
      "name": "Verkhny Ufaley",
      "nativeName": "Verkhny Ufaley",
      "code": "RU-CHE-12625362",
      "countryId": 2017370,
      "countryCode": "RU",
      "stateCode": "RU-CHE",
      "latitude": 56.05049,
      "longitude": 60.22538
    },
    {
      "id": 1535934,
      "name": "Yemanzhelinsky District",
      "nativeName": "Yemanzhelinskiy rayon",
      "code": "RU-CHE-1535934",
      "countryId": 2017370,
      "countryCode": "RU",
      "stateCode": "RU-CHE",
      "latitude": 54.75,
      "longitude": 61.33333
    },
    {
      "id": 1485846,
      "name": "Yetkulsky District",
      "nativeName": "Yetkul’skiy Rayon",
      "code": "RU-CHE-1485846",
      "countryId": 2017370,
      "countryCode": "RU",
      "stateCode": "RU-CHE",
      "latitude": 54.80861,
      "longitude": 61.51346
    },
    {
      "id": 1535941,
      "name": "Yuzhnoural'skiy Gorodskoy Okrug",
      "nativeName": "Yuzhnoural'skiy Gorodskoy Okrug",
      "code": "RU-CHE-1535941",
      "countryId": 2017370,
      "countryCode": "RU",
      "stateCode": "RU-CHE",
      "latitude": 54.46155,
      "longitude": 61.25384
    },
    {
      "id": 12625112,
      "name": "Yuzhnouralsk District",
      "nativeName": "Yuzhnouralsk District",
      "code": "RU-CHE-12625112",
      "countryId": 2017370,
      "countryCode": "RU",
      "stateCode": "RU-CHE",
      "latitude": 54.43254,
      "longitude": 61.25552
    },
    {
      "id": 825029,
      "name": "Zlatoustovskiy Gorodskoy Okrug",
      "nativeName": "Zlatoustovskiy Gorodskoy Okrug",
      "code": "RU-CHE-825029",
      "countryId": 2017370,
      "countryCode": "RU",
      "stateCode": "RU-CHE",
      "latitude": 54.99835,
      "longitude": 59.50662
    }
  ]
}