{
  "stateId": 1508290,
  "stateCode": "RU-CHE",
  "countryCode": "RU",
  "cities": [
    {
      "id": 584048,
      "name": "Agapovskiy Rayon",
      "nativeName": "Agapovskiy Rayon",
      "code": "RU-CHE-584048",
      "countryId": 2017370,
      "countryCode": "RU",
      "stateCode": "RU-CHE",
      "latitude": 53.33333,
      "longitude": 59.33333
    },
    {
      "id": 1511424,
      "name": "Argayashsky District",
      "nativeName": "Argayashskiy Rayon",
      "code": "RU-CHE-1511424",
      "countryId": 2017370,
      "countryCode": "RU",
      "stateCode": "RU-CHE",
      "latitude": 55.41667,
      "longitude": 60.75
    },
    {
      "id": 580620,
      "name": "Ashinskiy Rayon",
      "nativeName": "Ashinskiy Rayon",
      "code": "RU-CHE-580620",
      "countryId": 2017370,
      "countryCode": "RU",
      "stateCode": "RU-CHE",
      "latitude": 55,
      "longitude": 57.5
    },
    {
      "id": 1508812,
      "name": "Bredinsky District",
      "nativeName": "Bredinskiy Rayon",
      "code": "RU-CHE-1508812",
      "countryId": 2017370,
      "countryCode": "RU",
      "stateCode": "RU-CHE",
      "latitude": 52.5,
      "longitude": 60.41667
    },
    {
      "id": 1508346,
      "name": "Chebarkulsky District",
      "nativeName": "Chebarkul’skiy Rayon",
      "code": "RU-CHE-1508346",
      "countryId": 2017370,
      "countryCode": "RU",
      "stateCode": "RU-CHE",
      "latitude": 54.83333,
      "longitude": 60.5
    },
    {
      "id": 12625109,
      "name": "Chebarkulsky Urban Okrug",
      "nativeName": "Chebarkulsky Urban Okrug",
      "code": "RU-CHE-12625109",
      "countryId": 2017370,
      "countryCode": "RU",
      "stateCode": "RU-CHE",
      "latitude": 54.9703,
      "longitude": 60.34977
    },
    {
      "id": 1507924,
      "name": "Chesmensky District",
      "nativeName": "Chesmenskiy Rayon",
      "code": "RU-CHE-1507924",
      "countryId": 2017370,
      "countryCode": "RU",
      "stateCode": "RU-CHE",
      "latitude": 53.66667,
      "longitude": 60.5
    },
    {
      "id": 1535932,
      "name": "Gorod Chelyabinsk",
      "nativeName": "Gorod Chelyabinsk",
      "code": "RU-CHE-1535932",
      "countryId": 2017370,
      "countryCode": "RU",
      "stateCode": "RU-CHE",
      "latitude": 55.16553,
      "longitude": 61.41673
    },
    {
      "id": 1535935,
      "name": "Gorod Karabash",
      "nativeName": "Gorod Karabash",
      "code": "RU-CHE-1535935",
      "countryId": 2017370,
      "countryCode": "RU",
      "stateCode": "RU-CHE",
      "latitude": 55.5,
      "longitude": 60.16667
    },
    {
      "id": 1535936,
      "name": "Gorod Kopeysk",
      "nativeName": "Gorod Kopeysk",
      "code": "RU-CHE-1535936",
      "countryId": 2017370,
      "countryCode": "RU",
      "stateCode": "RU-CHE",
      "latitude": 55.08333,
      "longitude": 61.58333
    },
    {
      "id": 1535938,
      "name": "Gorod Kyshtym",
      "nativeName": "Gorod Kyshtym",
      "code": "RU-CHE-1535938",
      "countryId": 2017370,
      "countryCode": "RU",
      "stateCode": "RU-CHE",
      "latitude": 55.66667,
      "longitude": 60.5
    },
    {
      "id": 825030,
      "name": "Gorod Magnitogorsk",
      "nativeName": "Gorod Magnitogorsk",
      "code": "RU-CHE-825030",
      "countryId": 2017370,
      "countryCode": "RU",
      "stateCode": "RU-CHE",
      "latitude": 53.41667,
      "longitude": 59.08333
    },
    {
      "id": 1535939,
      "name": "Gorod Miass",
      "nativeName": "Gorod Miass",
      "code": "RU-CHE-1535939",
      "countryId": 2017370,
      "countryCode": "RU",
      "stateCode": "RU-CHE",
      "latitude": 55.08333,
      "longitude": 60
    },
    {
      "id": 825031,
      "name": "Gorod Ust’-Katav",
      "nativeName": "Gorod Ust’-Katav",
      "code": "RU-CHE-825031",
      "countryId": 2017370,
      "countryCode": "RU",
      "stateCode": "RU-CHE",
      "latitude": 55,
      "longitude": 58.25
    },
    {
      "id": 1535933,
      "name": "Gorod Verkhniy Ufaley",
      "nativeName": "Gorod Verkhniy Ufaley",
      "code": "RU-CHE-1535933",
      "countryId": 2017370,
      "countryCode": "RU",
      "stateCode": "RU-CHE",
      "latitude": 56,
      "longitude": 60.16667
    },
    {
      "id": 1535941,
      "name": "Gorod Yuzhnoural’sk",
      "nativeName": "Gorod Yuzhnoural’sk",
      "code": "RU-CHE-1535941",
      "countryId": 2017370,
      "countryCode": "RU",
      "stateCode": "RU-CHE",
      "latitude": 54.46667,
      "longitude": 61.25
    },
    {
      "id": 825029,
      "name": "Gorod Zlatoust",
      "nativeName": "Gorod Zlatoust",
      "code": "RU-CHE-825029",
      "countryId": 2017370,
      "countryCode": "RU",
      "stateCode": "RU-CHE",
      "latitude": 55,
      "longitude": 59.5
    },
    {
      "id": 1504318,
      "name": "Kartalinsky District",
      "nativeName": "Kartalinskiy Rayon",
      "code": "RU-CHE-1504318",
      "countryId": 2017370,
      "countryCode": "RU",
      "stateCode": "RU-CHE",
      "latitude": 53,
      "longitude": 60.5
    },
    {
      "id": 1504250,
      "name": "Kaslinsky District",
      "nativeName": "Kaslinskiy Rayon",
      "code": "RU-CHE-1504250",
      "countryId": 2017370,
      "countryCode": "RU",
      "stateCode": "RU-CHE",
      "latitude": 56.08333,
      "longitude": 61
    },
    {
      "id": 551793,
      "name": "Katav-Ivanovsky District",
      "nativeName": "Katav-Ivanovskiy Rayon",
      "code": "RU-CHE-551793",
      "countryId": 2017370,
      "countryCode": "RU",
      "stateCode": "RU-CHE",
      "latitude": 54.75,
      "longitude": 58.25
    },
    {
      "id": 547854,
      "name": "Kizil’skiy Rayon",
      "nativeName": "Kizil’skiy Rayon",
      "code": "RU-CHE-547854",
      "countryId": 2017370,
      "countryCode": "RU",
      "stateCode": "RU-CHE",
      "latitude": 52.75,
      "longitude": 59.41667
    },
    {
      "id": 1535937,
      "name": "Korkinsky District",
      "nativeName": "Korkinskij rayon",
      "code": "RU-CHE-1535937",
      "countryId": 2017370,
      "countryCode": "RU",
      "stateCode": "RU-CHE",
      "latitude": 54.9,
      "longitude": 61.4
    },
    {
      "id": 1502125,
      "name": "Krasnoarmeysky District",
      "nativeName": "Krasnoarmeyskiy Rayon",
      "code": "RU-CHE-1502125",
      "countryId": 2017370,
      "countryCode": "RU",
      "stateCode": "RU-CHE",
      "latitude": 55.41667,
      "longitude": 62
    },
    {
      "id": 1501399,
      "name": "Kunashaksky District",
      "nativeName": "Kunashakskiy Rayon",
      "code": "RU-CHE-1501399",
      "countryId": 2017370,
      "countryCode": "RU",
      "stateCode": "RU-CHE",
      "latitude": 55.83333,
      "longitude": 61.66667
    },
    {
      "id": 538327,
      "name": "Kusinskiy Rayon",
      "nativeName": "Kusinskiy Rayon",
      "code": "RU-CHE-538327",
      "countryId": 2017370,
      "countryCode": "RU",
      "stateCode": "RU-CHE",
      "latitude": 55.41667,
      "longitude": 59.58333
    },
    {
      "id": 523633,
      "name": "Nagaybaksky District",
      "nativeName": "Nagaybakskiy Rayon",
      "code": "RU-CHE-523633",
      "countryId": 2017370,
      "countryCode": "RU",
      "stateCode": "RU-CHE",
      "latitude": 53.58333,
      "longitude": 59.75
    },
    {
      "id": 516613,
      "name": "Nyazepetrovsky District",
      "nativeName": "Nyazepetrovskiy Rayon",
      "code": "RU-CHE-516613",
      "countryId": 2017370,
      "countryCode": "RU",
      "stateCode": "RU-CHE",
      "latitude": 56,
      "longitude": 59.58333
    },
    {
      "id": 1496266,
      "name": "Oktyabrsky District",
      "nativeName": "Oktyabr’skiy Rayon",
      "code": "RU-CHE-1496266",
      "countryId": 2017370,
      "countryCode": "RU",
      "stateCode": "RU-CHE",
      "latitude": 54.41667,
      "longitude": 62.75
    },
    {
      "id": 12625360,
      "name": "Ozyorsky Urban District",
      "nativeName": "Ozyorsky Urban District",
      "code": "RU-CHE-12625360",
      "countryId": 2017370,
      "countryCode": "RU",
      "stateCode": "RU-CHE",
      "latitude": 55.75356,
      "longitude": 60.69921
    },
    {
      "id": 1535940,
      "name": "Plastovsky District",
      "nativeName": "Plastovskij rayon",
      "code": "RU-CHE-1535940",
      "countryId": 2017370,
      "countryCode": "RU",
      "stateCode": "RU-CHE",
      "latitude": 54.33333,
      "longitude": 60.66667
    },
    {
      "id": 498416,
      "name": "Sebezhsky District",
      "nativeName": "Satkinskiy Rayon",
      "code": "RU-CHE-498416",
      "countryId": 2017370,
      "countryCode": "RU",
      "stateCode": "RU-CHE",
      "latitude": 55,
      "longitude": 59
    },
    {
      "id": 12625361,
      "name": "Snezhinsk",
      "nativeName": "Snezhinsk",
      "code": "RU-CHE-12625361",
      "countryId": 2017370,
      "countryCode": "RU",
      "stateCode": "RU-CHE",
      "latitude": 56.07995,
      "longitude": 60.73537
    },
    {
      "id": 1491282,
      "name": "Sosnovsky District",
      "nativeName": "Sosnovskiy Rayon",
      "code": "RU-CHE-1491282",
      "countryId": 2017370,
      "countryCode": "RU",
      "stateCode": "RU-CHE",
      "latitude": 55.25,
      "longitude": 61.16667
    },
    {
      "id": 12625111,
      "name": "Trekhgorny Urban District",
      "nativeName": "Trekhgorny Urban District",
      "code": "RU-CHE-12625111",
      "countryId": 2017370,
      "countryCode": "RU",
      "stateCode": "RU-CHE",
      "latitude": 54.81398,
      "longitude": 58.44691
    },
    {
      "id": 1489213,
      "name": "Troitsky District",
      "nativeName": "Troitskiy Rayon",
      "code": "RU-CHE-1489213",
      "countryId": 2017370,
      "countryCode": "RU",
      "stateCode": "RU-CHE",
      "latitude": 54.16667,
      "longitude": 61.5
    },
    {
      "id": 1487930,
      "name": "Uvelsky District",
      "nativeName": "Uvel’skiy Rayon",
      "code": "RU-CHE-1487930",
      "countryId": 2017370,
      "countryCode": "RU",
      "stateCode": "RU-CHE",
      "latitude": 54.5,
      "longitude": 61.5
    },
    {
      "id": 1487907,
      "name": "Uysky District",
      "nativeName": "Uyskiy Rayon",
      "code": "RU-CHE-1487907",
      "countryId": 2017370,
      "countryCode": "RU",
      "stateCode": "RU-CHE",
      "latitude": 54.33333,
      "longitude": 60.08333
    },
    {
      "id": 1487759,
      "name": "Varnensky District",
      "nativeName": "Varnenskiy Rayon",
      "code": "RU-CHE-1487759",
      "countryId": 2017370,
      "countryCode": "RU",
      "stateCode": "RU-CHE",
      "latitude": 53.25,
      "longitude": 61.08333
    },
    {
      "id": 475462,
      "name": "Verkhneuralsky District",
      "nativeName": "Verkhneural’skiy Rayon",
      "code": "RU-CHE-475462",
      "countryId": 2017370,
      "countryCode": "RU",
      "stateCode": "RU-CHE",
      "latitude": 53.91667,
      "longitude": 59.33333
    },
    {
      "id": 12625362,
      "name": "Verkhny Ufaley",
      "nativeName": "Verkhny Ufaley",
      "code": "RU-CHE-12625362",
      "countryId": 2017370,
      "countryCode": "RU",
      "stateCode": "RU-CHE",
      "latitude": 56.05049,
      "longitude": 60.22538
    },
    {
      "id": 1535934,
      "name": "Yemanzhelinsky District",
      "nativeName": "Yemanzhelinskiy rayon",
      "code": "RU-CHE-1535934",
      "countryId": 2017370,
      "countryCode": "RU",
      "stateCode": "RU-CHE",
      "latitude": 54.75,
      "longitude": 61.33333
    },
    {
      "id": 1485846,
      "name": "Yetkulsky District",
      "nativeName": "Yetkul’skiy Rayon",
      "code": "RU-CHE-1485846",
      "countryId": 2017370,
      "countryCode": "RU",
      "stateCode": "RU-CHE",
      "latitude": 54.75,
      "longitude": 61.75
    },
    {
      "id": 12625112,
      "name": "Yuzhnouralsk District",
      "nativeName": "Yuzhnouralsk District",
      "code": "RU-CHE-12625112",
      "countryId": 2017370,
      "countryCode": "RU",
      "stateCode": "RU-CHE",
      "latitude": 54.43254,
      "longitude": 61.25552
    }
  ]
}