{
  "stateId": 567293,
  "stateCode": "RU-DA",
  "countryCode": "RU",
  "cities": [
    {
      "id": 583977,
      "name": "Agul’skiy Rayon",
      "nativeName": "Agul’skiy Rayon",
      "code": "RU-DA-583977",
      "countryId": 2017370,
      "countryCode": "RU",
      "stateCode": "RU-DA",
      "latitude": 41.83333,
      "longitude": 47.58333
    },
    {
      "id": 583791,
      "name": "Akhtynskiy Rayon",
      "nativeName": "Akhtynskiy Rayon",
      "code": "RU-DA-583791",
      "countryId": 2017370,
      "countryCode": "RU",
      "stateCode": "RU-DA",
      "latitude": 41.37747,
      "longitude": 47.61195
    },
    {
      "id": 583776,
      "name": "Akhvakhskiy Rayon",
      "nativeName": "Akhvakhskiy Rayon",
      "code": "RU-DA-583776",
      "countryId": 2017370,
      "countryCode": "RU",
      "stateCode": "RU-DA",
      "latitude": 42.56434,
      "longitude": 46.37372
    },
    {
      "id": 583511,
      "name": "Akushinskiy Rayon",
      "nativeName": "Akushinskiy Rayon",
      "code": "RU-DA-583511",
      "countryId": 2017370,
      "countryCode": "RU",
      "stateCode": "RU-DA",
      "latitude": 42.23397,
      "longitude": 47.37096
    },
    {
      "id": 579998,
      "name": "Babayurtovskiy Rayon",
      "nativeName": "Babayurtovskiy Rayon",
      "code": "RU-DA-579998",
      "countryId": 2017370,
      "countryCode": "RU",
      "stateCode": "RU-DA",
      "latitude": 43.58333,
      "longitude": 47
    },
    {
      "id": 830805,
      "name": "Bezhtinskiy Uchastok",
      "nativeName": "Bezhtinskiy Uchastok",
      "code": "RU-DA-830805",
      "countryId": 2017370,
      "countryCode": "RU",
      "stateCode": "RU-DA",
      "latitude": 42.10106,
      "longitude": 46.14918
    },
    {
      "id": 571887,
      "name": "Botlikhskiy Rayon",
      "nativeName": "Botlikhskiy Rayon",
      "code": "RU-DA-571887",
      "countryId": 2017370,
      "countryCode": "RU",
      "stateCode": "RU-DA",
      "latitude": 42.73594,
      "longitude": 46.26037
    },
    {
      "id": 12625007,
      "name": "Buinaksk Urban District",
      "nativeName": "Buinaksk Urban District",
      "code": "RU-DA-12625007",
      "countryId": 2017370,
      "countryCode": "RU",
      "stateCode": "RU-DA",
      "latitude": 42.81365,
      "longitude": 47.10885
    },
    {
      "id": 570478,
      "name": "Buynakskiy Rayon",
      "nativeName": "Buynakskiy Rayon",
      "code": "RU-DA-570478",
      "countryId": 2017370,
      "countryCode": "RU",
      "stateCode": "RU-DA",
      "latitude": 42.83333,
      "longitude": 47.16667
    },
    {
      "id": 569892,
      "name": "Charodinskiy Rayon",
      "nativeName": "Charodinskiy Rayon",
      "code": "RU-DA-569892",
      "countryId": 2017370,
      "countryCode": "RU",
      "stateCode": "RU-DA",
      "latitude": 42.11082,
      "longitude": 46.80585
    },
    {
      "id": 12625363,
      "name": "Dagestanskiye Ogni District",
      "nativeName": "Dagestanskiye Ogni District",
      "code": "RU-DA-12625363",
      "countryId": 2017370,
      "countryCode": "RU",
      "stateCode": "RU-DA",
      "latitude": 42.10778,
      "longitude": 48.18601
    },
    {
      "id": 567284,
      "name": "Dakhadayevskiy Rayon",
      "nativeName": "Dakhadayevskiy Rayon",
      "code": "RU-DA-567284",
      "countryId": 2017370,
      "countryCode": "RU",
      "stateCode": "RU-DA",
      "latitude": 42.06434,
      "longitude": 47.54947
    },
    {
      "id": 12625365,
      "name": "Derbent Urban Okrug",
      "nativeName": "Derbent Urban Okrug",
      "code": "RU-DA-12625365",
      "countryId": 2017370,
      "countryCode": "RU",
      "stateCode": "RU-DA",
      "latitude": 42.06002,
      "longitude": 48.29329
    },
    {
      "id": 566528,
      "name": "Derbentskiy Rayon",
      "nativeName": "Derbentskiy Rayon",
      "code": "RU-DA-566528",
      "countryId": 2017370,
      "countryCode": "RU",
      "stateCode": "RU-DA",
      "latitude": 42.02418,
      "longitude": 48.2064
    },
    {
      "id": 825033,
      "name": "Dokuzparinskiy Rayon",
      "nativeName": "Dokuzparinskiy Rayon",
      "code": "RU-DA-825033",
      "countryId": 2017370,
      "countryCode": "RU",
      "stateCode": "RU-DA",
      "latitude": 41.33312,
      "longitude": 47.86338
    },
    {
      "id": 561559,
      "name": "Gergebilsky",
      "nativeName": "Gergebilsky",
      "code": "RU-DA-561559",
      "countryId": 2017370,
      "countryCode": "RU",
      "stateCode": "RU-DA",
      "latitude": 42.5,
      "longitude": 47
    },
    {
      "id": 830812,
      "name": "Gorod Kaspiysk",
      "nativeName": "Gorod Kaspiysk",
      "code": "RU-DA-830812",
      "countryId": 2017370,
      "countryCode": "RU",
      "stateCode": "RU-DA",
      "latitude": 42.88056,
      "longitude": 47.63833
    },
    {
      "id": 830807,
      "name": "Gorodskoy Okrug Buynaksk",
      "nativeName": "Gorodskoy Okrug Buynaksk",
      "code": "RU-DA-830807",
      "countryId": 2017370,
      "countryCode": "RU",
      "stateCode": "RU-DA",
      "latitude": 42.81124,
      "longitude": 47.11417
    },
    {
      "id": 830810,
      "name": "Gorodskoy Okrug Dagestanskiye Ogni",
      "nativeName": "Gorodskoy Okrug Dagestanskiye Ogni",
      "code": "RU-DA-830810",
      "countryId": 2017370,
      "countryCode": "RU",
      "stateCode": "RU-DA",
      "latitude": 42.1163,
      "longitude": 48.188
    },
    {
      "id": 830809,
      "name": "Gorodskoy Okrug Derbent",
      "nativeName": "Gorodskoy Okrug Derbent",
      "code": "RU-DA-830809",
      "countryId": 2017370,
      "countryCode": "RU",
      "stateCode": "RU-DA",
      "latitude": 42.06278,
      "longitude": 48.29583
    },
    {
      "id": 830811,
      "name": "Gorodskoy Okrug Izberbash",
      "nativeName": "Gorodskoy Okrug Izberbash",
      "code": "RU-DA-830811",
      "countryId": 2017370,
      "countryCode": "RU",
      "stateCode": "RU-DA",
      "latitude": 42.56333,
      "longitude": 47.86333
    },
    {
      "id": 12540216,
      "name": "Gorodskoy Okrug Kaspiysk",
      "nativeName": "Gorodskoy Okrug Kaspiysk",
      "code": "RU-DA-12540216",
      "countryId": 2017370,
      "countryCode": "RU",
      "stateCode": "RU-DA",
      "latitude": 42.87183,
      "longitude": 47.6348
    },
    {
      "id": 12540214,
      "name": "Gorodskoy Okrug Khasavyurt",
      "nativeName": "Gorodskoy Okrug Khasavyurt",
      "code": "RU-DA-12540214",
      "countryId": 2017370,
      "countryCode": "RU",
      "stateCode": "RU-DA",
      "latitude": 43.24584,
      "longitude": 46.59428
    },
    {
      "id": 12540213,
      "name": "Gorodskoy Okrug Kizilyurt",
      "nativeName": "Gorodskoy Okrug Kizilyurt",
      "code": "RU-DA-12540213",
      "countryId": 2017370,
      "countryCode": "RU",
      "stateCode": "RU-DA",
      "latitude": 43.20295,
      "longitude": 46.87276
    },
    {
      "id": 830814,
      "name": "Gorodskoy Okrug Kizlyar",
      "nativeName": "Gorodskoy Okrug Kizlyar",
      "code": "RU-DA-830814",
      "countryId": 2017370,
      "countryCode": "RU",
      "stateCode": "RU-DA",
      "latitude": 43.85215,
      "longitude": 46.70575
    },
    {
      "id": 826309,
      "name": "Gorodskoy Okrug Makhachkala",
      "nativeName": "Gorodskoy Okrug Makhachkala",
      "code": "RU-DA-826309",
      "countryId": 2017370,
      "countryCode": "RU",
      "stateCode": "RU-DA",
      "latitude": 42.99064,
      "longitude": 47.44333
    },
    {
      "id": 830816,
      "name": "Gorodskoy Okrug Yuzhno-Sukhokumsk",
      "nativeName": "Gorodskoy Okrug Yuzhno-Sukhokumsk",
      "code": "RU-DA-830816",
      "countryId": 2017370,
      "countryCode": "RU",
      "stateCode": "RU-DA",
      "latitude": 44.66082,
      "longitude": 45.64684
    },
    {
      "id": 558024,
      "name": "Gumbetovskiy Rayon",
      "nativeName": "Gumbetovskiy Rayon",
      "code": "RU-DA-558024",
      "countryId": 2017370,
      "countryCode": "RU",
      "stateCode": "RU-DA",
      "latitude": 42.78235,
      "longitude": 46.55271
    },
    {
      "id": 557977,
      "name": "Gunibskiy Rayon",
      "nativeName": "Gunibskiy Rayon",
      "code": "RU-DA-557977",
      "countryId": 2017370,
      "countryCode": "RU",
      "stateCode": "RU-DA",
      "latitude": 42.33999,
      "longitude": 46.95779
    },
    {
      "id": 12625085,
      "name": "Izberbash Urban District",
      "nativeName": "Izberbash Urban District",
      "code": "RU-DA-12625085",
      "countryId": 2017370,
      "countryCode": "RU",
      "stateCode": "RU-DA",
      "latitude": 42.56435,
      "longitude": 47.88311
    },
    {
      "id": 536044,
      "name": "Karabudakhkentskiy Rayon",
      "nativeName": "Karabudakhkentskiy Rayon",
      "code": "RU-DA-536044",
      "countryId": 2017370,
      "countryCode": "RU",
      "stateCode": "RU-DA",
      "latitude": 42.65617,
      "longitude": 47.55929
    },
    {
      "id": 551645,
      "name": "Kayakentskiy Rayon",
      "nativeName": "Kayakentskiy Rayon",
      "code": "RU-DA-551645",
      "countryId": 2017370,
      "countryCode": "RU",
      "stateCode": "RU-DA",
      "latitude": 42.36056,
      "longitude": 47.88407
    },
    {
      "id": 551590,
      "name": "Kaytagskiy Rayon",
      "nativeName": "Kaytagskiy Rayon",
      "code": "RU-DA-551590",
      "countryId": 2017370,
      "countryCode": "RU",
      "stateCode": "RU-DA",
      "latitude": 42.08333,
      "longitude": 47.83333
    },
    {
      "id": 551375,
      "name": "Kazbekovskiy Rayon",
      "nativeName": "Kazbekovskiy Rayon",
      "code": "RU-DA-551375",
      "countryId": 2017370,
      "countryCode": "RU",
      "stateCode": "RU-DA",
      "latitude": 43.01625,
      "longitude": 46.66084
    },
    {
      "id": 12625004,
      "name": "Khasavyurt Urban District",
      "nativeName": "Khasavyurt Urban District",
      "code": "RU-DA-12625004",
      "countryId": 2017370,
      "countryCode": "RU",
      "stateCode": "RU-DA",
      "latitude": 43.23913,
      "longitude": 46.60205
    },
    {
      "id": 550476,
      "name": "Khasavyurtovskiy Rayon",
      "nativeName": "Khasavyurtovskiy Rayon",
      "code": "RU-DA-550476",
      "countryId": 2017370,
      "countryCode": "RU",
      "stateCode": "RU-DA",
      "latitude": 43.33333,
      "longitude": 46.66667
    },
    {
      "id": 550200,
      "name": "Khivskiy Rayon",
      "nativeName": "Khivskiy Rayon",
      "code": "RU-DA-550200",
      "countryId": 2017370,
      "countryCode": "RU",
      "stateCode": "RU-DA",
      "latitude": 41.77939,
      "longitude": 47.92116
    },
    {
      "id": 549104,
      "name": "Khunzakhskiy Rayon",
      "nativeName": "Khunzakhskiy Rayon",
      "code": "RU-DA-549104",
      "countryId": 2017370,
      "countryCode": "RU",
      "stateCode": "RU-DA",
      "latitude": 42.57251,
      "longitude": 46.69282
    },
    {
      "id": 12625086,
      "name": "Kizilyurt Urban District",
      "nativeName": "Kizilyurt Urban District",
      "code": "RU-DA-12625086",
      "countryId": 2017370,
      "countryCode": "RU",
      "stateCode": "RU-DA",
      "latitude": 43.20212,
      "longitude": 46.88166
    },
    {
      "id": 547846,
      "name": "Kizilyurtovskiy Rayon",
      "nativeName": "Kizilyurtovskiy Rayon",
      "code": "RU-DA-547846",
      "countryId": 2017370,
      "countryCode": "RU",
      "stateCode": "RU-DA",
      "latitude": 43.23542,
      "longitude": 46.95128
    },
    {
      "id": 12625087,
      "name": "Kizlyar Urban District",
      "nativeName": "Kizlyar Urban District",
      "code": "RU-DA-12625087",
      "countryId": 2017370,
      "countryCode": "RU",
      "stateCode": "RU-DA",
      "latitude": 43.84174,
      "longitude": 46.69991
    },
    {
      "id": 547836,
      "name": "Kizlyarskiy Rayon",
      "nativeName": "Kizlyarskiy Rayon",
      "code": "RU-DA-547836",
      "countryId": 2017370,
      "countryCode": "RU",
      "stateCode": "RU-DA",
      "latitude": 44.00417,
      "longitude": 47.00973
    },
    {
      "id": 539432,
      "name": "Kulinskiy Rayon",
      "nativeName": "Kulinskiy Rayon",
      "code": "RU-DA-539432",
      "countryId": 2017370,
      "countryCode": "RU",
      "stateCode": "RU-DA",
      "latitude": 41.99644,
      "longitude": 47.24733
    },
    {
      "id": 825034,
      "name": "Kumtorkalinskiy Rayon",
      "nativeName": "Kumtorkalinskiy Rayon",
      "code": "RU-DA-825034",
      "countryId": 2017370,
      "countryCode": "RU",
      "stateCode": "RU-DA",
      "latitude": 43.16667,
      "longitude": 47.25
    },
    {
      "id": 538991,
      "name": "Kurakhskiy Rayon",
      "nativeName": "Kurakhskiy Rayon",
      "code": "RU-DA-538991",
      "countryId": 2017370,
      "countryCode": "RU",
      "stateCode": "RU-DA",
      "latitude": 41.61576,
      "longitude": 47.76312
    },
    {
      "id": 537098,
      "name": "Lakskiy Rayon",
      "nativeName": "Lakskiy Rayon",
      "code": "RU-DA-537098",
      "countryId": 2017370,
      "countryCode": "RU",
      "stateCode": "RU-DA",
      "latitude": 42.1456,
      "longitude": 47.07397
    },
    {
      "id": 535538,
      "name": "Levashinskiy Rayon",
      "nativeName": "Levashinskiy Rayon",
      "code": "RU-DA-535538",
      "countryId": 2017370,
      "countryCode": "RU",
      "stateCode": "RU-DA",
      "latitude": 42.47153,
      "longitude": 47.29354
    },
    {
      "id": 532306,
      "name": "Magaramkentskiy Rayon",
      "nativeName": "Magaramkentskiy Rayon",
      "code": "RU-DA-532306",
      "countryId": 2017370,
      "countryCode": "RU",
      "stateCode": "RU-DA",
      "latitude": 41.59733,
      "longitude": 48.28071
    },
    {
      "id": 12625088,
      "name": "Makhachkala Urban Okrug",
      "nativeName": "Makhachkala Urban Okrug",
      "code": "RU-DA-12625088",
      "countryId": 2017370,
      "countryCode": "RU",
      "stateCode": "RU-DA",
      "latitude": 42.95666,
      "longitude": 47.50208
    },
    {
      "id": 520075,
      "name": "Nogayskiy Rayon",
      "nativeName": "Nogayskiy Rayon",
      "code": "RU-DA-520075",
      "countryId": 2017370,
      "countryCode": "RU",
      "stateCode": "RU-DA",
      "latitude": 44.46348,
      "longitude": 45.9506
    },
    {
      "id": 518649,
      "name": "Novolakskiy Rayon",
      "nativeName": "Novolakskiy Rayon",
      "code": "RU-DA-518649",
      "countryId": 2017370,
      "countryCode": "RU",
      "stateCode": "RU-DA",
      "latitude": 43.16667,
      "longitude": 46.5
    },
    {
      "id": 500315,
      "name": "Rutul’skiy Rayon",
      "nativeName": "Rutul’skiy Rayon",
      "code": "RU-DA-500315",
      "countryId": 2017370,
      "countryCode": "RU",
      "stateCode": "RU-DA",
      "latitude": 41.69115,
      "longitude": 47.18508
    },
    {
      "id": 496609,
      "name": "Sergokalinskiy Rayon",
      "nativeName": "Sergokalinskiy Rayon",
      "code": "RU-DA-496609",
      "countryId": 2017370,
      "countryCode": "RU",
      "stateCode": "RU-DA",
      "latitude": 42.3596,
      "longitude": 47.64714
    },
    {
      "id": 490031,
      "name": "Shamilsky District",
      "nativeName": "Shamilsky District",
      "code": "RU-DA-490031",
      "countryId": 2017370,
      "countryCode": "RU",
      "stateCode": "RU-DA",
      "latitude": 42.41667,
      "longitude": 46.5
    },
    {
      "id": 486360,
      "name": "Suleyman-Stal’skiy Rayon",
      "nativeName": "Suleyman-Stal’skiy Rayon",
      "code": "RU-DA-486360",
      "countryId": 2017370,
      "countryCode": "RU",
      "stateCode": "RU-DA",
      "latitude": 41.67887,
      "longitude": 48.16224
    },
    {
      "id": 484957,
      "name": "Tabasaranskiy Rayon",
      "nativeName": "Tabasaranskiy Rayon",
      "code": "RU-DA-484957",
      "countryId": 2017370,
      "countryCode": "RU",
      "stateCode": "RU-DA",
      "latitude": 41.90711,
      "longitude": 48.08062
    },
    {
      "id": 484288,
      "name": "Tarumovskiy Rayon",
      "nativeName": "Tarumovskiy Rayon",
      "code": "RU-DA-484288",
      "countryId": 2017370,
      "countryCode": "RU",
      "stateCode": "RU-DA",
      "latitude": 44.35689,
      "longitude": 46.58459
    },
    {
      "id": 482588,
      "name": "Tlyaratinskiy Rayon",
      "nativeName": "Tlyaratinskiy Rayon",
      "code": "RU-DA-482588",
      "countryId": 2017370,
      "countryCode": "RU",
      "stateCode": "RU-DA",
      "latitude": 42.047,
      "longitude": 46.48799
    },
    {
      "id": 480804,
      "name": "Tsumadinskiy Rayon",
      "nativeName": "Tsumadinskiy Rayon",
      "code": "RU-DA-480804",
      "countryId": 2017370,
      "countryCode": "RU",
      "stateCode": "RU-DA",
      "latitude": 42.46412,
      "longitude": 46.06313
    },
    {
      "id": 480801,
      "name": "Tsuntinskiy Rayon",
      "nativeName": "Tsuntinskiy Rayon",
      "code": "RU-DA-480801",
      "countryId": 2017370,
      "countryCode": "RU",
      "stateCode": "RU-DA",
      "latitude": 42.16878,
      "longitude": 46.00718
    },
    {
      "id": 478962,
      "name": "Untsukulsky District",
      "nativeName": "Untsukulsky District",
      "code": "RU-DA-478962",
      "countryId": 2017370,
      "countryCode": "RU",
      "stateCode": "RU-DA",
      "latitude": 42.66667,
      "longitude": 46.83333
    }
  ]
}