{
  "stateId": 553972,
  "stateCode": "RU-KL",
  "countryCode": "RU",
  "cities": [
    {
      "id": 568626,
      "name": "Chernozemelsky District",
      "nativeName": "Chernozemel’skiy Rayon",
      "code": "RU-KL-568626",
      "countryId": 2017370,
      "countryCode": "RU",
      "stateCode": "RU-KL",
      "latitude": 45.54528,
      "longitude": 46.18657
    },
    {
      "id": 11205599,
      "name": "Elista Urban Okrug",
      "nativeName": "Elista Urban Okrug",
      "code": "RU-KL-11205599",
      "countryId": 2017370,
      "countryCode": "RU",
      "stateCode": "RU-KL",
      "latitude": 46.30093,
      "longitude": 44.30443
    },
    {
      "id": 559474,
      "name": "Gorodovikovsky District",
      "nativeName": "Gorodovikovskiy Rayon",
      "code": "RU-KL-559474",
      "countryId": 2017370,
      "countryCode": "RU",
      "stateCode": "RU-KL",
      "latitude": 46.10483,
      "longitude": 41.96889
    },
    {
      "id": 557412,
      "name": "Iki-Burul’skiy Rayon",
      "nativeName": "Iki-Burul’skiy Rayon",
      "code": "RU-KL-557412",
      "countryId": 2017370,
      "countryCode": "RU",
      "stateCode": "RU-KL",
      "latitude": 45.77119,
      "longitude": 44.76885
    },
    {
      "id": 505231,
      "name": "Ketchenerovsky District",
      "nativeName": "Ketchenerovskiy Rayon",
      "code": "RU-KL-505231",
      "countryId": 2017370,
      "countryCode": "RU",
      "stateCode": "RU-KL",
      "latitude": 47.11519,
      "longitude": 44.97218
    },
    {
      "id": 551845,
      "name": "Lagansky District",
      "nativeName": "Laganskiy Rayon",
      "code": "RU-KL-551845",
      "countryId": 2017370,
      "countryCode": "RU",
      "stateCode": "RU-KL",
      "latitude": 45.2395,
      "longitude": 47.04883
    },
    {
      "id": 530957,
      "name": "Maloderbetovsky District",
      "nativeName": "Maloderbetovskiy Rayon",
      "code": "RU-KL-530957",
      "countryId": 2017370,
      "countryCode": "RU",
      "stateCode": "RU-KL",
      "latitude": 47.94186,
      "longitude": 44.95439
    },
    {
      "id": 515840,
      "name": "Oktyabr’skiy Rayon",
      "nativeName": "Oktyabr’skiy Rayon",
      "code": "RU-KL-515840",
      "countryId": 2017370,
      "countryCode": "RU",
      "stateCode": "RU-KL",
      "latitude": 47.56967,
      "longitude": 45.48194
    },
    {
      "id": 505020,
      "name": "Priyutnensky District",
      "nativeName": "Priyutnenskiy Rayon",
      "code": "RU-KL-505020",
      "countryId": 2017370,
      "countryCode": "RU",
      "stateCode": "RU-KL",
      "latitude": 46.08691,
      "longitude": 43.60332
    },
    {
      "id": 498505,
      "name": "Sarpinsky District",
      "nativeName": "Sarpinskiy Rayon",
      "code": "RU-KL-498505",
      "countryId": 2017370,
      "countryCode": "RU",
      "stateCode": "RU-KL",
      "latitude": 47.6729,
      "longitude": 44.22797
    },
    {
      "id": 481029,
      "name": "Tselinny District",
      "nativeName": "Tselinnyy Rayon",
      "code": "RU-KL-481029",
      "countryId": 2017370,
      "countryCode": "RU",
      "stateCode": "RU-KL",
      "latitude": 46.56396,
      "longitude": 44.38952
    },
    {
      "id": 468775,
      "name": "Yashaltinsky District",
      "nativeName": "Yashaltinskiy Rayon",
      "code": "RU-KL-468775",
      "countryId": 2017370,
      "countryCode": "RU",
      "stateCode": "RU-KL",
      "latitude": 46.25927,
      "longitude": 42.48261
    },
    {
      "id": 468746,
      "name": "Yashkulsky District",
      "nativeName": "Yashkul’skiy Rayon",
      "code": "RU-KL-468746",
      "countryId": 2017370,
      "countryCode": "RU",
      "stateCode": "RU-KL",
      "latitude": 46.39673,
      "longitude": 45.66846
    },
    {
      "id": 466133,
      "name": "Yustinskiy Rayon",
      "nativeName": "Yustinskiy Rayon",
      "code": "RU-KL-466133",
      "countryId": 2017370,
      "countryCode": "RU",
      "stateCode": "RU-KL",
      "latitude": 47.03623,
      "longitude": 46.36053
    }
  ]
}