{
  "stateId": 1503834,
  "stateCode": "RU-KK",
  "countryCode": "RU",
  "cities": [
    {
      "id": 1536884,
      "name": "Abakan Gorod",
      "nativeName": "Abakan Gorod",
      "code": "RU-KK-1536884",
      "countryId": 2017370,
      "countryCode": "RU",
      "stateCode": "RU-KK",
      "latitude": 53.71667,
      "longitude": 91.43333
    },
    {
      "id": 12625632,
      "name": "Abakan Urban District",
      "nativeName": "Abakan Urban District",
      "code": "RU-KK-12625632",
      "countryId": 2017370,
      "countryCode": "RU",
      "stateCode": "RU-KK",
      "latitude": 53.71854,
      "longitude": 91.44153
    },
    {
      "id": 12625201,
      "name": "Abaza",
      "nativeName": "Abaza",
      "code": "RU-KK-12625201",
      "countryId": 2017370,
      "countryCode": "RU",
      "stateCode": "RU-KK",
      "latitude": 52.65088,
      "longitude": 90.0919
    },
    {
      "id": 1511730,
      "name": "Altaysky District",
      "nativeName": "Altayskiy Rayon",
      "code": "RU-KK-1511730",
      "countryId": 2017370,
      "countryCode": "RU",
      "stateCode": "RU-KK",
      "latitude": 53.5,
      "longitude": 91.5
    },
    {
      "id": 1511300,
      "name": "Askizsky District",
      "nativeName": "Askizskiy Rayon",
      "code": "RU-KK-1511300",
      "countryId": 2017370,
      "countryCode": "RU",
      "stateCode": "RU-KK",
      "latitude": 53.25,
      "longitude": 89.75
    },
    {
      "id": 1510122,
      "name": "Beysky District",
      "nativeName": "Beyskiy Rayon",
      "code": "RU-KK-1510122",
      "countryId": 2017370,
      "countryCode": "RU",
      "stateCode": "RU-KK",
      "latitude": 53,
      "longitude": 91
    },
    {
      "id": 1509846,
      "name": "Bogradsky District",
      "nativeName": "Bogradskiy Rayon",
      "code": "RU-KK-1509846",
      "countryId": 2017370,
      "countryCode": "RU",
      "stateCode": "RU-KK",
      "latitude": 54.33333,
      "longitude": 91
    },
    {
      "id": 1536883,
      "name": "Chernogorsk Gorod",
      "nativeName": "Chernogorsk Gorod",
      "code": "RU-KK-1536883",
      "countryId": 2017370,
      "countryCode": "RU",
      "stateCode": "RU-KK",
      "latitude": 53.82167,
      "longitude": 91.27028
    },
    {
      "id": 12625202,
      "name": "Chernogorsk Urban District",
      "nativeName": "Chernogorsk Urban District",
      "code": "RU-KK-12625202",
      "countryId": 2017370,
      "countryCode": "RU",
      "stateCode": "RU-KK",
      "latitude": 53.82545,
      "longitude": 91.35162
    },
    {
      "id": 1496096,
      "name": "Ordzhonikidzevsky District",
      "nativeName": "Ordzhonikidzevskiy Rayon",
      "code": "RU-KK-1496096",
      "countryId": 2017370,
      "countryCode": "RU",
      "stateCode": "RU-KK",
      "latitude": 55,
      "longitude": 89.16667
    },
    {
      "id": 1536885,
      "name": "Sayanogorsk Gorod",
      "nativeName": "Sayanogorsk Gorod",
      "code": "RU-KK-1536885",
      "countryId": 2017370,
      "countryCode": "RU",
      "stateCode": "RU-KK",
      "latitude": 53.08389,
      "longitude": 91.41333
    },
    {
      "id": 12625633,
      "name": "Sayanogorsk Urban District",
      "nativeName": "Sayanogorsk Urban District",
      "code": "RU-KK-12625633",
      "countryId": 2017370,
      "countryCode": "RU",
      "stateCode": "RU-KK",
      "latitude": 53.07849,
      "longitude": 91.41088
    },
    {
      "id": 1492146,
      "name": "Shirinsky District",
      "nativeName": "Shirinskiy Rayon",
      "code": "RU-KK-1492146",
      "countryId": 2017370,
      "countryCode": "RU",
      "stateCode": "RU-KK",
      "latitude": 54.5,
      "longitude": 89.75
    },
    {
      "id": 12625634,
      "name": "Sorsk",
      "nativeName": "Sorsk",
      "code": "RU-KK-12625634",
      "countryId": 2017370,
      "countryCode": "RU",
      "stateCode": "RU-KK",
      "latitude": 54.0022,
      "longitude": 90.23791
    },
    {
      "id": 1490033,
      "name": "Tashtypsky District",
      "nativeName": "Tashtypskiy Rayon",
      "code": "RU-KK-1490033",
      "countryId": 2017370,
      "countryCode": "RU",
      "stateCode": "RU-KK",
      "latitude": 52.25,
      "longitude": 89.5
    },
    {
      "id": 1488271,
      "name": "Ust’-Abakanskiy Rayon",
      "nativeName": "Ust’-Abakanskiy Rayon",
      "code": "RU-KK-1488271",
      "countryId": 2017370,
      "countryCode": "RU",
      "stateCode": "RU-KK",
      "latitude": 53.83333,
      "longitude": 90.25
    }
  ]
}