{
  "stateId": 542415,
  "stateCode": "RU-KDA",
  "countryCode": "RU",
  "cities": [
    {
      "id": 584439,
      "name": "Abinskiy Rayon",
      "nativeName": "Abinskiy Rayon",
      "code": "RU-KDA-584439",
      "countryId": 2017370,
      "countryCode": "RU",
      "stateCode": "RU-KDA",
      "latitude": 44.90036,
      "longitude": 38.29808
    },
    {
      "id": 12625139,
      "name": "Anapa Urban Okrug",
      "nativeName": "Anapa Urban Okrug",
      "code": "RU-KDA-12625139",
      "countryId": 2017370,
      "countryCode": "RU",
      "stateCode": "RU-KDA",
      "latitude": 44.88982,
      "longitude": 37.3153
    },
    {
      "id": 582178,
      "name": "Anapsky District",
      "nativeName": "Anapskiy Rayon",
      "code": "RU-KDA-582178",
      "countryId": 2017370,
      "countryCode": "RU",
      "stateCode": "RU-KDA",
      "latitude": 45.00561,
      "longitude": 37.40685
    },
    {
      "id": 581311,
      "name": "Apsheronskiy Rayon",
      "nativeName": "Apsheronskiy Rayon",
      "code": "RU-KDA-581311",
      "countryId": 2017370,
      "countryCode": "RU",
      "stateCode": "RU-KDA",
      "latitude": 44.32936,
      "longitude": 39.72393
    },
    {
      "id": 12625136,
      "name": "Armavir Urban District",
      "nativeName": "Armavir Urban District",
      "code": "RU-KDA-12625136",
      "countryId": 2017370,
      "countryCode": "RU",
      "stateCode": "RU-KDA",
      "latitude": 44.98816,
      "longitude": 41.14043
    },
    {
      "id": 577983,
      "name": "Beloglinsky District",
      "nativeName": "Beloglinskiy Rayon",
      "code": "RU-KDA-577983",
      "countryId": 2017370,
      "countryCode": "RU",
      "stateCode": "RU-KDA",
      "latitude": 45.98376,
      "longitude": 41.02509
    },
    {
      "id": 13077910,
      "name": "Belorechenskoye Gorodskoye Poseleniye",
      "nativeName": "Belorechenskoye Gorodskoye Poseleniye",
      "code": "RU-KDA-13077910",
      "countryId": 2017370,
      "countryCode": "RU",
      "stateCode": "RU-KDA",
      "latitude": 44.78298,
      "longitude": 39.9019
    },
    {
      "id": 577885,
      "name": "Belorechensky District",
      "nativeName": "Belorechenskiy Rayon",
      "code": "RU-KDA-577885",
      "countryId": 2017370,
      "countryCode": "RU",
      "stateCode": "RU-KDA",
      "latitude": 44.80468,
      "longitude": 39.7608
    },
    {
      "id": 571419,
      "name": "Bryukhovetsky District",
      "nativeName": "Bryukhovetskiy Rayon",
      "code": "RU-KDA-571419",
      "countryId": 2017370,
      "countryCode": "RU",
      "stateCode": "RU-KDA",
      "latitude": 45.82075,
      "longitude": 39.06783
    },
    {
      "id": 566179,
      "name": "Dinskoy District",
      "nativeName": "Dinskoy Rayon",
      "code": "RU-KDA-566179",
      "countryId": 2017370,
      "countryCode": "RU",
      "stateCode": "RU-KDA",
      "latitude": 45.28406,
      "longitude": 39.06449
    },
    {
      "id": 12625140,
      "name": "Gelendzhik Urban District",
      "nativeName": "Gelendzhik Urban District",
      "code": "RU-KDA-12625140",
      "countryId": 2017370,
      "countryCode": "RU",
      "stateCode": "RU-KDA",
      "latitude": 44.55776,
      "longitude": 38.08628
    },
    {
      "id": 12760005,
      "name": "Gorodskoy Okrug Anapa",
      "nativeName": "Gorodskoy Okrug Anapa",
      "code": "RU-KDA-12760005",
      "countryId": 2017370,
      "countryCode": "RU",
      "stateCode": "RU-KDA",
      "latitude": 44.8862,
      "longitude": 37.3476
    },
    {
      "id": 13077915,
      "name": "Gorodskoy Okrug Goryachiy Klyuch",
      "nativeName": "Gorodskoy Okrug Goryachiy Klyuch",
      "code": "RU-KDA-13077915",
      "countryId": 2017370,
      "countryCode": "RU",
      "stateCode": "RU-KDA",
      "latitude": 44.61481,
      "longitude": 39.21807
    },
    {
      "id": 13077922,
      "name": "Gorodskoy Okrug Krasnodar",
      "nativeName": "Gorodskoy Okrug Krasnodar",
      "code": "RU-KDA-13077922",
      "countryId": 2017370,
      "countryCode": "RU",
      "stateCode": "RU-KDA",
      "latitude": 45.09209,
      "longitude": 39.02248
    },
    {
      "id": 13077919,
      "name": "Gorodskoy Okrug Novorossiysk",
      "nativeName": "Gorodskoy Okrug Novorossiysk",
      "code": "RU-KDA-13077919",
      "countryId": 2017370,
      "countryCode": "RU",
      "stateCode": "RU-KDA",
      "latitude": 44.82329,
      "longitude": 37.63003
    },
    {
      "id": 13077918,
      "name": "Gorodskoy Okrug Sirius",
      "nativeName": "Gorodskoy Okrug Sirius",
      "code": "RU-KDA-13077918",
      "countryId": 2017370,
      "countryCode": "RU",
      "stateCode": "RU-KDA",
      "latitude": 43.40669,
      "longitude": 39.97474
    },
    {
      "id": 13077911,
      "name": "Gorodskoy Okrug Sochi",
      "nativeName": "Gorodskoy Okrug Sochi",
      "code": "RU-KDA-13077911",
      "countryId": 2017370,
      "countryCode": "RU",
      "stateCode": "RU-KDA",
      "latitude": 43.78483,
      "longitude": 39.78855
    },
    {
      "id": 12625138,
      "name": "Goryachy Kl Urban District",
      "nativeName": "Goryachy Kl Urban District",
      "code": "RU-KDA-12625138",
      "countryId": 2017370,
      "countryCode": "RU",
      "stateCode": "RU-KDA",
      "latitude": 44.62908,
      "longitude": 39.11637
    },
    {
      "id": 558065,
      "name": "Gulkevichsky District",
      "nativeName": "Gul’kevichskiy Rayon",
      "code": "RU-KDA-558065",
      "countryId": 2017370,
      "countryCode": "RU",
      "stateCode": "RU-KDA",
      "latitude": 45.28061,
      "longitude": 40.67908
    },
    {
      "id": 554184,
      "name": "Kalininskiy Rayon",
      "nativeName": "Kalininskiy Rayon",
      "code": "RU-KDA-554184",
      "countryId": 2017370,
      "countryCode": "RU",
      "stateCode": "RU-KDA",
      "latitude": 45.61107,
      "longitude": 38.49574
    },
    {
      "id": 553149,
      "name": "Kanevskiy Rayon",
      "nativeName": "Kanevskiy Rayon",
      "code": "RU-KDA-553149",
      "countryId": 2017370,
      "countryCode": "RU",
      "stateCode": "RU-KDA",
      "latitude": 46.1391,
      "longitude": 38.90399
    },
    {
      "id": 551661,
      "name": "Kavkazsky District",
      "nativeName": "Kavkazskiy Rayon",
      "code": "RU-KDA-551661",
      "countryId": 2017370,
      "countryCode": "RU",
      "stateCode": "RU-KDA",
      "latitude": 45.53804,
      "longitude": 40.57234
    },
    {
      "id": 544895,
      "name": "Korenovsky District",
      "nativeName": "Korenovskiy Rayon",
      "code": "RU-KDA-544895",
      "countryId": 2017370,
      "countryCode": "RU",
      "stateCode": "RU-KDA",
      "latitude": 45.50864,
      "longitude": 39.38777
    },
    {
      "id": 542439,
      "name": "Krasnoarmeysky District",
      "nativeName": "Krasnoarmeyskiy Rayon",
      "code": "RU-KDA-542439",
      "countryId": 2017370,
      "countryCode": "RU",
      "stateCode": "RU-KDA",
      "latitude": 45.31178,
      "longitude": 38.36761
    },
    {
      "id": 12625419,
      "name": "Krasnodar Municipality",
      "nativeName": "Krasnodar Municipality",
      "code": "RU-KDA-12625419",
      "countryId": 2017370,
      "countryCode": "RU",
      "stateCode": "RU-KDA",
      "latitude": 45.03362,
      "longitude": 38.98811
    },
    {
      "id": 13077923,
      "name": "Kropotkinskoye Gorodskoye Poseleniye",
      "nativeName": "Kropotkinskoye Gorodskoye Poseleniye",
      "code": "RU-KDA-13077923",
      "countryId": 2017370,
      "countryCode": "RU",
      "stateCode": "RU-KDA",
      "latitude": 45.43251,
      "longitude": 40.55664
    },
    {
      "id": 540263,
      "name": "Krylovsky District",
      "nativeName": "Krylovskiy Rayon",
      "code": "RU-KDA-540263",
      "countryId": 2017370,
      "countryCode": "RU",
      "stateCode": "RU-KDA",
      "latitude": 46.38374,
      "longitude": 40.03783
    },
    {
      "id": 13077917,
      "name": "Krymskoye Gorodskoye Poseleniye",
      "nativeName": "Krymskoye Gorodskoye Poseleniye",
      "code": "RU-KDA-13077917",
      "countryId": 2017370,
      "countryCode": "RU",
      "stateCode": "RU-KDA",
      "latitude": 44.92229,
      "longitude": 37.99194
    },
    {
      "id": 540245,
      "name": "Krymsky District",
      "nativeName": "Krymskiy Rayon",
      "code": "RU-KDA-540245",
      "countryId": 2017370,
      "countryCode": "RU",
      "stateCode": "RU-KDA",
      "latitude": 44.99397,
      "longitude": 37.87285
    },
    {
      "id": 538835,
      "name": "Kurganinsky District",
      "nativeName": "Kurganinskiy Rayon",
      "code": "RU-KDA-538835",
      "countryId": 2017370,
      "countryCode": "RU",
      "stateCode": "RU-KDA",
      "latitude": 45.00162,
      "longitude": 40.64748
    },
    {
      "id": 538413,
      "name": "Kushchëvskiy Rayon",
      "nativeName": "Kushchëvskiy Rayon",
      "code": "RU-KDA-538413",
      "countryId": 2017370,
      "countryCode": "RU",
      "stateCode": "RU-KDA",
      "latitude": 46.60986,
      "longitude": 39.59385
    },
    {
      "id": 13077912,
      "name": "Labinskoye Gorodskoye Poseleniye",
      "nativeName": "Labinskoye Gorodskoye Poseleniye",
      "code": "RU-KDA-13077912",
      "countryId": 2017370,
      "countryCode": "RU",
      "stateCode": "RU-KDA",
      "latitude": 44.64155,
      "longitude": 40.72913
    },
    {
      "id": 537279,
      "name": "Labinsky District",
      "nativeName": "Labinskiy Rayon",
      "code": "RU-KDA-537279",
      "countryId": 2017370,
      "countryCode": "RU",
      "stateCode": "RU-KDA",
      "latitude": 44.53181,
      "longitude": 40.9436
    },
    {
      "id": 536193,
      "name": "Leningradsky District",
      "nativeName": "Leningradskiy Rayon",
      "code": "RU-KDA-536193",
      "countryId": 2017370,
      "countryCode": "RU",
      "stateCode": "RU-KDA",
      "latitude": 46.22549,
      "longitude": 39.38382
    },
    {
      "id": 524810,
      "name": "Mostovsky District",
      "nativeName": "Mostovskiy Rayon",
      "code": "RU-KDA-524810",
      "countryId": 2017370,
      "countryCode": "RU",
      "stateCode": "RU-KDA",
      "latitude": 44.16413,
      "longitude": 40.63693
    },
    {
      "id": 518681,
      "name": "Novokubansky District",
      "nativeName": "Novokubanskiy Rayon",
      "code": "RU-KDA-518681",
      "countryId": 2017370,
      "countryCode": "RU",
      "stateCode": "RU-KDA",
      "latitude": 44.90123,
      "longitude": 41.04782
    },
    {
      "id": 518311,
      "name": "Novopokrovsky District",
      "nativeName": "Novopokrovskiy Rayon",
      "code": "RU-KDA-518311",
      "countryId": 2017370,
      "countryCode": "RU",
      "stateCode": "RU-KDA",
      "latitude": 45.95962,
      "longitude": 40.62986
    },
    {
      "id": 513908,
      "name": "Otradnensky District",
      "nativeName": "Otradnenskiy Rayon",
      "code": "RU-KDA-513908",
      "countryId": 2017370,
      "countryCode": "RU",
      "stateCode": "RU-KDA",
      "latitude": 44.33283,
      "longitude": 41.3877
    },
    {
      "id": 512021,
      "name": "Pavlovsky District",
      "nativeName": "Pavlovskiy Rayon",
      "code": "RU-KDA-512021",
      "countryId": 2017370,
      "countryCode": "RU",
      "stateCode": "RU-KDA",
      "latitude": 46.08306,
      "longitude": 39.8975
    },
    {
      "id": 505258,
      "name": "Primorsko-Akhtarsky District",
      "nativeName": "Primorsko-Akhtarskiy Rayon",
      "code": "RU-KDA-505258",
      "countryId": 2017370,
      "countryCode": "RU",
      "stateCode": "RU-KDA",
      "latitude": 45.89962,
      "longitude": 38.2876
    },
    {
      "id": 12639981,
      "name": "Resort Town of Sochi",
      "nativeName": "Resort Town of Sochi",
      "code": "RU-KDA-12639981",
      "countryId": 2017370,
      "countryCode": "RU",
      "stateCode": "RU-KDA",
      "latitude": 43.58643,
      "longitude": 39.72537
    },
    {
      "id": 496265,
      "name": "Severskiy Rayon",
      "nativeName": "Severskiy Rayon",
      "code": "RU-KDA-496265",
      "countryId": 2017370,
      "countryCode": "RU",
      "stateCode": "RU-KDA",
      "latitude": 44.75837,
      "longitude": 38.6921
    },
    {
      "id": 495252,
      "name": "Shcherbinovsky District",
      "nativeName": "Shcherbinovskiy Rayon",
      "code": "RU-KDA-495252",
      "countryId": 2017370,
      "countryCode": "RU",
      "stateCode": "RU-KDA",
      "latitude": 46.6059,
      "longitude": 38.69527
    },
    {
      "id": 13077921,
      "name": "Slavyanskoye Gorodskoye Poseleniye",
      "nativeName": "Slavyanskoye Gorodskoye Poseleniye",
      "code": "RU-KDA-13077921",
      "countryId": 2017370,
      "countryCode": "RU",
      "stateCode": "RU-KDA",
      "latitude": 45.25104,
      "longitude": 38.11518
    },
    {
      "id": 492095,
      "name": "Slavyansky District",
      "nativeName": "Slavyansky rayon",
      "code": "RU-KDA-492095",
      "countryId": 2017370,
      "countryCode": "RU",
      "stateCode": "RU-KDA",
      "latitude": 45.41667,
      "longitude": 37.75
    },
    {
      "id": 6695246,
      "name": "Sochi City",
      "nativeName": "Sochi City",
      "code": "RU-KDA-6695246",
      "countryId": 2017370,
      "countryCode": "RU",
      "stateCode": "RU-KDA",
      "latitude": 43.60078,
      "longitude": 39.73343
    },
    {
      "id": 488740,
      "name": "Starominsky District",
      "nativeName": "Starominskiy Rayon",
      "code": "RU-KDA-488740",
      "countryId": 2017370,
      "countryCode": "RU",
      "stateCode": "RU-KDA",
      "latitude": 46.48,
      "longitude": 39.06404
    },
    {
      "id": 483882,
      "name": "Tbilissky District",
      "nativeName": "Tbilisskiy Rayon",
      "code": "RU-KDA-483882",
      "countryId": 2017370,
      "countryCode": "RU",
      "stateCode": "RU-KDA",
      "latitude": 45.40655,
      "longitude": 40.17207
    },
    {
      "id": 483660,
      "name": "Temryuksky District",
      "nativeName": "Temruksky rayon",
      "code": "RU-KDA-483660",
      "countryId": 2017370,
      "countryCode": "RU",
      "stateCode": "RU-KDA",
      "latitude": 45.25,
      "longitude": 37.25
    },
    {
      "id": 13077920,
      "name": "Tikhoretskoye Gorodskoye Poseleniye",
      "nativeName": "Tikhoretskoye Gorodskoye Poseleniye",
      "code": "RU-KDA-13077920",
      "countryId": 2017370,
      "countryCode": "RU",
      "stateCode": "RU-KDA",
      "latitude": 45.85044,
      "longitude": 40.11425
    },
    {
      "id": 483027,
      "name": "Tikhoretsky District",
      "nativeName": "Tikhoretskiy Rayon",
      "code": "RU-KDA-483027",
      "countryId": 2017370,
      "countryCode": "RU",
      "stateCode": "RU-KDA",
      "latitude": 45.8447,
      "longitude": 40.22054
    },
    {
      "id": 482964,
      "name": "Timashevsky District",
      "nativeName": "Timashëvskiy Rayon",
      "code": "RU-KDA-482964",
      "countryId": 2017370,
      "countryCode": "RU",
      "stateCode": "RU-KDA",
      "latitude": 45.5923,
      "longitude": 38.93043
    },
    {
      "id": 13077914,
      "name": "Tuapinskoye Gorodskoye Poseleniye",
      "nativeName": "Tuapinskoye Gorodskoye Poseleniye",
      "code": "RU-KDA-13077914",
      "countryId": 2017370,
      "countryCode": "RU",
      "stateCode": "RU-KDA",
      "latitude": 44.10955,
      "longitude": 39.08077
    },
    {
      "id": 480713,
      "name": "Tuapsinsky District",
      "nativeName": "Tuapsinskiy Rayon",
      "code": "RU-KDA-480713",
      "countryId": 2017370,
      "countryCode": "RU",
      "stateCode": "RU-KDA",
      "latitude": 44.27748,
      "longitude": 39.11539
    },
    {
      "id": 478198,
      "name": "Uspensky District",
      "nativeName": "Uspenskiy Rayon",
      "code": "RU-KDA-478198",
      "countryId": 2017370,
      "countryCode": "RU",
      "stateCode": "RU-KDA",
      "latitude": 44.8636,
      "longitude": 41.4127
    },
    {
      "id": 478043,
      "name": "Ust’-Labinskiy Rayon",
      "nativeName": "Ust’-Labinskiy Rayon",
      "code": "RU-KDA-478043",
      "countryId": 2017370,
      "countryCode": "RU",
      "stateCode": "RU-KDA",
      "latitude": 45.30715,
      "longitude": 39.82996
    },
    {
      "id": 470322,
      "name": "Vyselkovsky District",
      "nativeName": "Vyselkovskiy Rayon",
      "code": "RU-KDA-470322",
      "countryId": 2017370,
      "countryCode": "RU",
      "stateCode": "RU-KDA",
      "latitude": 45.65943,
      "longitude": 39.8119
    },
    {
      "id": 466879,
      "name": "Yeyskiy Rayon",
      "nativeName": "Yeyskiy Rayon",
      "code": "RU-KDA-466879",
      "countryId": 2017370,
      "countryCode": "RU",
      "stateCode": "RU-KDA",
      "latitude": 46.51015,
      "longitude": 38.20799
    },
    {
      "id": 13077913,
      "name": "Yeyskoye Gorodskoye Poseleniye",
      "nativeName": "Yeyskoye Gorodskoye Poseleniye",
      "code": "RU-KDA-13077913",
      "countryId": 2017370,
      "countryCode": "RU",
      "stateCode": "RU-KDA",
      "latitude": 46.70179,
      "longitude": 38.26409
    }
  ]
}