{
  "stateId": 514801,
  "stateCode": "RU-ORL",
  "countryCode": "RU",
  "cities": [
    {
      "id": 575360,
      "name": "Bolkhovskiy Rayon",
      "nativeName": "Bolkhovskiy Rayon",
      "code": "RU-ORL-575360",
      "countryId": 2017370,
      "countryCode": "RU",
      "stateCode": "RU-ORL",
      "latitude": 53.41667,
      "longitude": 36
    },
    {
      "id": 12625537,
      "name": "Dmitrovsky District",
      "nativeName": "Dmitrovsky District",
      "code": "RU-ORL-12625537",
      "countryId": 2017370,
      "countryCode": "RU",
      "stateCode": "RU-ORL",
      "latitude": 52.6653,
      "longitude": 35.57253
    },
    {
      "id": 12626018,
      "name": "Glazunovsky District",
      "nativeName": "Glazunovsky District",
      "code": "RU-ORL-12626018",
      "countryId": 2017370,
      "countryCode": "RU",
      "stateCode": "RU-ORL",
      "latitude": 52.5001,
      "longitude": 36.31808
    },
    {
      "id": 12527681,
      "name": "Gorodskoy Okrug Livny",
      "nativeName": "Gorodskoy Okrug Livny",
      "code": "RU-ORL-12527681",
      "countryId": 2017370,
      "countryCode": "RU",
      "stateCode": "RU-ORL",
      "latitude": 52.42972,
      "longitude": 37.61599
    },
    {
      "id": 12527682,
      "name": "Gorodskoy Okrug Mtsensk",
      "nativeName": "Gorodskoy Okrug Mtsensk",
      "code": "RU-ORL-12527682",
      "countryId": 2017370,
      "countryCode": "RU",
      "stateCode": "RU-ORL",
      "latitude": 53.28224,
      "longitude": 36.56755
    },
    {
      "id": 12527683,
      "name": "Gorodskoy Okrug Orël",
      "nativeName": "Gorodskoy Okrug Orël",
      "code": "RU-ORL-12527683",
      "countryId": 2017370,
      "countryCode": "RU",
      "stateCode": "RU-ORL",
      "latitude": 52.97591,
      "longitude": 36.09726
    },
    {
      "id": 12625532,
      "name": "Khotynetsky District",
      "nativeName": "Khotynetsky District",
      "code": "RU-ORL-12625532",
      "countryId": 2017370,
      "countryCode": "RU",
      "stateCode": "RU-ORL",
      "latitude": 53.12807,
      "longitude": 35.39411
    },
    {
      "id": 12626077,
      "name": "Kolpnyansky District",
      "nativeName": "Kolpnyansky District",
      "code": "RU-ORL-12626077",
      "countryId": 2017370,
      "countryCode": "RU",
      "stateCode": "RU-ORL",
      "latitude": 53.45421,
      "longitude": 35.79486
    },
    {
      "id": 12527684,
      "name": "Korsakovskiy Rayon",
      "nativeName": "Korsakovskiy Rayon",
      "code": "RU-ORL-12527684",
      "countryId": 2017370,
      "countryCode": "RU",
      "stateCode": "RU-ORL",
      "latitude": 53.17428,
      "longitude": 37.31775
    },
    {
      "id": 12527685,
      "name": "Krasnozorenskiy Rayon",
      "nativeName": "Krasnozorenskiy Rayon",
      "code": "RU-ORL-12527685",
      "countryId": 2017370,
      "countryCode": "RU",
      "stateCode": "RU-ORL",
      "latitude": 52.74409,
      "longitude": 37.67765
    },
    {
      "id": 12640040,
      "name": "Krasnozorensky District",
      "nativeName": "Krasnozorensky District",
      "code": "RU-ORL-12640040",
      "countryId": 2017370,
      "countryCode": "RU",
      "stateCode": "RU-ORL",
      "latitude": 52.78356,
      "longitude": 37.68514
    },
    {
      "id": 12625534,
      "name": "Kromsky District",
      "nativeName": "Kromsky District",
      "code": "RU-ORL-12625534",
      "countryId": 2017370,
      "countryCode": "RU",
      "stateCode": "RU-ORL",
      "latitude": 52.63428,
      "longitude": 35.76757
    },
    {
      "id": 534709,
      "name": "Livensky District",
      "nativeName": "Livensky District",
      "code": "RU-ORL-534709",
      "countryId": 2017370,
      "countryCode": "RU",
      "stateCode": "RU-ORL",
      "latitude": 52.5,
      "longitude": 37.66667
    },
    {
      "id": 12625531,
      "name": "Maloarkhangelsk District",
      "nativeName": "Maloarkhangelsk District",
      "code": "RU-ORL-12625531",
      "countryId": 2017370,
      "countryCode": "RU",
      "stateCode": "RU-ORL",
      "latitude": 52.39917,
      "longitude": 36.50216
    },
    {
      "id": 12626019,
      "name": "Mtsensk Urban District",
      "nativeName": "Mtsensk Urban District",
      "code": "RU-ORL-12626019",
      "countryId": 2017370,
      "countryCode": "RU",
      "stateCode": "RU-ORL",
      "latitude": 53.28352,
      "longitude": 36.56708
    },
    {
      "id": 524639,
      "name": "Mtsensky District",
      "nativeName": "Mtsensky District",
      "code": "RU-ORL-524639",
      "countryId": 2017370,
      "countryCode": "RU",
      "stateCode": "RU-ORL",
      "latitude": 53.25,
      "longitude": 36.5
    },
    {
      "id": 12640041,
      "name": "Novoderevenkovsky District",
      "nativeName": "Novoderevenkovsky District",
      "code": "RU-ORL-12640041",
      "countryId": 2017370,
      "countryCode": "RU",
      "stateCode": "RU-ORL",
      "latitude": 52.8507,
      "longitude": 37.43943
    },
    {
      "id": 12640039,
      "name": "Novosilsky District",
      "nativeName": "Novosilsky District",
      "code": "RU-ORL-12640039",
      "countryId": 2017370,
      "countryCode": "RU",
      "stateCode": "RU-ORL",
      "latitude": 52.97266,
      "longitude": 37.04306
    },
    {
      "id": 12626017,
      "name": "Oryol District",
      "nativeName": "Oryol District",
      "code": "RU-ORL-12626017",
      "countryId": 2017370,
      "countryCode": "RU",
      "stateCode": "RU-ORL",
      "latitude": 52.96304,
      "longitude": 36.09933
    },
    {
      "id": 12625533,
      "name": "Pokrovsky District",
      "nativeName": "Pokrovsky District",
      "code": "RU-ORL-12625533",
      "countryId": 2017370,
      "countryCode": "RU",
      "stateCode": "RU-ORL",
      "latitude": 52.24468,
      "longitude": 37.56878
    },
    {
      "id": 12626078,
      "name": "Shablykinsky District",
      "nativeName": "Shablykinsky District",
      "code": "RU-ORL-12626078",
      "countryId": 2017370,
      "countryCode": "RU",
      "stateCode": "RU-ORL",
      "latitude": 52.85561,
      "longitude": 35.19565
    },
    {
      "id": 12527687,
      "name": "Soskovsky District",
      "nativeName": "Soskovskiy Rayon",
      "code": "RU-ORL-12527687",
      "countryId": 2017370,
      "countryCode": "RU",
      "stateCode": "RU-ORL",
      "latitude": 52.7471,
      "longitude": 35.42834
    },
    {
      "id": 12527688,
      "name": "Trosnyansky District",
      "nativeName": "Trosnyanskiy Rayon",
      "code": "RU-ORL-12527688",
      "countryId": 2017370,
      "countryCode": "RU",
      "stateCode": "RU-ORL",
      "latitude": 52.41187,
      "longitude": 35.82057
    },
    {
      "id": 478720,
      "name": "Uritsky District",
      "nativeName": "Uritsky District",
      "code": "RU-ORL-478720",
      "countryId": 2017370,
      "countryCode": "RU",
      "stateCode": "RU-ORL",
      "latitude": 53,
      "longitude": 35.66667
    },
    {
      "id": 474331,
      "name": "Verkhovsky District",
      "nativeName": "Verkhovsky District",
      "code": "RU-ORL-474331",
      "countryId": 2017370,
      "countryCode": "RU",
      "stateCode": "RU-ORL",
      "latitude": 52.83333,
      "longitude": 37.25
    },
    {
      "id": 12626076,
      "name": "Zalegoshchensky",
      "nativeName": "Zalegoshchensky",
      "code": "RU-ORL-12626076",
      "countryId": 2017370,
      "countryCode": "RU",
      "stateCode": "RU-ORL",
      "latitude": 52.91695,
      "longitude": 36.83084
    },
    {
      "id": 12527686,
      "name": "Znamenskiy Rayon",
      "nativeName": "Znamenskiy Rayon",
      "code": "RU-ORL-12527686",
      "countryId": 2017370,
      "countryCode": "RU",
      "stateCode": "RU-ORL",
      "latitude": 53.33209,
      "longitude": 35.64433
    },
    {
      "id": 12626020,
      "name": "Znamensky District",
      "nativeName": "Znamensky District",
      "code": "RU-ORL-12626020",
      "countryId": 2017370,
      "countryCode": "RU",
      "stateCode": "RU-ORL",
      "latitude": 52.93462,
      "longitude": 36.2888
    }
  ]
}