{
  "stateId": 519969,
  "stateCode": "RU-SE",
  "countryCode": "RU",
  "cities": [
    {
      "id": 583478,
      "name": "Alagirskiy Rayon",
      "nativeName": "Alagirskiy Rayon",
      "code": "RU-SE-583478",
      "countryId": 2017370,
      "countryCode": "RU",
      "stateCode": "RU-SE",
      "latitude": 42.8225,
      "longitude": 44.13951
    },
    {
      "id": 581175,
      "name": "Ardonskiy Rayon",
      "nativeName": "Ardonskiy Rayon",
      "code": "RU-SE-581175",
      "countryId": 2017370,
      "countryCode": "RU",
      "stateCode": "RU-SE",
      "latitude": 43.16667,
      "longitude": 44.33333
    },
    {
      "id": 566241,
      "name": "Digorskiy Rayon",
      "nativeName": "Digorskiy Rayon",
      "code": "RU-SE-566241",
      "countryId": 2017370,
      "countryCode": "RU",
      "stateCode": "RU-SE",
      "latitude": 43.13354,
      "longitude": 44.07914
    },
    {
      "id": 12693596,
      "name": "Gorodskoy Okrug Vladikavkaz",
      "nativeName": "Gorodskoy Okrug Vladikavkaz",
      "code": "RU-SE-12693596",
      "countryId": 2017370,
      "countryCode": "RU",
      "stateCode": "RU-SE",
      "latitude": 42.94442,
      "longitude": 44.62611
    },
    {
      "id": 556219,
      "name": "Irafskiy Rayon",
      "nativeName": "Irafskiy Rayon",
      "code": "RU-SE-556219",
      "countryId": 2017370,
      "countryCode": "RU",
      "stateCode": "RU-SE",
      "latitude": 43.00003,
      "longitude": 43.74972
    },
    {
      "id": 548364,
      "name": "Kirovskiy Rayon",
      "nativeName": "Kirovskiy Rayon",
      "code": "RU-SE-548364",
      "countryId": 2017370,
      "countryCode": "RU",
      "stateCode": "RU-SE",
      "latitude": 43.34303,
      "longitude": 44.27308
    },
    {
      "id": 524734,
      "name": "Mozdokskiy Rayon",
      "nativeName": "Mozdokskiy Rayon",
      "code": "RU-SE-524734",
      "countryId": 2017370,
      "countryCode": "RU",
      "stateCode": "RU-SE",
      "latitude": 43.68345,
      "longitude": 44.5671
    },
    {
      "id": 505586,
      "name": "Pravoberezhnyy Rayon",
      "nativeName": "Pravoberezhnyy Rayon",
      "code": "RU-SE-505586",
      "countryId": 2017370,
      "countryCode": "RU",
      "stateCode": "RU-SE",
      "latitude": 43.24901,
      "longitude": 44.51757
    },
    {
      "id": 505371,
      "name": "Prigorodnyy Rayon",
      "nativeName": "Prigorodnyy Rayon",
      "code": "RU-SE-505371",
      "countryId": 2017370,
      "countryCode": "RU",
      "stateCode": "RU-SE",
      "latitude": 42.98948,
      "longitude": 44.59837
    },
    {
      "id": 12625971,
      "name": "Vladikavkaz City District",
      "nativeName": "Vladikavkaz City District",
      "code": "RU-SE-12625971",
      "countryId": 2017370,
      "countryCode": "RU",
      "stateCode": "RU-SE",
      "latitude": 43.04771,
      "longitude": 44.69662
    }
  ]
}