{
  "stateId": 1490542,
  "stateCode": "RU-SVE",
  "countryCode": "RU",
  "cities": [
    {
      "id": 584306,
      "name": "Achitsky District",
      "nativeName": "Achitsky District",
      "code": "RU-SVE-584306",
      "countryId": 2017370,
      "countryCode": "RU",
      "stateCode": "RU-SVE",
      "latitude": 56.91667,
      "longitude": 58.16667
    },
    {
      "id": 12625928,
      "name": "Alapaevsk Urban District",
      "nativeName": "Alapaevsk Urban District",
      "code": "RU-SVE-12625928",
      "countryId": 2017370,
      "countryCode": "RU",
      "stateCode": "RU-SVE",
      "latitude": 57.85195,
      "longitude": 61.67739
    },
    {
      "id": 12625919,
      "name": "Aramil City District",
      "nativeName": "Aramil City District",
      "code": "RU-SVE-12625919",
      "countryId": 2017370,
      "countryCode": "RU",
      "stateCode": "RU-SVE",
      "latitude": 56.69619,
      "longitude": 60.83261
    },
    {
      "id": 12640391,
      "name": "Artinsky District",
      "nativeName": "Artinsky District",
      "code": "RU-SVE-12640391",
      "countryId": 2017370,
      "countryCode": "RU",
      "stateCode": "RU-SVE",
      "latitude": 56.42308,
      "longitude": 58.53139
    },
    {
      "id": 12625946,
      "name": "Artyomovsky City District",
      "nativeName": "Artyomovsky City District",
      "code": "RU-SVE-12625946",
      "countryId": 2017370,
      "countryCode": "RU",
      "stateCode": "RU-SVE",
      "latitude": 57.34994,
      "longitude": 61.8714
    },
    {
      "id": 12789818,
      "name": "Asbestovskiy Gorodskoy Okrug",
      "nativeName": "Asbestovskiy Gorodskoy Okrug",
      "code": "RU-SVE-12789818",
      "countryId": 2017370,
      "countryCode": "RU",
      "stateCode": "RU-SVE",
      "latitude": 57.06719,
      "longitude": 61.49374
    },
    {
      "id": 12625924,
      "name": "Asbestovsky Urban District",
      "nativeName": "Asbestovsky Urban District",
      "code": "RU-SVE-12625924",
      "countryId": 2017370,
      "countryCode": "RU",
      "stateCode": "RU-SVE",
      "latitude": 57.75508,
      "longitude": 61.40049
    },
    {
      "id": 12625910,
      "name": "Baykalovsky District",
      "nativeName": "Baykalovsky District",
      "code": "RU-SVE-12625910",
      "countryId": 2017370,
      "countryCode": "RU",
      "stateCode": "RU-SVE",
      "latitude": 57.39564,
      "longitude": 63.76652
    },
    {
      "id": 12625921,
      "name": "Beloyarsk Urban District",
      "nativeName": "Beloyarsk",
      "code": "RU-SVE-12625921",
      "countryId": 2017370,
      "countryCode": "RU",
      "stateCode": "RU-SVE",
      "latitude": 56.75501,
      "longitude": 61.41464
    },
    {
      "id": 1510447,
      "name": "Beloyarsky District",
      "nativeName": "Beloyarskiy Rayon",
      "code": "RU-SVE-1510447",
      "countryId": 2017370,
      "countryCode": "RU",
      "stateCode": "RU-SVE",
      "latitude": 56.68863,
      "longitude": 61.3408
    },
    {
      "id": 12625931,
      "name": "Berezovsky City District",
      "nativeName": "Berezovsky City District",
      "code": "RU-SVE-12625931",
      "countryId": 2017370,
      "countryCode": "RU",
      "stateCode": "RU-SVE",
      "latitude": 56.92273,
      "longitude": 60.79126
    },
    {
      "id": 12789803,
      "name": "Berëzovskiy Gorodskoy Okrug",
      "nativeName": "Berëzovskiy Gorodskoy Okrug",
      "code": "RU-SVE-12789803",
      "countryId": 2017370,
      "countryCode": "RU",
      "stateCode": "RU-SVE",
      "latitude": 57.01997,
      "longitude": 60.98017
    },
    {
      "id": 12625929,
      "name": "Bogdanovich Urban District",
      "nativeName": "Bogdanovich Urban District",
      "code": "RU-SVE-12625929",
      "countryId": 2017370,
      "countryCode": "RU",
      "stateCode": "RU-SVE",
      "latitude": 56.79138,
      "longitude": 62.04017
    },
    {
      "id": 1509887,
      "name": "Bogdanovichsky District",
      "nativeName": "Bogdanovichskiy Rayon",
      "code": "RU-SVE-1509887",
      "countryId": 2017370,
      "countryCode": "RU",
      "stateCode": "RU-SVE",
      "latitude": 56.69455,
      "longitude": 62.10277
    },
    {
      "id": 12625940,
      "name": "Degtyarsk Urban District",
      "nativeName": "Degtyarsk Urban District",
      "code": "RU-SVE-12625940",
      "countryId": 2017370,
      "countryCode": "RU",
      "stateCode": "RU-SVE",
      "latitude": 56.70136,
      "longitude": 60.09116
    },
    {
      "id": 12640223,
      "name": "Garinsky Urban District",
      "nativeName": "Garinsky Urban District",
      "code": "RU-SVE-12640223",
      "countryId": 2017370,
      "countryCode": "RU",
      "stateCode": "RU-SVE",
      "latitude": 59.42868,
      "longitude": 62.35065
    },
    {
      "id": 12625911,
      "name": "Gornouralsk City Center",
      "nativeName": "Gornouralsk City Center",
      "code": "RU-SVE-12625911",
      "countryId": 2017370,
      "countryCode": "RU",
      "stateCode": "RU-SVE",
      "latitude": 58.06931,
      "longitude": 59.86996
    },
    {
      "id": 12789796,
      "name": "Gorodskoy Okrug Alapayevsk",
      "nativeName": "Gorodskoy Okrug Alapayevsk",
      "code": "RU-SVE-12789796",
      "countryId": 2017370,
      "countryCode": "RU",
      "stateCode": "RU-SVE",
      "latitude": 57.81445,
      "longitude": 61.433
    },
    {
      "id": 12789801,
      "name": "Gorodskoy Okrug Karpinsk",
      "nativeName": "Gorodskoy Okrug Karpinsk",
      "code": "RU-SVE-12789801",
      "countryId": 2017370,
      "countryCode": "RU",
      "stateCode": "RU-SVE",
      "latitude": 59.8036,
      "longitude": 59.38369
    },
    {
      "id": 12789813,
      "name": "Gorodskoy Okrug Krasnotur'insk",
      "nativeName": "Gorodskoy Okrug Krasnotur'insk",
      "code": "RU-SVE-12789813",
      "countryId": 2017370,
      "countryCode": "RU",
      "stateCode": "RU-SVE",
      "latitude": 59.77901,
      "longitude": 60.24473
    },
    {
      "id": 12789810,
      "name": "Gorodskoy Okrug Krasnoufimsk",
      "nativeName": "Gorodskoy Okrug Krasnoufimsk",
      "code": "RU-SVE-12789810",
      "countryId": 2017370,
      "countryCode": "RU",
      "stateCode": "RU-SVE",
      "latitude": 56.55528,
      "longitude": 57.70128
    },
    {
      "id": 12789806,
      "name": "Gorodskoy Okrug Krasnoural'sk",
      "nativeName": "Gorodskoy Okrug Krasnoural'sk",
      "code": "RU-SVE-12789806",
      "countryId": 2017370,
      "countryCode": "RU",
      "stateCode": "RU-SVE",
      "latitude": 58.3387,
      "longitude": 60.22082
    },
    {
      "id": 12789812,
      "name": "Gorodskoy Okrug Nizhniy Tagil",
      "nativeName": "Gorodskoy Okrug Nizhniy Tagil",
      "code": "RU-SVE-12789812",
      "countryId": 2017370,
      "countryCode": "RU",
      "stateCode": "RU-SVE",
      "latitude": 57.77777,
      "longitude": 59.35184
    },
    {
      "id": 12789809,
      "name": "Gorodskoy Okrug Nizhnyaya Salda",
      "nativeName": "Gorodskoy Okrug Nizhnyaya Salda",
      "code": "RU-SVE-12789809",
      "countryId": 2017370,
      "countryCode": "RU",
      "stateCode": "RU-SVE",
      "latitude": 58.10626,
      "longitude": 60.94479
    },
    {
      "id": 12789817,
      "name": "Gorodskoy Okrug Pervoural'sk",
      "nativeName": "Gorodskoy Okrug Pervoural'sk",
      "code": "RU-SVE-12789817",
      "countryId": 2017370,
      "countryCode": "RU",
      "stateCode": "RU-SVE",
      "latitude": 56.99458,
      "longitude": 59.78816
    },
    {
      "id": 12789804,
      "name": "Gorodskoy Okrug Yekaterinburg",
      "nativeName": "Gorodskoy Okrug Yekaterinburg",
      "code": "RU-SVE-12789804",
      "countryId": 2017370,
      "countryCode": "RU",
      "stateCode": "RU-SVE",
      "latitude": 56.81731,
      "longitude": 60.62615
    },
    {
      "id": 12625920,
      "name": "Irbit Urban District",
      "nativeName": "Irbit Urban District",
      "code": "RU-SVE-12625920",
      "countryId": 2017370,
      "countryCode": "RU",
      "stateCode": "RU-SVE",
      "latitude": 57.67144,
      "longitude": 63.05864
    },
    {
      "id": 12625930,
      "name": "Ivdel Urban District",
      "nativeName": "Ivdel Urban District",
      "code": "RU-SVE-12625930",
      "countryId": 2017370,
      "countryCode": "RU",
      "stateCode": "RU-SVE",
      "latitude": 60.69195,
      "longitude": 60.43807
    },
    {
      "id": 12789802,
      "name": "Ivdel'skiy Gorodskoy Okrug",
      "nativeName": "Ivdel'skiy Gorodskoy Okrug",
      "code": "RU-SVE-12789802",
      "countryId": 2017370,
      "countryCode": "RU",
      "stateCode": "RU-SVE",
      "latitude": 61.04749,
      "longitude": 60.41484
    },
    {
      "id": 12789805,
      "name": "Kachkanarskiy Gorodskoy Okrug",
      "nativeName": "Kachkanarskiy Gorodskoy Okrug",
      "code": "RU-SVE-12789805",
      "countryId": 2017370,
      "countryCode": "RU",
      "stateCode": "RU-SVE",
      "latitude": 58.71765,
      "longitude": 59.48177
    },
    {
      "id": 12625645,
      "name": "Kachkanarsky Urban District",
      "nativeName": "Kachkanarsky Urban District",
      "code": "RU-SVE-12625645",
      "countryId": 2017370,
      "countryCode": "RU",
      "stateCode": "RU-SVE",
      "latitude": 58.69508,
      "longitude": 59.4954
    },
    {
      "id": 12640219,
      "name": "Kamensk-Ur Urban District",
      "nativeName": "Kamensk-Ur Urban District",
      "code": "RU-SVE-12640219",
      "countryId": 2017370,
      "countryCode": "RU",
      "stateCode": "RU-SVE",
      "latitude": 56.41579,
      "longitude": 61.92741
    },
    {
      "id": 12789807,
      "name": "Kamensk-Ural'skiy Gorodskoy Okrug",
      "nativeName": "Kamensk-Ural'skiy Gorodskoy Okrug",
      "code": "RU-SVE-12789807",
      "countryId": 2017370,
      "countryCode": "RU",
      "stateCode": "RU-SVE",
      "latitude": 56.40142,
      "longitude": 61.93132
    },
    {
      "id": 1504832,
      "name": "Kamensky District",
      "nativeName": "Kamenskiy Rayon",
      "code": "RU-SVE-1504832",
      "countryId": 2017370,
      "countryCode": "RU",
      "stateCode": "RU-SVE",
      "latitude": 56.47433,
      "longitude": 61.87003
    },
    {
      "id": 12625846,
      "name": "Kamyshlov",
      "nativeName": "Kamyshlov",
      "code": "RU-SVE-12625846",
      "countryId": 2017370,
      "countryCode": "RU",
      "stateCode": "RU-SVE",
      "latitude": 56.84114,
      "longitude": 62.71712
    },
    {
      "id": 12789808,
      "name": "Kamyshlovskiy Gorodskoy Okrug",
      "nativeName": "Kamyshlovskiy Gorodskoy Okrug",
      "code": "RU-SVE-12789808",
      "countryId": 2017370,
      "countryCode": "RU",
      "stateCode": "RU-SVE",
      "latitude": 56.84544,
      "longitude": 62.71496
    },
    {
      "id": 12625915,
      "name": "Kamyshlovsky District",
      "nativeName": "Kamyshlovsky District",
      "code": "RU-SVE-12625915",
      "countryId": 2017370,
      "countryCode": "RU",
      "stateCode": "RU-SVE",
      "latitude": 56.83959,
      "longitude": 62.71901
    },
    {
      "id": 12625923,
      "name": "Karpinsk Urban District",
      "nativeName": "Karpinsk Urban District",
      "code": "RU-SVE-12625923",
      "countryId": 2017370,
      "countryCode": "RU",
      "stateCode": "RU-SVE",
      "latitude": 59.7703,
      "longitude": 60.00773
    },
    {
      "id": 12625842,
      "name": "Kirovgrad",
      "nativeName": "Kirovgrad",
      "code": "RU-SVE-12625842",
      "countryId": 2017370,
      "countryCode": "RU",
      "stateCode": "RU-SVE",
      "latitude": 57.42571,
      "longitude": 60.07037
    },
    {
      "id": 12789814,
      "name": "Kirovgradskiy Gorodskoy Okrug",
      "nativeName": "Kirovgradskiy Gorodskoy Okrug",
      "code": "RU-SVE-12789814",
      "countryId": 2017370,
      "countryCode": "RU",
      "stateCode": "RU-SVE",
      "latitude": 57.50002,
      "longitude": 59.91814
    },
    {
      "id": 12625926,
      "name": "Krasnotur Urban district",
      "nativeName": "Krasnotur Urban district",
      "code": "RU-SVE-12625926",
      "countryId": 2017370,
      "countryCode": "RU",
      "stateCode": "RU-SVE",
      "latitude": 59.77939,
      "longitude": 60.20826
    },
    {
      "id": 12625944,
      "name": "Krasnoufim Urban District",
      "nativeName": "Krasnoufim Urban District",
      "code": "RU-SVE-12625944",
      "countryId": 2017370,
      "countryCode": "RU",
      "stateCode": "RU-SVE",
      "latitude": 56.61964,
      "longitude": 57.76342
    },
    {
      "id": 542198,
      "name": "Krasnoufimsky District",
      "nativeName": "Krasnoufimskiy Rayon",
      "code": "RU-SVE-542198",
      "countryId": 2017370,
      "countryCode": "RU",
      "stateCode": "RU-SVE",
      "latitude": 56.50379,
      "longitude": 57.72533
    },
    {
      "id": 12625859,
      "name": "Krasnoural Urban District",
      "nativeName": "Krasnoural Urban District",
      "code": "RU-SVE-12625859",
      "countryId": 2017370,
      "countryCode": "RU",
      "stateCode": "RU-SVE",
      "latitude": 58.3589,
      "longitude": 60.04911
    },
    {
      "id": 12789800,
      "name": "Kushvinskiy Gorodskoy Okrug",
      "nativeName": "Kushvinskiy Gorodskoy Okrug",
      "code": "RU-SVE-12789800",
      "countryId": 2017370,
      "countryCode": "RU",
      "stateCode": "RU-SVE",
      "latitude": 58.295,
      "longitude": 59.54576
    },
    {
      "id": 12640221,
      "name": "Kushvinsky Urban District",
      "nativeName": "Kushvinsky Urban District",
      "code": "RU-SVE-12640221",
      "countryId": 2017370,
      "countryCode": "RU",
      "stateCode": "RU-SVE",
      "latitude": 58.29602,
      "longitude": 59.74835
    },
    {
      "id": 12625945,
      "name": "Lesnoy Urban District",
      "nativeName": "Lesnoy Urban District",
      "code": "RU-SVE-12625945",
      "countryId": 2017370,
      "countryCode": "RU",
      "stateCode": "RU-SVE",
      "latitude": 57.65821,
      "longitude": 63.07153
    },
    {
      "id": 12625947,
      "name": "Malyshevsky City District",
      "nativeName": "Malyshevsky City District",
      "code": "RU-SVE-12625947",
      "countryId": 2017370,
      "countryCode": "RU",
      "stateCode": "RU-SVE",
      "latitude": 57.11935,
      "longitude": 61.39641
    },
    {
      "id": 1497793,
      "name": "Nevyansky District",
      "nativeName": "Nevyansky District",
      "code": "RU-SVE-1497793",
      "countryId": 2017370,
      "countryCode": "RU",
      "stateCode": "RU-SVE",
      "latitude": 57.5,
      "longitude": 60.41667
    },
    {
      "id": 521046,
      "name": "Nizhneserginsky District",
      "nativeName": "Nizhneserginsky District",
      "code": "RU-SVE-521046",
      "countryId": 2017370,
      "countryCode": "RU",
      "stateCode": "RU-SVE",
      "latitude": 56.58333,
      "longitude": 59.41667
    },
    {
      "id": 12625913,
      "name": "Nizhneturinsk City Center",
      "nativeName": "Nizhneturinsk City Center",
      "code": "RU-SVE-12625913",
      "countryId": 2017370,
      "countryCode": "RU",
      "stateCode": "RU-SVE",
      "latitude": 56.86248,
      "longitude": 57.42505
    },
    {
      "id": 12789799,
      "name": "Nizhneturinskiy Gorodskoy Okrug",
      "nativeName": "Nizhneturinskiy Gorodskoy Okrug",
      "code": "RU-SVE-12789799",
      "countryId": 2017370,
      "countryCode": "RU",
      "stateCode": "RU-SVE",
      "latitude": 58.75272,
      "longitude": 59.88429
    },
    {
      "id": 12625860,
      "name": "Nizhny Tag Urban District",
      "nativeName": "Nizhny Tag Urban District",
      "code": "RU-SVE-12625860",
      "countryId": 2017370,
      "countryCode": "RU",
      "stateCode": "RU-SVE",
      "latitude": 57.90841,
      "longitude": 59.99315
    },
    {
      "id": 1496971,
      "name": "Novolyalinsky District",
      "nativeName": "Novolyalinsky District",
      "code": "RU-SVE-1496971",
      "countryId": 2017370,
      "countryCode": "RU",
      "stateCode": "RU-SVE",
      "latitude": 59.16667,
      "longitude": 60.5
    },
    {
      "id": 12625943,
      "name": "Novouralsk City",
      "nativeName": "Novouralsk City",
      "code": "RU-SVE-12625943",
      "countryId": 2017370,
      "countryCode": "RU",
      "stateCode": "RU-SVE",
      "latitude": 57.26877,
      "longitude": 60.09282
    },
    {
      "id": 12625916,
      "name": "Pelym",
      "nativeName": "Pelym",
      "code": "RU-SVE-12625916",
      "countryId": 2017370,
      "countryCode": "RU",
      "stateCode": "RU-SVE",
      "latitude": 61.01965,
      "longitude": 61.99263
    },
    {
      "id": 12625925,
      "name": "Pervoural Urban District",
      "nativeName": "Pervoural Urban District",
      "code": "RU-SVE-12625925",
      "countryId": 2017370,
      "countryCode": "RU",
      "stateCode": "RU-SVE",
      "latitude": 56.90715,
      "longitude": 59.97108
    },
    {
      "id": 1536221,
      "name": "Polevskoy Gorodskoy Okrug",
      "nativeName": "Polevskoy Gorodskoy Okrug",
      "code": "RU-SVE-1536221",
      "countryId": 2017370,
      "countryCode": "RU",
      "stateCode": "RU-SVE",
      "latitude": 56.42289,
      "longitude": 60.22448
    },
    {
      "id": 1493867,
      "name": "Pyshminsky District",
      "nativeName": "Pyshminsky District",
      "code": "RU-SVE-1493867",
      "countryId": 2017370,
      "countryCode": "RU",
      "stateCode": "RU-SVE",
      "latitude": 56.83333,
      "longitude": 63.25
    },
    {
      "id": 12625914,
      "name": "Reftinsky",
      "nativeName": "Reftinsky",
      "code": "RU-SVE-12625914",
      "countryId": 2017370,
      "countryCode": "RU",
      "stateCode": "RU-SVE",
      "latitude": 57.08575,
      "longitude": 61.67263
    },
    {
      "id": 12625858,
      "name": "Revda",
      "nativeName": "Revda",
      "code": "RU-SVE-12625858",
      "countryId": 2017370,
      "countryCode": "RU",
      "stateCode": "RU-SVE",
      "latitude": 56.79638,
      "longitude": 59.91861
    },
    {
      "id": 12640226,
      "name": "Rezhevskoy District",
      "nativeName": "Rezhevskoy District",
      "code": "RU-SVE-12640226",
      "countryId": 2017370,
      "countryCode": "RU",
      "stateCode": "RU-SVE",
      "latitude": 57.3689,
      "longitude": 61.40909
    },
    {
      "id": 12789797,
      "name": "Serovskiy Gorodskoy Okrug",
      "nativeName": "Serovskiy Gorodskoy Okrug",
      "code": "RU-SVE-12789797",
      "countryId": 2017370,
      "countryCode": "RU",
      "stateCode": "RU-SVE",
      "latitude": 59.71165,
      "longitude": 61.0794
    },
    {
      "id": 12789819,
      "name": "Severoural'skiy Gorodskoy Okrug",
      "nativeName": "Severoural'skiy Gorodskoy Okrug",
      "code": "RU-SVE-12789819",
      "countryId": 2017370,
      "countryCode": "RU",
      "stateCode": "RU-SVE",
      "latitude": 60.37955,
      "longitude": 59.80122
    },
    {
      "id": 12625912,
      "name": "Severouralsk City",
      "nativeName": "Severouralsk City",
      "code": "RU-SVE-12625912",
      "countryId": 2017370,
      "countryCode": "RU",
      "stateCode": "RU-SVE",
      "latitude": 60.15051,
      "longitude": 59.93935
    },
    {
      "id": 495939,
      "name": "Shalinsky District",
      "nativeName": "Shalinsky District",
      "code": "RU-SVE-495939",
      "countryId": 2017370,
      "countryCode": "RU",
      "stateCode": "RU-SVE",
      "latitude": 57.41667,
      "longitude": 58.83333
    },
    {
      "id": 1491678,
      "name": "Slobodo-Turinsky District",
      "nativeName": "Slobodo-Turinsky District",
      "code": "RU-SVE-1491678",
      "countryId": 2017370,
      "countryCode": "RU",
      "stateCode": "RU-SVE",
      "latitude": 57.58333,
      "longitude": 64.5
    },
    {
      "id": 12640390,
      "name": "Sosvinsky City District",
      "nativeName": "Sosvinsky City District",
      "code": "RU-SVE-12640390",
      "countryId": 2017370,
      "countryCode": "RU",
      "stateCode": "RU-SVE",
      "latitude": 59.59876,
      "longitude": 60.57149
    },
    {
      "id": 12625851,
      "name": "Sredneural Urban District",
      "nativeName": "Sredneural Urban District",
      "code": "RU-SVE-12625851",
      "countryId": 2017370,
      "countryCode": "RU",
      "stateCode": "RU-SVE",
      "latitude": 56.98805,
      "longitude": 60.47521
    },
    {
      "id": 12625853,
      "name": "Staroutkin Urban District",
      "nativeName": "Staroutkin Urban District",
      "code": "RU-SVE-12625853",
      "countryId": 2017370,
      "countryCode": "RU",
      "stateCode": "RU-SVE",
      "latitude": 57.22927,
      "longitude": 59.33427
    },
    {
      "id": 12625646,
      "name": "Sukhoi Log Urban District",
      "nativeName": "Sukhoi Log Urban District",
      "code": "RU-SVE-12625646",
      "countryId": 2017370,
      "countryCode": "RU",
      "stateCode": "RU-SVE",
      "latitude": 56.90936,
      "longitude": 62.04041
    },
    {
      "id": 1490708,
      "name": "Sukholozhsky District",
      "nativeName": "Sukholozhskiy Rayon",
      "code": "RU-SVE-1490708",
      "countryId": 2017370,
      "countryCode": "RU",
      "stateCode": "RU-SVE",
      "latitude": 57.01038,
      "longitude": 62.06448
    },
    {
      "id": 1490399,
      "name": "Sysertskiy Rayon",
      "nativeName": "Sysertskiy Rayon",
      "code": "RU-SVE-1490399",
      "countryId": 2017370,
      "countryCode": "RU",
      "stateCode": "RU-SVE",
      "latitude": 56.45563,
      "longitude": 60.811
    },
    {
      "id": 1490366,
      "name": "Taborinsky District",
      "nativeName": "Taborinsky District",
      "code": "RU-SVE-1490366",
      "countryId": 2017370,
      "countryCode": "RU",
      "stateCode": "RU-SVE",
      "latitude": 58.83333,
      "longitude": 64.5
    },
    {
      "id": 1490273,
      "name": "Talitsky District",
      "nativeName": "Talitsky District",
      "code": "RU-SVE-1490273",
      "countryId": 2017370,
      "countryCode": "RU",
      "stateCode": "RU-SVE",
      "latitude": 57.08333,
      "longitude": 63.66667
    },
    {
      "id": 12640394,
      "name": "Tavdinsky Urban District",
      "nativeName": "Tavdinsky Urban District",
      "code": "RU-SVE-12640394",
      "countryId": 2017370,
      "countryCode": "RU",
      "stateCode": "RU-SVE",
      "latitude": 58.04241,
      "longitude": 65.26486
    },
    {
      "id": 1489055,
      "name": "Tugulymsky District",
      "nativeName": "Tugulymsky District",
      "code": "RU-SVE-1489055",
      "countryId": 2017370,
      "countryCode": "RU",
      "stateCode": "RU-SVE",
      "latitude": 57.08333,
      "longitude": 64.5
    },
    {
      "id": 1488929,
      "name": "Turinsky District",
      "nativeName": "Turinsky District",
      "code": "RU-SVE-1488929",
      "countryId": 2017370,
      "countryCode": "RU",
      "stateCode": "RU-SVE",
      "latitude": 58.25,
      "longitude": 63.33333
    },
    {
      "id": 12640392,
      "name": "Uralsky",
      "nativeName": "Uralsky",
      "code": "RU-SVE-12640392",
      "countryId": 2017370,
      "countryCode": "RU",
      "stateCode": "RU-SVE",
      "latitude": 56.6745,
      "longitude": 61.07948
    },
    {
      "id": 12625939,
      "name": "Verkh-Neyvinsky",
      "nativeName": "Verkh-Neyvinsky",
      "code": "RU-SVE-12625939",
      "countryId": 2017370,
      "countryCode": "RU",
      "stateCode": "RU-SVE",
      "latitude": 57.26841,
      "longitude": 60.13538
    },
    {
      "id": 12625927,
      "name": "Verkhnesaldinsky Urban Okrug",
      "nativeName": "Verkhnesaldinsky Urban Okrug",
      "code": "RU-SVE-12625927",
      "countryId": 2017370,
      "countryCode": "RU",
      "stateCode": "RU-SVE",
      "latitude": 58.07457,
      "longitude": 60.75956
    },
    {
      "id": 12625918,
      "name": "Verkhneye Dubrovo",
      "nativeName": "Verkhneye Dubrovo",
      "code": "RU-SVE-12625918",
      "countryId": 2017370,
      "countryCode": "RU",
      "stateCode": "RU-SVE",
      "latitude": 56.75224,
      "longitude": 61.05049
    },
    {
      "id": 12640220,
      "name": "Verkhnyaya Pyshma",
      "nativeName": "Verkhnyaya Pyshma",
      "code": "RU-SVE-12640220",
      "countryId": 2017370,
      "countryCode": "RU",
      "stateCode": "RU-SVE",
      "latitude": 56.97712,
      "longitude": 60.60107
    },
    {
      "id": 12625948,
      "name": "Verkhnyaya Tu Urban District",
      "nativeName": "Verkhnyaya Tu Urban District",
      "code": "RU-SVE-12625948",
      "countryId": 2017370,
      "countryCode": "RU",
      "stateCode": "RU-SVE",
      "latitude": 58.36155,
      "longitude": 59.79688
    },
    {
      "id": 1487220,
      "name": "Verkhotursky District",
      "nativeName": "Verkhotursky District",
      "code": "RU-SVE-1487220",
      "countryId": 2017370,
      "countryCode": "RU",
      "stateCode": "RU-SVE",
      "latitude": 58.66667,
      "longitude": 61.5
    },
    {
      "id": 12625917,
      "name": "Volchansky",
      "nativeName": "Volchansky",
      "code": "RU-SVE-12625917",
      "countryId": 2017370,
      "countryCode": "RU",
      "stateCode": "RU-SVE",
      "latitude": 59.93535,
      "longitude": 60.08443
    },
    {
      "id": 12625847,
      "name": "Yekaterinburg Municipality",
      "nativeName": "Yekaterinburg Municipality",
      "code": "RU-SVE-12625847",
      "countryId": 2017370,
      "countryCode": "RU",
      "stateCode": "RU-SVE",
      "latitude": 56.81881,
      "longitude": 60.62044
    },
    {
      "id": 12789815,
      "name": "ZATO Lesnoy",
      "nativeName": "ZATO Lesnoy",
      "code": "RU-SVE-12789815",
      "countryId": 2017370,
      "countryCode": "RU",
      "stateCode": "RU-SVE",
      "latitude": 58.63951,
      "longitude": 59.67722
    },
    {
      "id": 12789798,
      "name": "ZATO Novoural'sk",
      "nativeName": "ZATO Novoural'sk",
      "code": "RU-SVE-12789798",
      "countryId": 2017370,
      "countryCode": "RU",
      "stateCode": "RU-SVE",
      "latitude": 57.19939,
      "longitude": 60.02961
    },
    {
      "id": 12640222,
      "name": "ZATO Svobodny",
      "nativeName": "ZATO Svobodny",
      "code": "RU-SVE-12640222",
      "countryId": 2017370,
      "countryCode": "RU",
      "stateCode": "RU-SVE",
      "latitude": 58.04152,
      "longitude": 60.39036
    },
    {
      "id": 12789816,
      "name": "ZATO Ural'skiy",
      "nativeName": "ZATO Ural'skiy",
      "code": "RU-SVE-12789816",
      "countryId": 2017370,
      "countryCode": "RU",
      "stateCode": "RU-SVE",
      "latitude": 56.68481,
      "longitude": 61.08433
    },
    {
      "id": 12625941,
      "name": "Zarechny Urban District",
      "nativeName": "Zarechny Urban District",
      "code": "RU-SVE-12625941",
      "countryId": 2017370,
      "countryCode": "RU",
      "stateCode": "RU-SVE",
      "latitude": 56.80593,
      "longitude": 61.33124
    }
  ]
}