{
  "stateId": 498671,
  "stateCode": "RU-SAR",
  "countryCode": "RU",
  "cities": [
    {
      "id": 583047,
      "name": "Alexandrovo-Gaysky District",
      "nativeName": "Alexandrovo-Gaysky District",
      "code": "RU-SAR-583047",
      "countryId": 2017370,
      "countryCode": "RU",
      "stateCode": "RU-SAR",
      "latitude": 50.15,
      "longitude": 48.56667
    },
    {
      "id": 581077,
      "name": "Arkadaksky District",
      "nativeName": "Arkadaksky District",
      "code": "RU-SAR-581077",
      "countryId": 2017370,
      "countryCode": "RU",
      "stateCode": "RU-SAR",
      "latitude": 51.75,
      "longitude": 43.58333
    },
    {
      "id": 580419,
      "name": "Atkarskiy Rayon",
      "nativeName": "Atkarskiy Rayon",
      "code": "RU-SAR-580419",
      "countryId": 2017370,
      "countryCode": "RU",
      "stateCode": "RU-SAR",
      "latitude": 51.91667,
      "longitude": 45
    },
    {
      "id": 12625992,
      "name": "Balakovsky District",
      "nativeName": "Balakovsky District",
      "code": "RU-SAR-12625992",
      "countryId": 2017370,
      "countryCode": "RU",
      "stateCode": "RU-SAR",
      "latitude": 52.01683,
      "longitude": 47.81031
    },
    {
      "id": 579454,
      "name": "Balashovsky District",
      "nativeName": "Balashovsky District",
      "code": "RU-SAR-579454",
      "countryId": 2017370,
      "countryCode": "RU",
      "stateCode": "RU-SAR",
      "latitude": 51.58333,
      "longitude": 43.16667
    },
    {
      "id": 579379,
      "name": "Baltayskiy Rayon",
      "nativeName": "Baltayskiy Rayon",
      "code": "RU-SAR-579379",
      "countryId": 2017370,
      "countryCode": "RU",
      "stateCode": "RU-SAR",
      "latitude": 52.5,
      "longitude": 46.66667
    },
    {
      "id": 578469,
      "name": "Bazarno-Karabulaksky District",
      "nativeName": "Bazarno-Karabulakskiy Rayon",
      "code": "RU-SAR-578469",
      "countryId": 2017370,
      "countryCode": "RU",
      "stateCode": "RU-SAR",
      "latitude": 52.33333,
      "longitude": 46.33333
    },
    {
      "id": 12625975,
      "name": "Dergachyovsky District",
      "nativeName": "Dergachyovsky District",
      "code": "RU-SAR-12625975",
      "countryId": 2017370,
      "countryCode": "RU",
      "stateCode": "RU-SAR",
      "latitude": 51.20344,
      "longitude": 48.78076
    },
    {
      "id": 564242,
      "name": "Dukhovnitsky District",
      "nativeName": "Dukhovnitsky District",
      "code": "RU-SAR-564242",
      "countryId": 2017370,
      "countryCode": "RU",
      "stateCode": "RU-SAR",
      "latitude": 52.5,
      "longitude": 48.5
    },
    {
      "id": 563462,
      "name": "Engelssky District",
      "nativeName": "Engel’sskiy Rayon",
      "code": "RU-SAR-563462",
      "countryId": 2017370,
      "countryCode": "RU",
      "stateCode": "RU-SAR",
      "latitude": 51.5,
      "longitude": 46.16667
    },
    {
      "id": 12640214,
      "name": "Fyodorovsky District",
      "nativeName": "Fyodorovsky District",
      "code": "RU-SAR-12640214",
      "countryId": 2017370,
      "countryCode": "RU",
      "stateCode": "RU-SAR",
      "latitude": 51.23475,
      "longitude": 47.51138
    },
    {
      "id": 555108,
      "name": "Ivanteyevsky District",
      "nativeName": "Ivanteyevsky District",
      "code": "RU-SAR-555108",
      "countryId": 2017370,
      "countryCode": "RU",
      "stateCode": "RU-SAR",
      "latitude": 52.25,
      "longitude": 49.25
    },
    {
      "id": 554178,
      "name": "Kalininsky District",
      "nativeName": "Kalininsky District",
      "code": "RU-SAR-554178",
      "countryId": 2017370,
      "countryCode": "RU",
      "stateCode": "RU-SAR",
      "latitude": 51.5,
      "longitude": 44.5
    },
    {
      "id": 548980,
      "name": "Khvalynskiy Rayon",
      "nativeName": "Khvalynskiy Rayon",
      "code": "RU-SAR-548980",
      "countryId": 2017370,
      "countryCode": "RU",
      "stateCode": "RU-SAR",
      "latitude": 52.5,
      "longitude": 47.91667
    },
    {
      "id": 542438,
      "name": "Krasnoarmeysky District",
      "nativeName": "Krasnoarmeyskiy Rayon",
      "code": "RU-SAR-542438",
      "countryId": 2017370,
      "countryCode": "RU",
      "stateCode": "RU-SAR",
      "latitude": 51,
      "longitude": 45.5
    },
    {
      "id": 542310,
      "name": "Krasnokutsky District",
      "nativeName": "Krasnokutskiy Rayon",
      "code": "RU-SAR-542310",
      "countryId": 2017370,
      "countryCode": "RU",
      "stateCode": "RU-SAR",
      "latitude": 51,
      "longitude": 47
    },
    {
      "id": 542275,
      "name": "Krasnopartizansky District",
      "nativeName": "Krasnopartizansky District",
      "code": "RU-SAR-542275",
      "countryId": 2017370,
      "countryCode": "RU",
      "stateCode": "RU-SAR",
      "latitude": 51.75,
      "longitude": 48.75
    },
    {
      "id": 532700,
      "name": "Lysogorsky District",
      "nativeName": "Lysogorsky District",
      "code": "RU-SAR-532700",
      "countryId": 2017370,
      "countryCode": "RU",
      "stateCode": "RU-SAR",
      "latitude": 51.5,
      "longitude": 44.91667
    },
    {
      "id": 529068,
      "name": "Marksovsky District",
      "nativeName": "Marksovskiy Rayon",
      "code": "RU-SAR-529068",
      "countryId": 2017370,
      "countryCode": "RU",
      "stateCode": "RU-SAR",
      "latitude": 51.66667,
      "longitude": 46.83333
    },
    {
      "id": 518986,
      "name": "Novoburassky District",
      "nativeName": "Novoburassky District",
      "code": "RU-SAR-518986",
      "countryId": 2017370,
      "countryCode": "RU",
      "stateCode": "RU-SAR",
      "latitude": 52.16667,
      "longitude": 45.91667
    },
    {
      "id": 517737,
      "name": "Novouzensky District",
      "nativeName": "Novouzensky District",
      "code": "RU-SAR-517737",
      "countryId": 2017370,
      "countryCode": "RU",
      "stateCode": "RU-SAR",
      "latitude": 50.5,
      "longitude": 48.08333
    },
    {
      "id": 513326,
      "name": "Ozinsky District",
      "nativeName": "Ozinsky District",
      "code": "RU-SAR-513326",
      "countryId": 2017370,
      "countryCode": "RU",
      "stateCode": "RU-SAR",
      "latitude": 51.41667,
      "longitude": 50
    },
    {
      "id": 511413,
      "name": "Perelyubsky District",
      "nativeName": "Perelyubsky District",
      "code": "RU-SAR-511413",
      "countryId": 2017370,
      "countryCode": "RU",
      "stateCode": "RU-SAR",
      "latitude": 51.83333,
      "longitude": 50.25
    },
    {
      "id": 509911,
      "name": "Petrovsky District",
      "nativeName": "Petrovsky District",
      "code": "RU-SAR-509911",
      "countryId": 2017370,
      "countryCode": "RU",
      "stateCode": "RU-SAR",
      "latitude": 52.25,
      "longitude": 45.5
    },
    {
      "id": 509259,
      "name": "Pitersky District",
      "nativeName": "Pitersky District",
      "code": "RU-SAR-509259",
      "countryId": 2017370,
      "countryCode": "RU",
      "stateCode": "RU-SAR",
      "latitude": 50.75,
      "longitude": 47.5
    },
    {
      "id": 12625990,
      "name": "Pugachyovsky District",
      "nativeName": "Pugachyovsky District",
      "code": "RU-SAR-12625990",
      "countryId": 2017370,
      "countryCode": "RU",
      "stateCode": "RU-SAR",
      "latitude": 52.03519,
      "longitude": 48.84027
    },
    {
      "id": 501392,
      "name": "Romanovsky District",
      "nativeName": "Romanovsky District",
      "code": "RU-SAR-501392",
      "countryId": 2017370,
      "countryCode": "RU",
      "stateCode": "RU-SAR",
      "latitude": 51.75,
      "longitude": 42.83333
    },
    {
      "id": 501123,
      "name": "Rovensky District",
      "nativeName": "Rovensky District",
      "code": "RU-SAR-501123",
      "countryId": 2017370,
      "countryCode": "RU",
      "stateCode": "RU-SAR",
      "latitude": 50.76667,
      "longitude": 46.05
    },
    {
      "id": 500881,
      "name": "Rtishchevsky District",
      "nativeName": "Rtishchevsky District",
      "code": "RU-SAR-500881",
      "countryId": 2017370,
      "countryCode": "RU",
      "stateCode": "RU-SAR",
      "latitude": 52.25,
      "longitude": 43.75
    },
    {
      "id": 498943,
      "name": "Samoylovsky District",
      "nativeName": "Samoylovsky District",
      "code": "RU-SAR-498943",
      "countryId": 2017370,
      "countryCode": "RU",
      "stateCode": "RU-SAR",
      "latitude": 51.25,
      "longitude": 43.91667
    },
    {
      "id": 12625989,
      "name": "Saratov",
      "nativeName": "Saratov",
      "code": "RU-SAR-12625989",
      "countryId": 2017370,
      "countryCode": "RU",
      "stateCode": "RU-SAR",
      "latitude": 51.51066,
      "longitude": 45.94819
    },
    {
      "id": 498661,
      "name": "Saratovsky District",
      "nativeName": "Saratovskiy Rayon",
      "code": "RU-SAR-498661",
      "countryId": 2017370,
      "countryCode": "RU",
      "stateCode": "RU-SAR",
      "latitude": 51.75,
      "longitude": 46.16667
    },
    {
      "id": 12625988,
      "name": "Shikhany",
      "nativeName": "Shikhany",
      "code": "RU-SAR-12625988",
      "countryId": 2017370,
      "countryCode": "RU",
      "stateCode": "RU-SAR",
      "latitude": 52.11613,
      "longitude": 47.19757
    },
    {
      "id": 490027,
      "name": "Sovetskiy Rayon",
      "nativeName": "Sovetskiy Rayon",
      "code": "RU-SAR-490027",
      "countryId": 2017370,
      "countryCode": "RU",
      "stateCode": "RU-SAR",
      "latitude": 51.41667,
      "longitude": 46.83333
    },
    {
      "id": 12625991,
      "name": "Svetly",
      "nativeName": "Svetly",
      "code": "RU-SAR-12625991",
      "countryId": 2017370,
      "countryCode": "RU",
      "stateCode": "RU-SAR",
      "latitude": 51.72691,
      "longitude": 48.96334
    },
    {
      "id": 12625987,
      "name": "Tatishchevsky District",
      "nativeName": "Tatishchevsky District",
      "code": "RU-SAR-12625987",
      "countryId": 2017370,
      "countryCode": "RU",
      "stateCode": "RU-SAR",
      "latitude": 51.66911,
      "longitude": 45.58669
    },
    {
      "id": 480248,
      "name": "Turkovsky District",
      "nativeName": "Turkovsky District",
      "code": "RU-SAR-480248",
      "countryId": 2017370,
      "countryCode": "RU",
      "stateCode": "RU-SAR",
      "latitude": 52,
      "longitude": 43.08333
    },
    {
      "id": 472276,
      "name": "Volsky District",
      "nativeName": "Vol’skiy Rayon",
      "code": "RU-SAR-472276",
      "countryId": 2017370,
      "countryCode": "RU",
      "stateCode": "RU-SAR",
      "latitude": 52.08333,
      "longitude": 47.25
    },
    {
      "id": 471644,
      "name": "Voskresenskiy Rayon",
      "nativeName": "Voskresenskiy Rayon",
      "code": "RU-SAR-471644",
      "countryId": 2017370,
      "countryCode": "RU",
      "stateCode": "RU-SAR",
      "latitude": 51.84139,
      "longitude": 46.9025
    },
    {
      "id": 468124,
      "name": "Yekaterinovsky District",
      "nativeName": "Yekaterinovsky District",
      "code": "RU-SAR-468124",
      "countryId": 2017370,
      "countryCode": "RU",
      "stateCode": "RU-SAR",
      "latitude": 52,
      "longitude": 44.5
    },
    {
      "id": 467093,
      "name": "Yershovsky District",
      "nativeName": "Yershovsky District",
      "code": "RU-SAR-467093",
      "countryId": 2017370,
      "countryCode": "RU",
      "stateCode": "RU-SAR",
      "latitude": 51.33333,
      "longitude": 48.25
    }
  ]
}