{
  "stateId": 472755,
  "stateCode": "RU-VGG",
  "countryCode": "RU",
  "cities": [
    {
      "id": 582788,
      "name": "Alexeyevsky District",
      "nativeName": "Alekseyevskiy Rayon",
      "code": "RU-VGG-582788",
      "countryId": 2017370,
      "countryCode": "RU",
      "stateCode": "RU-VGG",
      "latitude": 50.2072,
      "longitude": 42.18364
    },
    {
      "id": 570251,
      "name": "Bykovsky District",
      "nativeName": "Bykovskiy Rayon",
      "code": "RU-VGG-570251",
      "countryId": 2017370,
      "countryCode": "RU",
      "stateCode": "RU-VGG",
      "latitude": 49.45495,
      "longitude": 45.34608
    },
    {
      "id": 568526,
      "name": "Chernyshkovsky District",
      "nativeName": "Chernyshkovskiy Rayon",
      "code": "RU-VGG-568526",
      "countryId": 2017370,
      "countryCode": "RU",
      "stateCode": "RU-VGG",
      "latitude": 48.16683,
      "longitude": 42.51925
    },
    {
      "id": 567119,
      "name": "Danilovsky District",
      "nativeName": "Danilovskiy Rayon",
      "code": "RU-VGG-567119",
      "countryId": 2017370,
      "countryCode": "RU",
      "stateCode": "RU-VGG",
      "latitude": 50.35306,
      "longitude": 44.13258
    },
    {
      "id": 564599,
      "name": "Dubovsky District",
      "nativeName": "Dubovskiy Rayon",
      "code": "RU-VGG-564599",
      "countryId": 2017370,
      "countryCode": "RU",
      "stateCode": "RU-VGG",
      "latitude": 49.30871,
      "longitude": 44.76957
    },
    {
      "id": 12626021,
      "name": "Frolovo",
      "nativeName": "Frolovo",
      "code": "RU-VGG-12626021",
      "countryId": 2017370,
      "countryCode": "RU",
      "stateCode": "RU-VGG",
      "latitude": 49.77111,
      "longitude": 43.64883
    },
    {
      "id": 562360,
      "name": "Frolovsky District",
      "nativeName": "Frolovskiy Rayon",
      "code": "RU-VGG-562360",
      "countryId": 2017370,
      "countryCode": "RU",
      "stateCode": "RU-VGG",
      "latitude": 49.84312,
      "longitude": 43.83839
    },
    {
      "id": 559586,
      "name": "Gorodishchensky District",
      "nativeName": "Gorodishchenskiy Rayon",
      "code": "RU-VGG-559586",
      "countryId": 2017370,
      "countryCode": "RU",
      "stateCode": "RU-VGG",
      "latitude": 48.86413,
      "longitude": 44.19862
    },
    {
      "id": 13071160,
      "name": "Gorodskoy Okrug Volgograd",
      "nativeName": "Gorodskoy Okrug Volgograd",
      "code": "RU-VGG-13071160",
      "countryId": 2017370,
      "countryCode": "RU",
      "stateCode": "RU-VGG",
      "latitude": 48.64866,
      "longitude": 44.39224
    },
    {
      "id": 13071159,
      "name": "Gorodskoy Okrug Volzhskiy",
      "nativeName": "Gorodskoy Okrug Volzhskiy",
      "code": "RU-VGG-13071159",
      "countryId": 2017370,
      "countryCode": "RU",
      "stateCode": "RU-VGG",
      "latitude": 48.82237,
      "longitude": 44.75226
    },
    {
      "id": 556962,
      "name": "Ilovlinsky District",
      "nativeName": "Ilovlinskiy Rayon",
      "code": "RU-VGG-556962",
      "countryId": 2017370,
      "countryCode": "RU",
      "stateCode": "RU-VGG",
      "latitude": 49.30382,
      "longitude": 43.93656
    },
    {
      "id": 554403,
      "name": "Kalachëvskiy Rayon",
      "nativeName": "Kalachëvskiy Rayon",
      "code": "RU-VGG-554403",
      "countryId": 2017370,
      "countryCode": "RU",
      "stateCode": "RU-VGG",
      "latitude": 48.61253,
      "longitude": 43.74005
    },
    {
      "id": 12625786,
      "name": "Kamyshin",
      "nativeName": "Kamyshin",
      "code": "RU-VGG-12625786",
      "countryId": 2017370,
      "countryCode": "RU",
      "stateCode": "RU-VGG",
      "latitude": 50.1045,
      "longitude": 45.39473
    },
    {
      "id": 553278,
      "name": "Kamyshinsky District",
      "nativeName": "Kamyshinskiy Rayon",
      "code": "RU-VGG-553278",
      "countryId": 2017370,
      "countryCode": "RU",
      "stateCode": "RU-VGG",
      "latitude": 50.24511,
      "longitude": 45.3679
    },
    {
      "id": 548738,
      "name": "Kikvidzenskiy Rayon",
      "nativeName": "Kikvidzenskiy Rayon",
      "code": "RU-VGG-548738",
      "countryId": 2017370,
      "countryCode": "RU",
      "stateCode": "RU-VGG",
      "latitude": 50.75,
      "longitude": 43.16667
    },
    {
      "id": 547676,
      "name": "Kletsky District",
      "nativeName": "Kletskiy Rayon",
      "code": "RU-VGG-547676",
      "countryId": 2017370,
      "countryCode": "RU",
      "stateCode": "RU-VGG",
      "latitude": 49.16667,
      "longitude": 43.00995
    },
    {
      "id": 543723,
      "name": "Kotelnikovsky District",
      "nativeName": "Kotel’nikovskiy Rayon",
      "code": "RU-VGG-543723",
      "countryId": 2017370,
      "countryCode": "RU",
      "stateCode": "RU-VGG",
      "latitude": 47.75,
      "longitude": 43.25
    },
    {
      "id": 543599,
      "name": "Kotovsky District",
      "nativeName": "Kotovskiy Rayon",
      "code": "RU-VGG-543599",
      "countryId": 2017370,
      "countryCode": "RU",
      "stateCode": "RU-VGG",
      "latitude": 50.33333,
      "longitude": 44.83333
    },
    {
      "id": 507965,
      "name": "Kumylzhenskiy Rayon",
      "nativeName": "Kumylzhenskiy Rayon",
      "code": "RU-VGG-507965",
      "countryId": 2017370,
      "countryCode": "RU",
      "stateCode": "RU-VGG",
      "latitude": 49.83333,
      "longitude": 42.43672
    },
    {
      "id": 536043,
      "name": "Leninsky District",
      "nativeName": "Leninskiy Rayon",
      "code": "RU-VGG-536043",
      "countryId": 2017370,
      "countryCode": "RU",
      "stateCode": "RU-VGG",
      "latitude": 48.80677,
      "longitude": 45.41142
    },
    {
      "id": 12626023,
      "name": "Mikhailovka Urban District",
      "nativeName": "Mikhailovka Urban District",
      "code": "RU-VGG-12626023",
      "countryId": 2017370,
      "countryCode": "RU",
      "stateCode": "RU-VGG",
      "latitude": 50.0578,
      "longitude": 43.23
    },
    {
      "id": 526754,
      "name": "Mikhaylovka Urban Okrug",
      "nativeName": "Mikhaylovka Urban Okrug",
      "code": "RU-VGG-526754",
      "countryId": 2017370,
      "countryCode": "RU",
      "stateCode": "RU-VGG",
      "latitude": 50,
      "longitude": 43.41667
    },
    {
      "id": 522901,
      "name": "Nekhayevskiy Rayon",
      "nativeName": "Nekhayevskiy Rayon",
      "code": "RU-VGG-522901",
      "countryId": 2017370,
      "countryCode": "RU",
      "stateCode": "RU-VGG",
      "latitude": 50.31882,
      "longitude": 41.70597
    },
    {
      "id": 521848,
      "name": "Nikolayevsky District",
      "nativeName": "Nikolayevskiy Rayon",
      "code": "RU-VGG-521848",
      "countryId": 2017370,
      "countryCode": "RU",
      "stateCode": "RU-VGG",
      "latitude": 50.00271,
      "longitude": 45.95515
    },
    {
      "id": 519061,
      "name": "Novoanninsky District",
      "nativeName": "Novoanninskiy Rayon",
      "code": "RU-VGG-519061",
      "countryId": 2017370,
      "countryCode": "RU",
      "stateCode": "RU-VGG",
      "latitude": 50.50489,
      "longitude": 42.7107
    },
    {
      "id": 518482,
      "name": "Novonikolayevsky District",
      "nativeName": "Novonikolayevskiy Rayon",
      "code": "RU-VGG-518482",
      "countryId": 2017370,
      "countryCode": "RU",
      "stateCode": "RU-VGG",
      "latitude": 51,
      "longitude": 42.58333
    },
    {
      "id": 515839,
      "name": "Oktyabrsky District",
      "nativeName": "Oktyabr’skiy Rayon",
      "code": "RU-VGG-515839",
      "countryId": 2017370,
      "countryCode": "RU",
      "stateCode": "RU-VGG",
      "latitude": 48.05871,
      "longitude": 43.62785
    },
    {
      "id": 515423,
      "name": "Olkhovsky District",
      "nativeName": "Ol’khovskiy Rayon",
      "code": "RU-VGG-515423",
      "countryId": 2017370,
      "countryCode": "RU",
      "stateCode": "RU-VGG",
      "latitude": 49.82334,
      "longitude": 44.54498
    },
    {
      "id": 513041,
      "name": "Pallasovsky District",
      "nativeName": "Pallasovskiy Rayon",
      "code": "RU-VGG-513041",
      "countryId": 2017370,
      "countryCode": "RU",
      "stateCode": "RU-VGG",
      "latitude": 49.5105,
      "longitude": 46.42857
    },
    {
      "id": 500654,
      "name": "Rudnyansky District",
      "nativeName": "Rudnyanskiy Rayon",
      "code": "RU-VGG-500654",
      "countryId": 2017370,
      "countryCode": "RU",
      "stateCode": "RU-VGG",
      "latitude": 50.79085,
      "longitude": 44.36737
    },
    {
      "id": 496956,
      "name": "Serafimovichsky District",
      "nativeName": "Serafimovichskiy Rayon",
      "code": "RU-VGG-496956",
      "countryId": 2017370,
      "countryCode": "RU",
      "stateCode": "RU-VGG",
      "latitude": 49.50473,
      "longitude": 42.72995
    },
    {
      "id": 489635,
      "name": "Sredneakhtubinsky District",
      "nativeName": "Sredneakhtubinskiy Rayon",
      "code": "RU-VGG-489635",
      "countryId": 2017370,
      "countryCode": "RU",
      "stateCode": "RU-VGG",
      "latitude": 48.71667,
      "longitude": 44.86667
    },
    {
      "id": 488694,
      "name": "Staropoltavsky District",
      "nativeName": "Staropoltavskiy Rayon",
      "code": "RU-VGG-488694",
      "countryId": 2017370,
      "countryCode": "RU",
      "stateCode": "RU-VGG",
      "latitude": 50.44113,
      "longitude": 46.52021
    },
    {
      "id": 486070,
      "name": "Surovikinskiy Rayon",
      "nativeName": "Surovikinskiy Rayon",
      "code": "RU-VGG-486070",
      "countryId": 2017370,
      "countryCode": "RU",
      "stateCode": "RU-VGG",
      "latitude": 48.60796,
      "longitude": 42.98043
    },
    {
      "id": 485691,
      "name": "Svetloyarskiy Rayon",
      "nativeName": "Svetloyarskiy Rayon",
      "code": "RU-VGG-485691",
      "countryId": 2017370,
      "countryCode": "RU",
      "stateCode": "RU-VGG",
      "latitude": 48.32033,
      "longitude": 44.49213
    },
    {
      "id": 12625785,
      "name": "Uryupinsk Urban District",
      "nativeName": "Uryupinsk Urban District",
      "code": "RU-VGG-12625785",
      "countryId": 2017370,
      "countryCode": "RU",
      "stateCode": "RU-VGG",
      "latitude": 50.8021,
      "longitude": 42.02479
    },
    {
      "id": 478543,
      "name": "Uryupinsky District",
      "nativeName": "Uryupinskiy Rayon",
      "code": "RU-VGG-478543",
      "countryId": 2017370,
      "countryCode": "RU",
      "stateCode": "RU-VGG",
      "latitude": 50.81866,
      "longitude": 41.86333
    },
    {
      "id": 12640255,
      "name": "Volgograd Urban District",
      "nativeName": "Volgograd Urban District",
      "code": "RU-VGG-12640255",
      "countryId": 2017370,
      "countryCode": "RU",
      "stateCode": "RU-VGG",
      "latitude": 48.72205,
      "longitude": 44.53891
    },
    {
      "id": 12625787,
      "name": "Volzhsky",
      "nativeName": "Volzhsky",
      "code": "RU-VGG-12625787",
      "countryId": 2017370,
      "countryCode": "RU",
      "stateCode": "RU-VGG",
      "latitude": 48.78719,
      "longitude": 44.8072
    },
    {
      "id": 468037,
      "name": "Yelansky District",
      "nativeName": "Yelanskiy Rayon",
      "code": "RU-VGG-468037",
      "countryId": 2017370,
      "countryCode": "RU",
      "stateCode": "RU-VGG",
      "latitude": 50.84833,
      "longitude": 43.75489
    },
    {
      "id": 462981,
      "name": "Zhirnovskiy Rayon",
      "nativeName": "Zhirnovskiy Rayon",
      "code": "RU-VGG-462981",
      "countryId": 2017370,
      "countryCode": "RU",
      "stateCode": "RU-VGG",
      "latitude": 50.91683,
      "longitude": 44.90215
    }
  ]
}