{
  "stateId": 7779061,
  "stateCode": "RU-ZAB",
  "countryCode": "RU",
  "cities": [
    {
      "id": 2028094,
      "name": "Aginskiy Buryatskiy Okrug",
      "nativeName": "Aginskiy Buryatskiy Okrug",
      "code": "RU-ZAB-2028094",
      "countryId": 2017370,
      "countryCode": "RU",
      "stateCode": "RU-ZAB",
      "latitude": 51,
      "longitude": 114.5
    },
    {
      "id": 12625830,
      "name": "Aginsky District",
      "nativeName": "Aginsky District",
      "code": "RU-ZAB-12625830",
      "countryId": 2017370,
      "countryCode": "RU",
      "stateCode": "RU-ZAB",
      "latitude": 51.09879,
      "longitude": 114.52923
    },
    {
      "id": 2028024,
      "name": "Akshinskiy Rayon",
      "nativeName": "Akshinskiy Rayon",
      "code": "RU-ZAB-2028024",
      "countryId": 2017370,
      "countryCode": "RU",
      "stateCode": "RU-ZAB",
      "latitude": 50.25,
      "longitude": 113.25
    },
    {
      "id": 2027942,
      "name": "Alexandrovo-Zavodsky District",
      "nativeName": "Aleksandrovo-Zavodskiy Rayon",
      "code": "RU-ZAB-2027942",
      "countryId": 2017370,
      "countryCode": "RU",
      "stateCode": "RU-ZAB",
      "latitude": 50.91667,
      "longitude": 117.95
    },
    {
      "id": 2027182,
      "name": "Baleysky District",
      "nativeName": "Baleyskiy Rayon",
      "code": "RU-ZAB-2027182",
      "countryId": 2017370,
      "countryCode": "RU",
      "stateCode": "RU-ZAB",
      "latitude": 51.5,
      "longitude": 117
    },
    {
      "id": 2026128,
      "name": "Borzinskiy Rayon",
      "nativeName": "Borzinskiy Rayon",
      "code": "RU-ZAB-2026128",
      "countryId": 2017370,
      "countryCode": "RU",
      "stateCode": "RU-ZAB",
      "latitude": 50.16667,
      "longitude": 117.33333
    },
    {
      "id": 2025455,
      "name": "Chernyshevsky District",
      "nativeName": "Chernyshevskiy Rayon",
      "code": "RU-ZAB-2025455",
      "countryId": 2017370,
      "countryCode": "RU",
      "stateCode": "RU-ZAB",
      "latitude": 52.83333,
      "longitude": 117.16667
    },
    {
      "id": 2025332,
      "name": "Chitinsky District",
      "nativeName": "Chitinskiy Rayon",
      "code": "RU-ZAB-2025332",
      "countryId": 2017370,
      "countryCode": "RU",
      "stateCode": "RU-ZAB",
      "latitude": 52,
      "longitude": 113.50024
    },
    {
      "id": 12640247,
      "name": "Duldurginsky District",
      "nativeName": "Duldurginsky District",
      "code": "RU-ZAB-12640247",
      "countryId": 2017370,
      "countryCode": "RU",
      "stateCode": "RU-ZAB",
      "latitude": 50.67402,
      "longitude": 113.58413
    },
    {
      "id": 2024124,
      "name": "Gazimuro-Zavodsky District",
      "nativeName": "Gazimuro-Zavodskiy Rayon",
      "code": "RU-ZAB-2024124",
      "countryId": 2017370,
      "countryCode": "RU",
      "stateCode": "RU-ZAB",
      "latitude": 51.55,
      "longitude": 118.36667
    },
    {
      "id": 2023295,
      "name": "Kalarsky District",
      "nativeName": "Kalarskiy Rayon",
      "code": "RU-ZAB-2023295",
      "countryId": 2017370,
      "countryCode": "RU",
      "stateCode": "RU-ZAB",
      "latitude": 56.5,
      "longitude": 118.5
    },
    {
      "id": 2023283,
      "name": "Kalgansky District",
      "nativeName": "Kalganskiy Rayon",
      "code": "RU-ZAB-2023283",
      "countryId": 2017370,
      "countryCode": "RU",
      "stateCode": "RU-ZAB",
      "latitude": 51,
      "longitude": 119
    },
    {
      "id": 2023095,
      "name": "Karymsky District",
      "nativeName": "Karymskiy Rayon",
      "code": "RU-ZAB-2023095",
      "countryId": 2017370,
      "countryCode": "RU",
      "stateCode": "RU-ZAB",
      "latitude": 51.91667,
      "longitude": 114.66667
    },
    {
      "id": 2022461,
      "name": "Khiloksky District",
      "nativeName": "Khilokskiy Rayon",
      "code": "RU-ZAB-2022461",
      "countryId": 2017370,
      "countryCode": "RU",
      "stateCode": "RU-ZAB",
      "latitude": 51.35,
      "longitude": 110.46667
    },
    {
      "id": 11205330,
      "name": "Krasnochikoysky District",
      "nativeName": "Krasnochikoyskiy rayon",
      "code": "RU-ZAB-11205330",
      "countryId": 2017370,
      "countryCode": "RU",
      "stateCode": "RU-ZAB",
      "latitude": 50.40502,
      "longitude": 108.91846
    },
    {
      "id": 2021617,
      "name": "Krasnokamensky District",
      "nativeName": "Krasnokamenskiy Rayon",
      "code": "RU-ZAB-2021617",
      "countryId": 2017370,
      "countryCode": "RU",
      "stateCode": "RU-ZAB",
      "latitude": 50.05,
      "longitude": 118.01667
    },
    {
      "id": 2021029,
      "name": "Kyrinsky District",
      "nativeName": "Kyrinskiy Rayon",
      "code": "RU-ZAB-2021029",
      "countryId": 2017370,
      "countryCode": "RU",
      "stateCode": "RU-ZAB",
      "latitude": 49.75,
      "longitude": 112
    },
    {
      "id": 2019909,
      "name": "Mogochinsky District",
      "nativeName": "Mogochinskiy Rayon",
      "code": "RU-ZAB-2019909",
      "countryId": 2017370,
      "countryCode": "RU",
      "stateCode": "RU-ZAB",
      "latitude": 53.66667,
      "longitude": 120.33333
    },
    {
      "id": 2019322,
      "name": "Nerchinsko-Zavodsky District",
      "nativeName": "Nerchinsko-Zavodskiy Rayon",
      "code": "RU-ZAB-2019322",
      "countryId": 2017370,
      "countryCode": "RU",
      "stateCode": "RU-ZAB",
      "latitude": 51.31667,
      "longitude": 119.6
    },
    {
      "id": 2019324,
      "name": "Nerchinsky District",
      "nativeName": "Nerchinskiy Rayon",
      "code": "RU-ZAB-2019324",
      "countryId": 2017370,
      "countryCode": "RU",
      "stateCode": "RU-ZAB",
      "latitude": 52.33333,
      "longitude": 116.25
    },
    {
      "id": 2018500,
      "name": "Olovyanninsky District",
      "nativeName": "Olovyanninskiy Rayon",
      "code": "RU-ZAB-2018500",
      "countryId": 2017370,
      "countryCode": "RU",
      "stateCode": "RU-ZAB",
      "latitude": 51,
      "longitude": 116.16667
    },
    {
      "id": 2018427,
      "name": "Ononsky District",
      "nativeName": "Ononskiy Rayon",
      "code": "RU-ZAB-2018427",
      "countryId": 2017370,
      "countryCode": "RU",
      "stateCode": "RU-ZAB",
      "latitude": 50.33333,
      "longitude": 115
    },
    {
      "id": 2017944,
      "name": "Petrovsk-Zabaykal’skiy Rayon",
      "nativeName": "Petrovsk-Zabaykal’skiy Rayon",
      "code": "RU-ZAB-2017944",
      "countryId": 2017370,
      "countryCode": "RU",
      "stateCode": "RU-ZAB",
      "latitude": 51,
      "longitude": 109
    },
    {
      "id": 2017645,
      "name": "Priargunsky District",
      "nativeName": "Priargunskiy Rayon",
      "code": "RU-ZAB-2017645",
      "countryId": 2017370,
      "countryCode": "RU",
      "stateCode": "RU-ZAB",
      "latitude": 50.75,
      "longitude": 118.5
    },
    {
      "id": 2016756,
      "name": "Shelopuginsky District",
      "nativeName": "Shelopuginskiy Rayon",
      "code": "RU-ZAB-2016756",
      "countryId": 2017370,
      "countryCode": "RU",
      "stateCode": "RU-ZAB",
      "latitude": 51.66667,
      "longitude": 118.66667
    },
    {
      "id": 2016703,
      "name": "Shilkinsky District",
      "nativeName": "Shilkinskiy Rayon",
      "code": "RU-ZAB-2016703",
      "countryId": 2017370,
      "countryCode": "RU",
      "stateCode": "RU-ZAB",
      "latitude": 52,
      "longitude": 115.66667
    },
    {
      "id": 2016109,
      "name": "Sretenskiy Rayon",
      "nativeName": "Sretenskiy Rayon",
      "code": "RU-ZAB-2016109",
      "countryId": 2017370,
      "countryCode": "RU",
      "stateCode": "RU-ZAB",
      "latitude": 52.33333,
      "longitude": 117.83333
    },
    {
      "id": 2014885,
      "name": "Tungiro-Olëkminskiy Rayon",
      "nativeName": "Tungiro-Olëkminskiy Rayon",
      "code": "RU-ZAB-2014885",
      "countryId": 2017370,
      "countryCode": "RU",
      "stateCode": "RU-ZAB",
      "latitude": 55,
      "longitude": 120
    },
    {
      "id": 2014882,
      "name": "Tungokochenskiy Rayon",
      "nativeName": "Tungokochenskiy Rayon",
      "code": "RU-ZAB-2014882",
      "countryId": 2017370,
      "countryCode": "RU",
      "stateCode": "RU-ZAB",
      "latitude": 53.5,
      "longitude": 116
    },
    {
      "id": 2014372,
      "name": "Ulyotovsky District",
      "nativeName": "Uletovskiy Rayon",
      "code": "RU-ZAB-2014372",
      "countryId": 2017370,
      "countryCode": "RU",
      "stateCode": "RU-ZAB",
      "latitude": 51,
      "longitude": 112
    },
    {
      "id": 2012779,
      "name": "Zabaykal’skiy Rayon",
      "nativeName": "Zabaykal’skiy Rayon",
      "code": "RU-ZAB-2012779",
      "countryId": 2017370,
      "countryCode": "RU",
      "stateCode": "RU-ZAB",
      "latitude": 49.66667,
      "longitude": 117.33333
    }
  ]
}