{
  "stateId": 4563778,
  "stateCode": "PR-041",
  "countryCode": "PR",
  "cities": [
    {
      "id": 7268211,
      "name": "Arenas Barrio",
      "nativeName": "Arenas Barrio",
      "code": "PR-041-7268211",
      "countryId": 4566966,
      "countryCode": "PR",
      "stateCode": "PR-041",
      "latitude": 18.16056,
      "longitude": -66.14017
    },
    {
      "id": 7268245,
      "name": "Bayamón Barrio",
      "nativeName": "Bayamón Barrio",
      "code": "PR-041-7268245",
      "countryId": 4566966,
      "countryCode": "PR",
      "stateCode": "PR-041",
      "latitude": 18.18723,
      "longitude": -66.1504
    },
    {
      "id": 7268252,
      "name": "Beatriz Barrio",
      "nativeName": "Beatriz Barrio",
      "code": "PR-041-7268252",
      "countryId": 4566966,
      "countryCode": "PR",
      "stateCode": "PR-041",
      "latitude": 18.15666,
      "longitude": -66.11668
    },
    {
      "id": 7268051,
      "name": "Ceiba Barrio",
      "nativeName": "Ceiba Barrio",
      "code": "PR-041-7268051",
      "countryId": 4566966,
      "countryCode": "PR",
      "stateCode": "PR-041",
      "latitude": 18.20164,
      "longitude": -66.16927
    },
    {
      "id": 7309609,
      "name": "Certenejas Barrio",
      "nativeName": "Certenejas Barrio",
      "code": "PR-041-7309609",
      "countryId": 4566966,
      "countryCode": "PR",
      "stateCode": "PR-041",
      "latitude": 18.19346,
      "longitude": -66.12243
    },
    {
      "id": 7268080,
      "name": "Cidra Barrio-Pueblo",
      "nativeName": "Cidra Barrio-Pueblo",
      "code": "PR-041-7268080",
      "countryId": 4566966,
      "countryCode": "PR",
      "stateCode": "PR-041",
      "latitude": 18.17584,
      "longitude": -66.16106
    },
    {
      "id": 7268480,
      "name": "Honduras Barrio",
      "nativeName": "Honduras Barrio",
      "code": "PR-041-7268480",
      "countryId": 4566966,
      "countryCode": "PR",
      "stateCode": "PR-041",
      "latitude": 18.15203,
      "longitude": -66.20882
    },
    {
      "id": 7268672,
      "name": "Monte Llano Barrio",
      "nativeName": "Monte Llano Barrio",
      "code": "PR-041-7268672",
      "countryId": 4566966,
      "countryCode": "PR",
      "stateCode": "PR-041",
      "latitude": 18.20448,
      "longitude": -66.15198
    },
    {
      "id": 7268873,
      "name": "Rabanal Barrio",
      "nativeName": "Rabanal Barrio",
      "code": "PR-041-7268873",
      "countryId": 4566966,
      "countryCode": "PR",
      "stateCode": "PR-041",
      "latitude": 18.17079,
      "longitude": -66.19334
    },
    {
      "id": 7268880,
      "name": "Rincón Barrio",
      "nativeName": "Rincón Barrio",
      "code": "PR-041-7268880",
      "countryId": 4566966,
      "countryCode": "PR",
      "stateCode": "PR-041",
      "latitude": 18.15094,
      "longitude": -66.16946
    },
    {
      "id": 7268885,
      "name": "Río Abajo Barrio",
      "nativeName": "Río Abajo Barrio",
      "code": "PR-041-7268885",
      "countryId": 4566966,
      "countryCode": "PR",
      "stateCode": "PR-041",
      "latitude": 18.18708,
      "longitude": -66.18989
    },
    {
      "id": 7268957,
      "name": "Salto Barrio",
      "nativeName": "Salto Barrio",
      "code": "PR-041-7268957",
      "countryId": 4566966,
      "countryCode": "PR",
      "stateCode": "PR-041",
      "latitude": 18.16961,
      "longitude": -66.22509
    },
    {
      "id": 7269014,
      "name": "Sud Barrio",
      "nativeName": "Sud Barrio",
      "code": "PR-041-7269014",
      "countryId": 4566966,
      "countryCode": "PR",
      "stateCode": "PR-041",
      "latitude": 18.16441,
      "longitude": -66.16433
    },
    {
      "id": 7269042,
      "name": "Toíta Barrio",
      "nativeName": "Toíta Barrio",
      "code": "PR-041-7269042",
      "countryId": 4566966,
      "countryCode": "PR",
      "stateCode": "PR-041",
      "latitude": 18.15009,
      "longitude": -66.1901
    }
  ]
}