{
  "stateId": 4562487,
  "stateCode": "PR-001",
  "countryCode": "PR",
  "cities": [
    {
      "id": 7268167,
      "name": "Adjuntas Pueblo Barrio",
      "nativeName": "Adjuntas Pueblo Barrio",
      "code": "PR-001-7268167",
      "countryId": 4566966,
      "countryCode": "PR",
      "stateCode": "PR-001",
      "latitude": 18.16379,
      "longitude": -66.72369
    },
    {
      "id": 7268336,
      "name": "Capáez Barrio",
      "nativeName": "Capáez Barrio",
      "code": "PR-001-7268336",
      "countryId": 4566966,
      "countryCode": "PR",
      "stateCode": "PR-001",
      "latitude": 18.20102,
      "longitude": -66.74109
    },
    {
      "id": 7268409,
      "name": "Garzas Barrio",
      "nativeName": "Garzas Barrio",
      "code": "PR-001-7268409",
      "countryId": 4566966,
      "countryCode": "PR",
      "stateCode": "PR-001",
      "latitude": 18.15338,
      "longitude": -66.74619
    },
    {
      "id": 7268435,
      "name": "Guayabo Dulce Barrio",
      "nativeName": "Guayabo Dulce Barrio",
      "code": "PR-001-7268435",
      "countryId": 4566966,
      "countryCode": "PR",
      "stateCode": "PR-001",
      "latitude": 18.20663,
      "longitude": -66.82111
    },
    {
      "id": 7268442,
      "name": "Guayo Barrio",
      "nativeName": "Guayo Barrio",
      "code": "PR-001-7268442",
      "countryId": 4566966,
      "countryCode": "PR",
      "stateCode": "PR-001",
      "latitude": 18.17909,
      "longitude": -66.82241
    },
    {
      "id": 7268445,
      "name": "Guilarte Barrio",
      "nativeName": "Guilarte Barrio",
      "code": "PR-001-7268445",
      "countryId": 4566966,
      "countryCode": "PR",
      "stateCode": "PR-001",
      "latitude": 18.1591,
      "longitude": -66.7768
    },
    {
      "id": 7268529,
      "name": "Juan González Barrio",
      "nativeName": "Juan González Barrio",
      "code": "PR-001-7268529",
      "countryId": 4566966,
      "countryCode": "PR",
      "stateCode": "PR-001",
      "latitude": 18.18813,
      "longitude": -66.72391
    },
    {
      "id": 7268558,
      "name": "Limaní Barrio",
      "nativeName": "Limaní Barrio",
      "code": "PR-001-7268558",
      "countryId": 4566966,
      "countryCode": "PR",
      "stateCode": "PR-001",
      "latitude": 18.1624,
      "longitude": -66.80166
    },
    {
      "id": 7268744,
      "name": "Pellejas Barrio",
      "nativeName": "Pellejas Barrio",
      "code": "PR-001-7268744",
      "countryId": 4566966,
      "countryCode": "PR",
      "stateCode": "PR-001",
      "latitude": 18.20836,
      "longitude": -66.70816
    },
    {
      "id": 7268777,
      "name": "Portillo Barrio",
      "nativeName": "Portillo Barrio",
      "code": "PR-001-7268777",
      "countryId": 4566966,
      "countryCode": "PR",
      "stateCode": "PR-001",
      "latitude": 18.22807,
      "longitude": -66.80004
    },
    {
      "id": 7268778,
      "name": "Portugués Barrio",
      "nativeName": "Portugués Barrio",
      "code": "PR-001-7268778",
      "countryId": 4566966,
      "countryCode": "PR",
      "stateCode": "PR-001",
      "latitude": 18.14165,
      "longitude": -66.68296
    },
    {
      "id": 7268954,
      "name": "Saltillo Barrio",
      "nativeName": "Saltillo Barrio",
      "code": "PR-001-7268954",
      "countryId": 4566966,
      "countryCode": "PR",
      "stateCode": "PR-001",
      "latitude": 18.13671,
      "longitude": -66.72066
    },
    {
      "id": 7269027,
      "name": "Tanamá Barrio",
      "nativeName": "Tanamá Barrio",
      "code": "PR-001-7269027",
      "countryId": 4566966,
      "countryCode": "PR",
      "stateCode": "PR-001",
      "latitude": 18.2202,
      "longitude": -66.7675
    },
    {
      "id": 7269070,
      "name": "Vegas Abajo Barrio",
      "nativeName": "Vegas Abajo Barrio",
      "code": "PR-001-7269070",
      "countryId": 4566966,
      "countryCode": "PR",
      "stateCode": "PR-001",
      "latitude": 18.18526,
      "longitude": -66.70115
    },
    {
      "id": 8199258,
      "name": "Vegas Arriba",
      "nativeName": "Vegas Arriba",
      "code": "PR-001-8199258",
      "countryId": 4566966,
      "countryCode": "PR",
      "stateCode": "PR-001",
      "latitude": 18.16412,
      "longitude": -66.69542
    },
    {
      "id": 7269086,
      "name": "Yahuecas Barrio",
      "nativeName": "Yahuecas Barrio",
      "code": "PR-001-7269086",
      "countryId": 4566966,
      "countryCode": "PR",
      "stateCode": "PR-001",
      "latitude": 18.19853,
      "longitude": -66.79591
    },
    {
      "id": 7269089,
      "name": "Yayales Barrio",
      "nativeName": "Yayales Barrio",
      "code": "PR-001-7269089",
      "countryId": 4566966,
      "countryCode": "PR",
      "stateCode": "PR-001",
      "latitude": 18.1899,
      "longitude": -66.76541
    }
  ]
}