{
  "stateId": 4566334,
  "stateCode": "PR-101",
  "countryCode": "PR",
  "cities": [
    {
      "id": 7268231,
      "name": "Barahona Barrio",
      "nativeName": "Barahona Barrio",
      "code": "PR-101-7268231",
      "countryId": 4566966,
      "countryCode": "PR",
      "stateCode": "PR-101",
      "latitude": 18.35936,
      "longitude": -66.44783
    },
    {
      "id": 7268131,
      "name": "Cuchillas Barrio",
      "nativeName": "Cuchillas Barrio",
      "code": "PR-101-7268131",
      "countryId": 4566966,
      "countryCode": "PR",
      "stateCode": "PR-101",
      "latitude": 18.30445,
      "longitude": -66.38594
    },
    {
      "id": 7268400,
      "name": "Fránquez Barrio",
      "nativeName": "Fránquez Barrio",
      "code": "PR-101-7268400",
      "countryId": 4566966,
      "countryCode": "PR",
      "stateCode": "PR-101",
      "latitude": 18.35531,
      "longitude": -66.41848
    },
    {
      "id": 7268673,
      "name": "Monte Llano Barrio",
      "nativeName": "Monte Llano Barrio",
      "code": "PR-101-7268673",
      "countryId": 4566966,
      "countryCode": "PR",
      "stateCode": "PR-101",
      "latitude": 18.32246,
      "longitude": -66.39297
    },
    {
      "id": 7268681,
      "name": "Morovis Barrio-Pueblo",
      "nativeName": "Morovis Barrio-Pueblo",
      "code": "PR-101-7268681",
      "countryId": 4566966,
      "countryCode": "PR",
      "stateCode": "PR-101",
      "latitude": 18.32601,
      "longitude": -66.40791
    },
    {
      "id": 7268682,
      "name": "Morovis Norte Barrio",
      "nativeName": "Morovis Norte Barrio",
      "code": "PR-101-7268682",
      "countryId": 4566966,
      "countryCode": "PR",
      "stateCode": "PR-101",
      "latitude": 18.34157,
      "longitude": -66.40763
    },
    {
      "id": 7268683,
      "name": "Morovis Sud Barrio",
      "nativeName": "Morovis Sud Barrio",
      "code": "PR-101-7268683",
      "countryId": 4566966,
      "countryCode": "PR",
      "stateCode": "PR-101",
      "latitude": 18.31445,
      "longitude": -66.41175
    },
    {
      "id": 7268738,
      "name": "Pasto Barrio",
      "nativeName": "Pasto Barrio",
      "code": "PR-101-7268738",
      "countryId": 4566966,
      "countryCode": "PR",
      "stateCode": "PR-101",
      "latitude": 18.27611,
      "longitude": -66.43241
    },
    {
      "id": 7268750,
      "name": "Perchas Barrio",
      "nativeName": "Perchas Barrio",
      "code": "PR-101-7268750",
      "countryId": 4566966,
      "countryCode": "PR",
      "stateCode": "PR-101",
      "latitude": 18.27769,
      "longitude": -66.40385
    },
    {
      "id": 7268907,
      "name": "Río Grande Barrio",
      "nativeName": "Río Grande Barrio",
      "code": "PR-101-7268907",
      "countryId": 4566966,
      "countryCode": "PR",
      "stateCode": "PR-101",
      "latitude": 18.29534,
      "longitude": -66.41209
    },
    {
      "id": 7268978,
      "name": "San Lorenzo Barrio",
      "nativeName": "San Lorenzo Barrio",
      "code": "PR-101-7268978",
      "countryId": 4566966,
      "countryCode": "PR",
      "stateCode": "PR-101",
      "latitude": 18.30644,
      "longitude": -66.43817
    },
    {
      "id": 7269049,
      "name": "Torrecillas Barrio",
      "nativeName": "Torrecillas Barrio",
      "code": "PR-101-7269049",
      "countryId": 4566966,
      "countryCode": "PR",
      "stateCode": "PR-101",
      "latitude": 18.33213,
      "longitude": -66.4431
    },
    {
      "id": 7269057,
      "name": "Unibón Barrio",
      "nativeName": "Unibón Barrio",
      "code": "PR-101-7269057",
      "countryId": 4566966,
      "countryCode": "PR",
      "stateCode": "PR-101",
      "latitude": 18.33517,
      "longitude": -66.38284
    },
    {
      "id": 7269062,
      "name": "Vaga Barrio",
      "nativeName": "Vaga Barrio",
      "code": "PR-101-7269062",
      "countryId": 4566966,
      "countryCode": "PR",
      "stateCode": "PR-101",
      "latitude": 18.27693,
      "longitude": -66.45094
    }
  ]
}