{
  "stateId": 4566397,
  "stateCode": "PR-103",
  "countryCode": "PR",
  "cities": [
    {
      "id": 7268142,
      "name": "Daguao Barrio",
      "nativeName": "Daguao Barrio",
      "code": "PR-103-7268142",
      "countryId": 4566966,
      "countryCode": "PR",
      "stateCode": "PR-103",
      "latitude": 18.2045,
      "longitude": -65.67418
    },
    {
      "id": 7268160,
      "name": "Duque Barrio",
      "nativeName": "Duque Barrio",
      "code": "PR-103-7268160",
      "countryId": 4566966,
      "countryCode": "PR",
      "stateCode": "PR-103",
      "latitude": 18.2394,
      "longitude": -65.73904
    },
    {
      "id": 7268485,
      "name": "Húcares Barrio",
      "nativeName": "Húcares Barrio",
      "code": "PR-103-7268485",
      "countryId": 4566966,
      "countryCode": "PR",
      "stateCode": "PR-103",
      "latitude": 18.19685,
      "longitude": -65.71782
    },
    {
      "id": 7268594,
      "name": "Maizales Barrio",
      "nativeName": "Maizales Barrio",
      "code": "PR-103-7268594",
      "countryId": 4566966,
      "countryCode": "PR",
      "stateCode": "PR-103",
      "latitude": 18.23391,
      "longitude": -65.75905
    },
    {
      "id": 7268619,
      "name": "Mariana Barrio",
      "nativeName": "Mariana Barrio",
      "code": "PR-103-7268619",
      "countryId": 4566966,
      "countryCode": "PR",
      "stateCode": "PR-103",
      "latitude": 18.22738,
      "longitude": -65.70426
    },
    {
      "id": 7268690,
      "name": "Naguabo Barrio-Pueblo",
      "nativeName": "Naguabo Barrio-Pueblo",
      "code": "PR-103-7268690",
      "countryId": 4566966,
      "countryCode": "PR",
      "stateCode": "PR-103",
      "latitude": 18.21153,
      "longitude": -65.73508
    },
    {
      "id": 7268746,
      "name": "Peña Pobre Barrio",
      "nativeName": "Peña Pobre Barrio",
      "code": "PR-103-7268746",
      "countryId": 4566966,
      "countryCode": "PR",
      "stateCode": "PR-103",
      "latitude": 18.22181,
      "longitude": -65.81627
    },
    {
      "id": 7268896,
      "name": "Río Barrio",
      "nativeName": "Río Barrio",
      "code": "PR-103-7268896",
      "countryId": 4566966,
      "countryCode": "PR",
      "stateCode": "PR-103",
      "latitude": 18.18684,
      "longitude": -65.73902
    },
    {
      "id": 7268897,
      "name": "Río Blanco Barrio",
      "nativeName": "Río Blanco Barrio",
      "code": "PR-103-7268897",
      "countryId": 4566966,
      "countryCode": "PR",
      "stateCode": "PR-103",
      "latitude": 18.25071,
      "longitude": -65.79043
    },
    {
      "id": 7268999,
      "name": "Santiago y Lima Barrio",
      "nativeName": "Santiago y Lima Barrio",
      "code": "PR-103-7268999",
      "countryId": 4566966,
      "countryCode": "PR",
      "stateCode": "PR-103",
      "latitude": 18.1984,
      "longitude": -65.69945
    }
  ]
}