{
  "stateId": 108241,
  "stateCode": "SA-04",
  "countryCode": "SA",
  "cities": [
    {
      "id": 10972330,
      "name": "Ad Dammām",
      "nativeName": "Ad Dammām",
      "code": "SA-04-10972330",
      "countryId": 102358,
      "countryCode": "SA",
      "stateCode": "SA-04",
      "latitude": 26.41667,
      "longitude": 49.86667
    },
    {
      "id": 10972331,
      "name": "Al Ahsa",
      "nativeName": "Al Aḩsā’",
      "code": "SA-04-10972331",
      "countryId": 102358,
      "countryCode": "SA",
      "stateCode": "SA-04",
      "latitude": 22,
      "longitude": 51
    },
    {
      "id": 10972332,
      "name": "Al Jubayl",
      "nativeName": "Al Jubayl",
      "code": "SA-04-10972332",
      "countryId": 102358,
      "countryCode": "SA",
      "stateCode": "SA-04",
      "latitude": 26.91667,
      "longitude": 49.33333
    },
    {
      "id": 10972333,
      "name": "Al Khafjī",
      "nativeName": "Al Khafjī",
      "code": "SA-04-10972333",
      "countryId": 102358,
      "countryCode": "SA",
      "stateCode": "SA-04",
      "latitude": 28.16667,
      "longitude": 48.16667
    },
    {
      "id": 10972334,
      "name": "Al Khubar",
      "nativeName": "Al Khubar",
      "code": "SA-04-10972334",
      "countryId": 102358,
      "countryCode": "SA",
      "stateCode": "SA-04",
      "latitude": 26.26667,
      "longitude": 50.11667
    },
    {
      "id": 10972336,
      "name": "Al Qaţīf",
      "nativeName": "Al Qaţīf",
      "code": "SA-04-10972336",
      "countryId": 102358,
      "countryCode": "SA",
      "stateCode": "SA-04",
      "latitude": 26.63333,
      "longitude": 49.91667
    },
    {
      "id": 10972335,
      "name": "An Nu‘ayrīyah",
      "nativeName": "An Nu‘ayrīyah",
      "code": "SA-04-10972335",
      "countryId": 102358,
      "countryCode": "SA",
      "stateCode": "SA-04",
      "latitude": 27,
      "longitude": 48.5
    },
    {
      "id": 10972337,
      "name": "Buqayq",
      "nativeName": "Buqayq",
      "code": "SA-04-10972337",
      "countryId": 102358,
      "countryCode": "SA",
      "stateCode": "SA-04",
      "latitude": 26.08333,
      "longitude": 49.58333
    },
    {
      "id": 10972339,
      "name": "Qaryah al ‘Ulyā",
      "nativeName": "Qaryah al ‘Ulyā",
      "code": "SA-04-10972339",
      "countryId": 102358,
      "countryCode": "SA",
      "stateCode": "SA-04",
      "latitude": 27.25,
      "longitude": 47
    },
    {
      "id": 10972340,
      "name": "Ra’s Tannūrah",
      "nativeName": "Ra’s Tannūrah",
      "code": "SA-04-10972340",
      "countryId": 102358,
      "countryCode": "SA",
      "stateCode": "SA-04",
      "latitude": 26.8,
      "longitude": 49.95
    },
    {
      "id": 10972338,
      "name": "Ḩafr al Bāţin",
      "nativeName": "Ḩafr al Bāţin",
      "code": "SA-04-10972338",
      "countryId": 102358,
      "countryCode": "SA",
      "stateCode": "SA-04",
      "latitude": 28.25,
      "longitude": 46.08333
    }
  ]
}