{
  "stateId": 104514,
  "stateCode": "SA-02",
  "countryCode": "SA",
  "cities": [
    {
      "id": 10972359,
      "name": "Al Jumūm",
      "nativeName": "Al Jumūm",
      "code": "SA-02-10972359",
      "countryId": 102358,
      "countryCode": "SA",
      "stateCode": "SA-02",
      "latitude": 21.78333,
      "longitude": 39.91667
    },
    {
      "id": 10972361,
      "name": "Al Khurmah",
      "nativeName": "Al Khurmah",
      "code": "SA-02-10972361",
      "countryId": 102358,
      "countryCode": "SA",
      "stateCode": "SA-02",
      "latitude": 21.91667,
      "longitude": 42.53333
    },
    {
      "id": 10972360,
      "name": "Al Kāmil",
      "nativeName": "Al Kāmil",
      "code": "SA-02-10972360",
      "countryId": 102358,
      "countryCode": "SA",
      "stateCode": "SA-02",
      "latitude": 22.4,
      "longitude": 39.9
    },
    {
      "id": 10972362,
      "name": "Al Līth",
      "nativeName": "Al Līth",
      "code": "SA-02-10972362",
      "countryId": 102358,
      "countryCode": "SA",
      "stateCode": "SA-02",
      "latitude": 20.46667,
      "longitude": 40.36667
    },
    {
      "id": 10972363,
      "name": "Al Qunfudhah",
      "nativeName": "Al Qunfudhah",
      "code": "SA-02-10972363",
      "countryId": 102358,
      "countryCode": "SA",
      "stateCode": "SA-02",
      "latitude": 19.25,
      "longitude": 41.38333
    },
    {
      "id": 10972364,
      "name": "Aţ Ţā’if",
      "nativeName": "Aţ Ţā’if",
      "code": "SA-02-10972364",
      "countryId": 102358,
      "countryCode": "SA",
      "stateCode": "SA-02",
      "latitude": 22.25,
      "longitude": 41.25
    },
    {
      "id": 11906054,
      "name": "Ghran",
      "nativeName": "Ghran",
      "code": "SA-02-11906054",
      "countryId": 102358,
      "countryCode": "SA",
      "stateCode": "SA-02",
      "latitude": 21.98027,
      "longitude": 39.36521
    },
    {
      "id": 10972365,
      "name": "Jiddah",
      "nativeName": "Jiddah",
      "code": "SA-02-10972365",
      "countryId": 102358,
      "countryCode": "SA",
      "stateCode": "SA-02",
      "latitude": 21.63333,
      "longitude": 39.2
    },
    {
      "id": 10972366,
      "name": "Khulayş",
      "nativeName": "Khulayş",
      "code": "SA-02-10972366",
      "countryId": 102358,
      "countryCode": "SA",
      "stateCode": "SA-02",
      "latitude": 22.3,
      "longitude": 39.43333
    },
    {
      "id": 10972367,
      "name": "Makkah al Mukarramah",
      "nativeName": "Makkah al Mukarramah",
      "code": "SA-02-10972367",
      "countryId": 102358,
      "countryCode": "SA",
      "stateCode": "SA-02",
      "latitude": 21.25,
      "longitude": 39.8
    },
    {
      "id": 10972369,
      "name": "Ranyah",
      "nativeName": "Ranyah",
      "code": "SA-02-10972369",
      "countryId": 102358,
      "countryCode": "SA",
      "stateCode": "SA-02",
      "latitude": 21.08333,
      "longitude": 42.75
    },
    {
      "id": 10972368,
      "name": "Rābigh",
      "nativeName": "Rābigh",
      "code": "SA-02-10972368",
      "countryId": 102358,
      "countryCode": "SA",
      "stateCode": "SA-02",
      "latitude": 22.8,
      "longitude": 39.23333
    },
    {
      "id": 10972370,
      "name": "Turubah",
      "nativeName": "Turubah",
      "code": "SA-02-10972370",
      "countryId": 102358,
      "countryCode": "SA",
      "stateCode": "SA-02",
      "latitude": 21.2,
      "longitude": 41.56667
    }
  ]
}