{
  "stateId": 3489853,
  "stateCode": "JM-01",
  "countryCode": "JM",
  "cities": [
    {
      "id": 11495270,
      "name": "Allman Town",
      "nativeName": "Allman Town",
      "code": "JM-01-11495270",
      "countryId": 3489940,
      "countryCode": "JM",
      "stateCode": "JM-01",
      "latitude": 17.98297,
      "longitude": -76.78685
    },
    {
      "id": 11495227,
      "name": "Bournemouth Gardens",
      "nativeName": "Bournemouth Gardens",
      "code": "JM-01-11495227",
      "countryId": 3489940,
      "countryCode": "JM",
      "stateCode": "JM-01",
      "latitude": 17.97009,
      "longitude": -76.76266
    },
    {
      "id": 11495272,
      "name": "Campbell Town",
      "nativeName": "Campbell Town",
      "code": "JM-01-11495272",
      "countryId": 3489940,
      "countryCode": "JM",
      "stateCode": "JM-01",
      "latitude": 17.97914,
      "longitude": -76.78134
    },
    {
      "id": 11495278,
      "name": "Central Down Town",
      "nativeName": "Central Down Town",
      "code": "JM-01-11495278",
      "countryId": 3489940,
      "countryCode": "JM",
      "stateCode": "JM-01",
      "latitude": 17.96958,
      "longitude": -76.79264
    },
    {
      "id": 11495230,
      "name": "Denham Town",
      "nativeName": "Denham Town",
      "code": "JM-01-11495230",
      "countryId": 3489940,
      "countryCode": "JM",
      "stateCode": "JM-01",
      "latitude": 17.97812,
      "longitude": -76.79984
    },
    {
      "id": 11495280,
      "name": "East Down Town",
      "nativeName": "East Down Town",
      "code": "JM-01-11495280",
      "countryId": 3489940,
      "countryCode": "JM",
      "stateCode": "JM-01",
      "latitude": 17.97197,
      "longitude": -76.78471
    },
    {
      "id": 11495215,
      "name": "Fletchers Land",
      "nativeName": "Fletchers Land",
      "code": "JM-01-11495215",
      "countryId": 3489940,
      "countryCode": "JM",
      "stateCode": "JM-01",
      "latitude": 17.97968,
      "longitude": -76.791
    },
    {
      "id": 11495274,
      "name": "Franklyn Town",
      "nativeName": "Franklyn Town",
      "code": "JM-01-11495274",
      "countryId": 3489940,
      "countryCode": "JM",
      "stateCode": "JM-01",
      "latitude": 17.97787,
      "longitude": -76.77339
    },
    {
      "id": 11495271,
      "name": "Hannah Town - Craig Town",
      "nativeName": "Hannah Town - Craig Town",
      "code": "JM-01-11495271",
      "countryId": 3489940,
      "countryCode": "JM",
      "stateCode": "JM-01",
      "latitude": 17.97998,
      "longitude": -76.7943
    },
    {
      "id": 11495163,
      "name": "Johnson Town",
      "nativeName": "Johnson Town",
      "code": "JM-01-11495163",
      "countryId": 3489940,
      "countryCode": "JM",
      "stateCode": "JM-01",
      "latitude": 17.97771,
      "longitude": -76.75593
    },
    {
      "id": 11495213,
      "name": "Kingston Gardens",
      "nativeName": "Kingston Gardens",
      "code": "JM-01-11495213",
      "countryId": 3489940,
      "countryCode": "JM",
      "stateCode": "JM-01",
      "latitude": 17.97836,
      "longitude": -76.78681
    },
    {
      "id": 11495180,
      "name": "Manley Meadows",
      "nativeName": "Manley Meadows",
      "code": "JM-01-11495180",
      "countryId": 3489940,
      "countryCode": "JM",
      "stateCode": "JM-01",
      "latitude": 17.96907,
      "longitude": -76.77116
    },
    {
      "id": 11495164,
      "name": "Newport East",
      "nativeName": "Newport East",
      "code": "JM-01-11495164",
      "countryId": 3489940,
      "countryCode": "JM",
      "stateCode": "JM-01",
      "latitude": 17.97421,
      "longitude": -76.80663
    },
    {
      "id": 11495275,
      "name": "Newton Square",
      "nativeName": "Newton Square",
      "code": "JM-01-11495275",
      "countryId": 3489940,
      "countryCode": "JM",
      "stateCode": "JM-01",
      "latitude": 17.97352,
      "longitude": -76.77207
    },
    {
      "id": 11495251,
      "name": "Norman Gardens",
      "nativeName": "Norman Gardens",
      "code": "JM-01-11495251",
      "countryId": 3489940,
      "countryCode": "JM",
      "stateCode": "JM-01",
      "latitude": 17.97803,
      "longitude": -76.7594
    },
    {
      "id": 11495277,
      "name": "Passmore Town",
      "nativeName": "Passmore Town",
      "code": "JM-01-11495277",
      "countryId": 3489940,
      "countryCode": "JM",
      "stateCode": "JM-01",
      "latitude": 17.97301,
      "longitude": -76.7765
    },
    {
      "id": 11494918,
      "name": "Port Royal",
      "nativeName": "Port Royal",
      "code": "JM-01-11494918",
      "countryId": 3489940,
      "countryCode": "JM",
      "stateCode": "JM-01",
      "latitude": 17.93899,
      "longitude": -76.79284
    },
    {
      "id": 11495283,
      "name": "Rae Town",
      "nativeName": "Rae Town",
      "code": "JM-01-11495283",
      "countryId": 3489940,
      "countryCode": "JM",
      "stateCode": "JM-01",
      "latitude": 17.96773,
      "longitude": -76.77965
    },
    {
      "id": 11495273,
      "name": "Rennock Lodge",
      "nativeName": "D'Aguilar Town - Rennock Lodge",
      "code": "JM-01-11495273",
      "countryId": 3489940,
      "countryCode": "JM",
      "stateCode": "JM-01",
      "latitude": 17.97001,
      "longitude": -76.73701
    },
    {
      "id": 11495260,
      "name": "Rollington Town",
      "nativeName": "Rollington Town",
      "code": "JM-01-11495260",
      "countryId": 3489940,
      "countryCode": "JM",
      "stateCode": "JM-01",
      "latitude": 17.97687,
      "longitude": -76.76523
    },
    {
      "id": 11494921,
      "name": "Southside",
      "nativeName": "Southside",
      "code": "JM-01-11494921",
      "countryId": 3489940,
      "countryCode": "JM",
      "stateCode": "JM-01",
      "latitude": 17.96569,
      "longitude": -76.78624
    },
    {
      "id": 11495219,
      "name": "Springfield",
      "nativeName": "Springfield",
      "code": "JM-01-11495219",
      "countryId": 3489940,
      "countryCode": "JM",
      "stateCode": "JM-01",
      "latitude": 17.97117,
      "longitude": -76.75607
    },
    {
      "id": 11495276,
      "name": "Tivoli Gardens",
      "nativeName": "Tivoli Gardens",
      "code": "JM-01-11495276",
      "countryId": 3489940,
      "countryCode": "JM",
      "stateCode": "JM-01",
      "latitude": 17.97326,
      "longitude": -76.8009
    },
    {
      "id": 11495279,
      "name": "West Down Town",
      "nativeName": "West Down Town",
      "code": "JM-01-11495279",
      "countryId": 3489940,
      "countryCode": "JM",
      "stateCode": "JM-01",
      "latitude": 17.97294,
      "longitude": -76.79704
    }
  ]
}