{
  "stateId": 2455517,
  "stateCode": "ML-1",
  "countryCode": "ML",
  "cities": [
    {
      "id": 8334585,
      "name": "Bafoulabe Cercle",
      "nativeName": "Bafoulabe Cercle",
      "code": "ML-1-8334585",
      "countryId": 2453866,
      "countryCode": "ML",
      "stateCode": "ML-1",
      "latitude": 13.66667,
      "longitude": -10.66667
    },
    {
      "id": 8261489,
      "name": "Diema Cercle",
      "nativeName": "Diema Cercle",
      "code": "ML-1-8261489",
      "countryId": 2453866,
      "countryCode": "ML",
      "stateCode": "ML-1",
      "latitude": 14.583,
      "longitude": -9.25
    },
    {
      "id": 7701481,
      "name": "Kayes Cercle",
      "nativeName": "Kayes Cercle",
      "code": "ML-1-7701481",
      "countryId": 2453866,
      "countryCode": "ML",
      "stateCode": "ML-1",
      "latitude": 14.53349,
      "longitude": -11.5459
    },
    {
      "id": 8299787,
      "name": "Kenieba Cercle",
      "nativeName": "Kenieba Cercle",
      "code": "ML-1-8299787",
      "countryId": 2453866,
      "countryCode": "ML",
      "stateCode": "ML-1",
      "latitude": 12.66667,
      "longitude": -11
    },
    {
      "id": 7701501,
      "name": "Kita Cercle",
      "nativeName": "Kita Cercle",
      "code": "ML-1-7701501",
      "countryId": 2453866,
      "countryCode": "ML",
      "stateCode": "ML-1",
      "latitude": 13.28205,
      "longitude": -9.39713
    },
    {
      "id": 8261494,
      "name": "Nioro Cercle",
      "nativeName": "Nioro Cercle",
      "code": "ML-1-8261494",
      "countryId": 2453866,
      "countryCode": "ML",
      "stateCode": "ML-1",
      "latitude": 14.7,
      "longitude": -10.3
    },
    {
      "id": 8631403,
      "name": "Yélimané Cercle",
      "nativeName": "Cercle de Yélimané",
      "code": "ML-1-8631403",
      "countryId": 2453866,
      "countryCode": "ML",
      "stateCode": "ML-1",
      "latitude": 15.10774,
      "longitude": -10.54491
    }
  ]
}