{
  "stateId": 2742031,
  "stateCode": "PT-03",
  "countryCode": "PT",
  "cities": [
    {
      "id": 8010446,
      "name": "Amares Municipality",
      "nativeName": "Amares",
      "code": "PT-03-8010446",
      "countryId": 2264397,
      "countryCode": "PT",
      "stateCode": "PT-03",
      "latitude": 41.64718,
      "longitude": -8.35558
    },
    {
      "id": 8010447,
      "name": "Barcelos Municipality",
      "nativeName": "Barcelos",
      "code": "PT-03-8010447",
      "countryId": 2264397,
      "countryCode": "PT",
      "stateCode": "PT-03",
      "latitude": 41.53183,
      "longitude": -8.61233
    },
    {
      "id": 8010448,
      "name": "Braga Municipality",
      "nativeName": "Braga",
      "code": "PT-03-8010448",
      "countryId": 2264397,
      "countryCode": "PT",
      "stateCode": "PT-03",
      "latitude": 41.55801,
      "longitude": -8.42308
    },
    {
      "id": 8010449,
      "name": "Cabeceiras de Basto Municipality",
      "nativeName": "Cabeceiras de Basto",
      "code": "PT-03-8010449",
      "countryId": 2264397,
      "countryCode": "PT",
      "stateCode": "PT-03",
      "latitude": 41.52079,
      "longitude": -7.97198
    },
    {
      "id": 8010450,
      "name": "Celorico de Basto Municipality",
      "nativeName": "Celorico de Basto",
      "code": "PT-03-8010450",
      "countryId": 2264397,
      "countryCode": "PT",
      "stateCode": "PT-03",
      "latitude": 41.40278,
      "longitude": -8.03346
    },
    {
      "id": 8010451,
      "name": "Esposende Municipality",
      "nativeName": "Esposende",
      "code": "PT-03-8010451",
      "countryId": 2264397,
      "countryCode": "PT",
      "stateCode": "PT-03",
      "latitude": 41.54516,
      "longitude": -8.75754
    },
    {
      "id": 8010452,
      "name": "Fafe Municipality",
      "nativeName": "Fafe",
      "code": "PT-03-8010452",
      "countryId": 2264397,
      "countryCode": "PT",
      "stateCode": "PT-03",
      "latitude": 41.46837,
      "longitude": -8.15863
    },
    {
      "id": 8010453,
      "name": "Guimarães Municipality",
      "nativeName": "Guimarães",
      "code": "PT-03-8010453",
      "countryId": 2264397,
      "countryCode": "PT",
      "stateCode": "PT-03",
      "latitude": 41.44384,
      "longitude": -8.28918
    },
    {
      "id": 8010454,
      "name": "Póvoa de Lanhoso Municipality",
      "nativeName": "Póvoa de Lanhoso",
      "code": "PT-03-8010454",
      "countryId": 2264397,
      "countryCode": "PT",
      "stateCode": "PT-03",
      "latitude": 41.58825,
      "longitude": -8.26447
    },
    {
      "id": 8010455,
      "name": "Terras de Bouro Municipality",
      "nativeName": "Terras de Bouro",
      "code": "PT-03-8010455",
      "countryId": 2264397,
      "countryCode": "PT",
      "stateCode": "PT-03",
      "latitude": 41.73914,
      "longitude": -8.19109
    },
    {
      "id": 8010456,
      "name": "Vieira do Minho Municipality",
      "nativeName": "Vieira do Minho",
      "code": "PT-03-8010456",
      "countryId": 2264397,
      "countryCode": "PT",
      "stateCode": "PT-03",
      "latitude": 41.63557,
      "longitude": -8.13244
    },
    {
      "id": 8010457,
      "name": "Vila Nova de Famalicão Municipality",
      "nativeName": "Vila Nova de Famalicão",
      "code": "PT-03-8010457",
      "countryId": 2264397,
      "countryCode": "PT",
      "stateCode": "PT-03",
      "latitude": 41.41223,
      "longitude": -8.48511
    },
    {
      "id": 8010458,
      "name": "Vila Verde Municipality",
      "nativeName": "Vila Verde",
      "code": "PT-03-8010458",
      "countryId": 2264397,
      "countryCode": "PT",
      "stateCode": "PT-03",
      "latitude": 41.64869,
      "longitude": -8.43628
    },
    {
      "id": 8010459,
      "name": "Vizela",
      "nativeName": "Vizela",
      "code": "PT-03-8010459",
      "countryId": 2264397,
      "countryCode": "PT",
      "stateCode": "PT-03",
      "latitude": 41.37529,
      "longitude": -8.2931
    }
  ]
}