{
  "stateId": 2268337,
  "stateCode": "PT-08",
  "countryCode": "PT",
  "cities": [
    {
      "id": 8010512,
      "name": "Albufeira Municipality",
      "nativeName": "Albufeira",
      "code": "PT-08-8010512",
      "countryId": 2264397,
      "countryCode": "PT",
      "stateCode": "PT-08",
      "latitude": 37.08341,
      "longitude": -8.26139
    },
    {
      "id": 8010513,
      "name": "Alcoutim Municipality",
      "nativeName": "Alcoutim",
      "code": "PT-08-8010513",
      "countryId": 2264397,
      "countryCode": "PT",
      "stateCode": "PT-08",
      "latitude": 37.424,
      "longitude": -7.65456
    },
    {
      "id": 8010514,
      "name": "Aljezur Municipality",
      "nativeName": "Aljezur",
      "code": "PT-08-8010514",
      "countryId": 2264397,
      "countryCode": "PT",
      "stateCode": "PT-08",
      "latitude": 37.30856,
      "longitude": -8.80486
    },
    {
      "id": 8010515,
      "name": "Castro Marim Municipality",
      "nativeName": "Castro Marim",
      "code": "PT-08-8010515",
      "countryId": 2264397,
      "countryCode": "PT",
      "stateCode": "PT-08",
      "latitude": 37.25865,
      "longitude": -7.50732
    },
    {
      "id": 8010516,
      "name": "Faro",
      "nativeName": "Faro",
      "code": "PT-08-8010516",
      "countryId": 2264397,
      "countryCode": "PT",
      "stateCode": "PT-08",
      "latitude": 37.02508,
      "longitude": -7.92944
    },
    {
      "id": 8010517,
      "name": "Lagoa Municipality",
      "nativeName": "Lagoa",
      "code": "PT-08-8010517",
      "countryId": 2264397,
      "countryCode": "PT",
      "stateCode": "PT-08",
      "latitude": 37.10505,
      "longitude": -8.45974
    },
    {
      "id": 8010518,
      "name": "Lagos Municipality",
      "nativeName": "Lagos",
      "code": "PT-08-8010518",
      "countryId": 2264397,
      "countryCode": "PT",
      "stateCode": "PT-08",
      "latitude": 37.09567,
      "longitude": -8.67661
    },
    {
      "id": 8010519,
      "name": "Loulé Municipality",
      "nativeName": "Loulé",
      "code": "PT-08-8010519",
      "countryId": 2264397,
      "countryCode": "PT",
      "stateCode": "PT-08",
      "latitude": 37.14399,
      "longitude": -8.02345
    },
    {
      "id": 8010520,
      "name": "Monchique Municipality",
      "nativeName": "Monchique",
      "code": "PT-08-8010520",
      "countryId": 2264397,
      "countryCode": "PT",
      "stateCode": "PT-08",
      "latitude": 37.31664,
      "longitude": -8.5834
    },
    {
      "id": 8010521,
      "name": "Olhão Municipality",
      "nativeName": "Olhão",
      "code": "PT-08-8010521",
      "countryId": 2264397,
      "countryCode": "PT",
      "stateCode": "PT-08",
      "latitude": 37.04509,
      "longitude": -7.81032
    },
    {
      "id": 8010522,
      "name": "Portimão Municipality",
      "nativeName": "Portimão",
      "code": "PT-08-8010522",
      "countryId": 2264397,
      "countryCode": "PT",
      "stateCode": "PT-08",
      "latitude": 37.17544,
      "longitude": -8.5842
    },
    {
      "id": 8010524,
      "name": "Silves Municipality",
      "nativeName": "Silves",
      "code": "PT-08-8010524",
      "countryId": 2264397,
      "countryCode": "PT",
      "stateCode": "PT-08",
      "latitude": 37.20343,
      "longitude": -8.33472
    },
    {
      "id": 8010523,
      "name": "São Brás de Alportel Municipality",
      "nativeName": "São Brás de Alportel",
      "code": "PT-08-8010523",
      "countryId": 2264397,
      "countryCode": "PT",
      "stateCode": "PT-08",
      "latitude": 37.19564,
      "longitude": -7.87546
    },
    {
      "id": 8010525,
      "name": "Tavira Municipality",
      "nativeName": "Tavira",
      "code": "PT-08-8010525",
      "countryId": 2264397,
      "countryCode": "PT",
      "stateCode": "PT-08",
      "latitude": 37.13085,
      "longitude": -7.6506
    },
    {
      "id": 8010527,
      "name": "Vila Real de Santo António Municipality",
      "nativeName": "Vila Real de Santo António",
      "code": "PT-08-8010527",
      "countryId": 2264397,
      "countryCode": "PT",
      "stateCode": "PT-08",
      "latitude": 37.19232,
      "longitude": -7.42538
    },
    {
      "id": 8010526,
      "name": "Vila do Bispo Municipality",
      "nativeName": "Vila do Bispo",
      "code": "PT-08-8010526",
      "countryId": 2264397,
      "countryCode": "PT",
      "stateCode": "PT-08",
      "latitude": 37.08841,
      "longitude": -8.90785
    }
  ]
}