{
  "stateId": 2267094,
  "stateCode": "PT-10",
  "countryCode": "PT",
  "cities": [
    {
      "id": 8010541,
      "name": "Alcobaça Municipality",
      "nativeName": "Alcobaça",
      "code": "PT-10-8010541",
      "countryId": 2264397,
      "countryCode": "PT",
      "stateCode": "PT-10",
      "latitude": 39.55441,
      "longitude": -8.98833
    },
    {
      "id": 8010542,
      "name": "Alvaiázere Municipality",
      "nativeName": "Alvaiázere",
      "code": "PT-10-8010542",
      "countryId": 2264397,
      "countryCode": "PT",
      "stateCode": "PT-10",
      "latitude": 39.81951,
      "longitude": -8.38858
    },
    {
      "id": 8010543,
      "name": "Ansião Municipality",
      "nativeName": "Ansião",
      "code": "PT-10-8010543",
      "countryId": 2264397,
      "countryCode": "PT",
      "stateCode": "PT-10",
      "latitude": 39.93424,
      "longitude": -8.42045
    },
    {
      "id": 8010544,
      "name": "Batalha Municipality",
      "nativeName": "Batalha",
      "code": "PT-10-8010544",
      "countryId": 2264397,
      "countryCode": "PT",
      "stateCode": "PT-10",
      "latitude": 39.64784,
      "longitude": -8.78108
    },
    {
      "id": 8010545,
      "name": "Bombarral Municipality",
      "nativeName": "Bombarral",
      "code": "PT-10-8010545",
      "countryId": 2264397,
      "countryCode": "PT",
      "stateCode": "PT-10",
      "latitude": 39.28106,
      "longitude": -9.17002
    },
    {
      "id": 8010546,
      "name": "Caldas da Rainha Municipality",
      "nativeName": "Caldas da Rainha",
      "code": "PT-10-8010546",
      "countryId": 2264397,
      "countryCode": "PT",
      "stateCode": "PT-10",
      "latitude": 39.41226,
      "longitude": -9.13617
    },
    {
      "id": 8010547,
      "name": "Castanheira de Pera Municipality",
      "nativeName": "Castanheira de Pera",
      "code": "PT-10-8010547",
      "countryId": 2264397,
      "countryCode": "PT",
      "stateCode": "PT-10",
      "latitude": 40.03228,
      "longitude": -8.18889
    },
    {
      "id": 8010548,
      "name": "Figueiró dos Vinhos Municipality",
      "nativeName": "Figueiró Dos Vinhos",
      "code": "PT-10-8010548",
      "countryId": 2264397,
      "countryCode": "PT",
      "stateCode": "PT-10",
      "latitude": 39.90617,
      "longitude": -8.27753
    },
    {
      "id": 8010549,
      "name": "Leiria Municipality",
      "nativeName": "Leiria",
      "code": "PT-10-8010549",
      "countryId": 2264397,
      "countryCode": "PT",
      "stateCode": "PT-10",
      "latitude": 39.74644,
      "longitude": -8.80623
    },
    {
      "id": 8010550,
      "name": "Marinha Grande Municipality",
      "nativeName": "Marinha Grande",
      "code": "PT-10-8010550",
      "countryId": 2264397,
      "countryCode": "PT",
      "stateCode": "PT-10",
      "latitude": 39.77681,
      "longitude": -8.95005
    },
    {
      "id": 8010551,
      "name": "Nazaré Municipality",
      "nativeName": "Nazaré",
      "code": "PT-10-8010551",
      "countryId": 2264397,
      "countryCode": "PT",
      "stateCode": "PT-10",
      "latitude": 39.59965,
      "longitude": -9.07162
    },
    {
      "id": 8010553,
      "name": "Pedrógão Grande Municipality",
      "nativeName": "Pedrógão Grande",
      "code": "PT-10-8010553",
      "countryId": 2264397,
      "countryCode": "PT",
      "stateCode": "PT-10",
      "latitude": 39.92682,
      "longitude": -8.20093
    },
    {
      "id": 8010554,
      "name": "Peniche Municipality",
      "nativeName": "Peniche",
      "code": "PT-10-8010554",
      "countryId": 2264397,
      "countryCode": "PT",
      "stateCode": "PT-10",
      "latitude": 39.36166,
      "longitude": -9.36869
    },
    {
      "id": 8010555,
      "name": "Pombal Municipality",
      "nativeName": "Pombal",
      "code": "PT-10-8010555",
      "countryId": 2264397,
      "countryCode": "PT",
      "stateCode": "PT-10",
      "latitude": 39.90735,
      "longitude": -8.66949
    },
    {
      "id": 8010556,
      "name": "Porto de Mós Municipality",
      "nativeName": "Porto de Mós",
      "code": "PT-10-8010556",
      "countryId": 2264397,
      "countryCode": "PT",
      "stateCode": "PT-10",
      "latitude": 39.60547,
      "longitude": -8.81893
    },
    {
      "id": 8010552,
      "name": "Óbidos Municipality",
      "nativeName": "Óbidos",
      "code": "PT-10-8010552",
      "countryId": 2264397,
      "countryCode": "PT",
      "stateCode": "PT-10",
      "latitude": 39.36194,
      "longitude": -9.15714
    }
  ]
}