{
  "stateId": 2658821,
  "stateCode": "CH-SG",
  "countryCode": "CH",
  "cities": [
    {
      "id": 7285000,
      "name": "Wahlkreis Rheintal",
      "nativeName": "Wahlkreis Rheintal",
      "code": "CH-SG-7285000",
      "countryId": 2658434,
      "countryCode": "CH",
      "stateCode": "CH-SG",
      "latitude": 47.37769,
      "longitude": 9.57903
    },
    {
      "id": 6458838,
      "name": "Wahlkreis Rorschach",
      "nativeName": "Wahlkreis Rorschach",
      "code": "CH-SG-6458838",
      "countryId": 2658434,
      "countryCode": "CH",
      "stateCode": "CH-SG",
      "latitude": 47.46647,
      "longitude": 9.44246
    },
    {
      "id": 2658792,
      "name": "Wahlkreis Sarganserland",
      "nativeName": "Wahlkreis Sarganserland",
      "code": "CH-SG-2658792",
      "countryId": 2658434,
      "countryCode": "CH",
      "stateCode": "CH-SG",
      "latitude": 47.05,
      "longitude": 9.43333
    },
    {
      "id": 7285010,
      "name": "Wahlkreis See-Gaster",
      "nativeName": "Wahlkreis See-Gaster",
      "code": "CH-SG-7285010",
      "countryId": 2658434,
      "countryCode": "CH",
      "stateCode": "CH-SG",
      "latitude": 47.22459,
      "longitude": 9.0168
    },
    {
      "id": 6458770,
      "name": "Wahlkreis St. Gallen",
      "nativeName": "Wahlkreis St. Gallen",
      "code": "CH-SG-6458770",
      "countryId": 2658434,
      "countryCode": "CH",
      "stateCode": "CH-SG",
      "latitude": 47.46342,
      "longitude": 9.39052
    },
    {
      "id": 7285001,
      "name": "Wahlkreis Toggenburg",
      "nativeName": "Wahlkreis Toggenburg",
      "code": "CH-SG-7285001",
      "countryId": 2658434,
      "countryCode": "CH",
      "stateCode": "CH-SG",
      "latitude": 47.29453,
      "longitude": 9.17283
    },
    {
      "id": 6458880,
      "name": "Wahlkreis Werdenberg",
      "nativeName": "Wahlkreis Werdenberg",
      "code": "CH-SG-6458880",
      "countryId": 2658434,
      "countryCode": "CH",
      "stateCode": "CH-SG",
      "latitude": 47.17743,
      "longitude": 9.46299
    },
    {
      "id": 6458840,
      "name": "Wahlkreis Wil",
      "nativeName": "Wahlkreis Wil",
      "code": "CH-SG-6458840",
      "countryId": 2658434,
      "countryCode": "CH",
      "stateCode": "CH-SG",
      "latitude": 47.42591,
      "longitude": 9.12451
    }
  ]
}