{
  "stateId": 7090954,
  "stateCode": "BH-13",
  "countryCode": "BH",
  "cities": [
    {
      "id": 290340,
      "name": "Manama",
      "nativeName": "Manama",
      "code": "BH-13-290340",
      "countryId": 290291,
      "countryCode": "BH",
      "stateCode": "BH-13",
      "latitude": 26.22787,
      "longitude": 50.58565
    },
    {
      "id": 290395,
      "name": "Abū Bahām",
      "nativeName": "Abū Bahām",
      "code": "BH-13-290395",
      "countryId": 290291,
      "countryCode": "BH",
      "stateCode": "BH-13",
      "latitude": 26.2075,
      "longitude": 50.54417
    },
    {
      "id": 290356,
      "name": "Al Hujayr",
      "nativeName": "Al Hujayr",
      "code": "BH-13-290356",
      "countryId": 290291,
      "countryCode": "BH",
      "stateCode": "BH-13",
      "latitude": 26.18333,
      "longitude": 50.55
    },
    {
      "id": 290348,
      "name": "Al Jubaylāt",
      "nativeName": "Al Jubaylāt",
      "code": "BH-13-290348",
      "countryId": 290291,
      "countryCode": "BH",
      "stateCode": "BH-13",
      "latitude": 26.18194,
      "longitude": 50.55333
    },
    {
      "id": 290346,
      "name": "Al Khārijīyah",
      "nativeName": "Al Khārijīyah",
      "code": "BH-13-290346",
      "countryId": 290291,
      "countryCode": "BH",
      "stateCode": "BH-13",
      "latitude": 26.16361,
      "longitude": 50.60472
    },
    {
      "id": 290328,
      "name": "Al Muwaylighah",
      "nativeName": "Al Muwaylighah",
      "code": "BH-13-290328",
      "countryId": 290291,
      "countryCode": "BH",
      "stateCode": "BH-13",
      "latitude": 26.20667,
      "longitude": 50.55889
    },
    {
      "id": 290324,
      "name": "Al Qaryah",
      "nativeName": "Al Qaryah",
      "code": "BH-13-290324",
      "countryId": 290291,
      "countryCode": "BH",
      "stateCode": "BH-13",
      "latitude": 26.18278,
      "longitude": 50.58361
    },
    {
      "id": 290325,
      "name": "Al Qaryah",
      "nativeName": "Al Qaryah",
      "code": "BH-13-290325",
      "countryId": 290291,
      "countryCode": "BH",
      "stateCode": "BH-13",
      "latitude": 26.17222,
      "longitude": 50.61056
    },
    {
      "id": 290376,
      "name": "Al ‘Akr",
      "nativeName": "Al ‘Akr",
      "code": "BH-13-290376",
      "countryId": 290291,
      "countryCode": "BH",
      "stateCode": "BH-13",
      "latitude": 26.14306,
      "longitude": 50.61028
    },
    {
      "id": 290229,
      "name": "Jamālah",
      "nativeName": "Jamālah",
      "code": "BH-13-290229",
      "countryId": 290291,
      "countryCode": "BH",
      "stateCode": "BH-13",
      "latitude": 26.2,
      "longitude": 50.55
    },
    {
      "id": 290215,
      "name": "Jidd Ḩafş",
      "nativeName": "Jidd Ḩafş",
      "code": "BH-13-290215",
      "countryId": 290291,
      "countryCode": "BH",
      "stateCode": "BH-13",
      "latitude": 26.21861,
      "longitude": 50.54778
    },
    {
      "id": 290217,
      "name": "Jidd ‘Alī",
      "nativeName": "Jidd ‘Alī",
      "code": "BH-13-290217",
      "countryId": 290291,
      "countryCode": "BH",
      "stateCode": "BH-13",
      "latitude": 26.17917,
      "longitude": 50.56028
    },
    {
      "id": 290212,
      "name": "Jurdāb",
      "nativeName": "Jurdāb",
      "code": "BH-13-290212",
      "countryId": 290291,
      "countryCode": "BH",
      "stateCode": "BH-13",
      "latitude": 26.16944,
      "longitude": 50.57528
    },
    {
      "id": 290204,
      "name": "Karbābād",
      "nativeName": "Karbābād",
      "code": "BH-13-290204",
      "countryId": 290291,
      "countryCode": "BH",
      "stateCode": "BH-13",
      "latitude": 26.23028,
      "longitude": 50.52944
    },
    {
      "id": 290198,
      "name": "Kawrah",
      "nativeName": "Kawrah",
      "code": "BH-13-290198",
      "countryId": 290291,
      "countryCode": "BH",
      "stateCode": "BH-13",
      "latitude": 26.18333,
      "longitude": 50.56667
    },
    {
      "id": 290331,
      "name": "Magsha",
      "nativeName": "Magsha",
      "code": "BH-13-290331",
      "countryId": 290291,
      "countryCode": "BH",
      "stateCode": "BH-13",
      "latitude": 26,
      "longitude": 40
    },
    {
      "id": 290186,
      "name": "Mahazzah",
      "nativeName": "Mahazzah",
      "code": "BH-13-290186",
      "countryId": 290291,
      "countryCode": "BH",
      "stateCode": "BH-13",
      "latitude": 26.16944,
      "longitude": 50.62611
    },
    {
      "id": 290179,
      "name": "Manī",
      "nativeName": "Manī",
      "code": "BH-13-290179",
      "countryId": 290291,
      "countryCode": "BH",
      "stateCode": "BH-13",
      "latitude": 26.21667,
      "longitude": 50.55
    },
    {
      "id": 290176,
      "name": "Marqūbān",
      "nativeName": "Marqūbān",
      "code": "BH-13-290176",
      "countryId": 290291,
      "countryCode": "BH",
      "stateCode": "BH-13",
      "latitude": 26.16417,
      "longitude": 50.61833
    },
    {
      "id": 290120,
      "name": "Sanad",
      "nativeName": "Sanad",
      "code": "BH-13-290120",
      "countryId": 290291,
      "countryCode": "BH",
      "stateCode": "BH-13",
      "latitude": 26.15028,
      "longitude": 50.58194
    },
    {
      "id": 290121,
      "name": "Sanābis",
      "nativeName": "Sanābis",
      "code": "BH-13-290121",
      "countryId": 290291,
      "countryCode": "BH",
      "stateCode": "BH-13",
      "latitude": 26.22722,
      "longitude": 50.55083
    },
    {
      "id": 8643013,
      "name": "Seef",
      "nativeName": "Seef",
      "code": "BH-13-8643013",
      "countryId": 290291,
      "countryCode": "BH",
      "stateCode": "BH-13",
      "latitude": 26.23967,
      "longitude": 50.53685
    },
    {
      "id": 290104,
      "name": "Sitrah",
      "nativeName": "Sitrah",
      "code": "BH-13-290104",
      "countryId": 290291,
      "countryCode": "BH",
      "stateCode": "BH-13",
      "latitude": 26.15472,
      "longitude": 50.62056
    },
    {
      "id": 290101,
      "name": "Sufala",
      "nativeName": "Sufālah",
      "code": "BH-13-290101",
      "countryId": 290291,
      "countryCode": "BH",
      "stateCode": "BH-13",
      "latitude": 26.16278,
      "longitude": 50.62556
    },
    {
      "id": 290091,
      "name": "Tūblī",
      "nativeName": "Tūblī",
      "code": "BH-13-290091",
      "countryId": 290291,
      "countryCode": "BH",
      "stateCode": "BH-13",
      "latitude": 26.18694,
      "longitude": 50.54944
    },
    {
      "id": 290073,
      "name": "Wādiyān",
      "nativeName": "Wādiyān",
      "code": "BH-13-290073",
      "countryId": 290291,
      "countryCode": "BH",
      "stateCode": "BH-13",
      "latitude": 26.15917,
      "longitude": 50.61111
    },
    {
      "id": 290255,
      "name": "Ḩālah",
      "nativeName": "Ḩālah",
      "code": "BH-13-290255",
      "countryId": 290291,
      "countryCode": "BH",
      "stateCode": "BH-13",
      "latitude": 26.17333,
      "longitude": 50.62139
    }
  ]
}