{
  "stateId": 3373554,
  "stateCode": "BB-09",
  "countryCode": "BB",
  "cities": [
    {
      "id": 3373505,
      "name": "Speightstown",
      "nativeName": "Speightstown",
      "code": "BB-09-3373505",
      "countryId": 3374084,
      "countryCode": "BB",
      "stateCode": "BB-09",
      "latitude": 13.25072,
      "longitude": -59.64396
    },
    {
      "id": 3374093,
      "name": "Ashton Hall",
      "nativeName": "Ashton Hall",
      "code": "BB-09-3374093",
      "countryId": 3374084,
      "countryCode": "BB",
      "stateCode": "BB-09",
      "latitude": 13.25956,
      "longitude": -59.63304
    },
    {
      "id": 3374088,
      "name": "Bakers",
      "nativeName": "Bakers",
      "code": "BB-09-3374088",
      "countryId": 3374084,
      "countryCode": "BB",
      "stateCode": "BB-09",
      "latitude": 13.23754,
      "longitude": -59.62325
    },
    {
      "id": 3374045,
      "name": "Boscobelle",
      "nativeName": "Boscobelle",
      "code": "BB-09-3374045",
      "countryId": 3374084,
      "countryCode": "BB",
      "stateCode": "BB-09",
      "latitude": 13.28775,
      "longitude": -59.57918
    },
    {
      "id": 3374009,
      "name": "Castle",
      "nativeName": "Castle",
      "code": "BB-09-3374009",
      "countryId": 3374084,
      "countryCode": "BB",
      "stateCode": "BB-09",
      "latitude": 13.28441,
      "longitude": -59.59712
    },
    {
      "id": 3373962,
      "name": "Colleton",
      "nativeName": "Colleton",
      "code": "BB-09-3373962",
      "countryId": 3374084,
      "countryCode": "BB",
      "stateCode": "BB-09",
      "latitude": 13.27595,
      "longitude": -59.63885
    },
    {
      "id": 3373961,
      "name": "Collins",
      "nativeName": "Collins",
      "code": "BB-09-3373961",
      "countryId": 3374084,
      "countryCode": "BB",
      "stateCode": "BB-09",
      "latitude": 13.29049,
      "longitude": -59.58345
    },
    {
      "id": 3373930,
      "name": "Diamond Corner",
      "nativeName": "Diamond Corner",
      "code": "BB-09-3373930",
      "countryId": 3374084,
      "countryCode": "BB",
      "stateCode": "BB-09",
      "latitude": 13.27718,
      "longitude": -59.59932
    },
    {
      "id": 3373902,
      "name": "Ellis Castle",
      "nativeName": "Ellis Castle",
      "code": "BB-09-3373902",
      "countryId": 3374084,
      "countryCode": "BB",
      "stateCode": "BB-09",
      "latitude": 13.28454,
      "longitude": -59.59216
    },
    {
      "id": 3373889,
      "name": "Farm Road",
      "nativeName": "Farm Road",
      "code": "BB-09-3373889",
      "countryId": 3374084,
      "countryCode": "BB",
      "stateCode": "BB-09",
      "latitude": 13.24947,
      "longitude": -59.63952
    },
    {
      "id": 3373875,
      "name": "Four Winds",
      "nativeName": "Four Winds",
      "code": "BB-09-3373875",
      "countryId": 3374084,
      "countryCode": "BB",
      "stateCode": "BB-09",
      "latitude": 13.23106,
      "longitude": -59.64214
    },
    {
      "id": 3373872,
      "name": "French",
      "nativeName": "French",
      "code": "BB-09-3373872",
      "countryId": 3374084,
      "countryCode": "BB",
      "stateCode": "BB-09",
      "latitude": 13.26254,
      "longitude": -59.60639
    },
    {
      "id": 3373861,
      "name": "Gays",
      "nativeName": "Gays",
      "code": "BB-09-3373861",
      "countryId": 3374084,
      "countryCode": "BB",
      "stateCode": "BB-09",
      "latitude": 13.28353,
      "longitude": -59.58517
    },
    {
      "id": 3373857,
      "name": "Gibbs",
      "nativeName": "Gibbs",
      "code": "BB-09-3373857",
      "countryId": 3374084,
      "countryCode": "BB",
      "stateCode": "BB-09",
      "latitude": 13.2281,
      "longitude": -59.64199
    },
    {
      "id": 3373804,
      "name": "Haymans Factory",
      "nativeName": "Haymans Factory",
      "code": "BB-09-3373804",
      "countryId": 3374084,
      "countryCode": "BB",
      "stateCode": "BB-09",
      "latitude": 13.24243,
      "longitude": -59.6285
    },
    {
      "id": 3373799,
      "name": "Heywoods",
      "nativeName": "Heywoods",
      "code": "BB-09-3373799",
      "countryId": 3374084,
      "countryCode": "BB",
      "stateCode": "BB-09",
      "latitude": 13.25725,
      "longitude": -59.64176
    },
    {
      "id": 3373730,
      "name": "Litchfield",
      "nativeName": "Litchfield",
      "code": "BB-09-3373730",
      "countryId": 3374084,
      "countryCode": "BB",
      "stateCode": "BB-09",
      "latitude": 13.25315,
      "longitude": -59.6383
    },
    {
      "id": 3373729,
      "name": "Little Battaleys",
      "nativeName": "Little Battaleys",
      "code": "BB-09-3373729",
      "countryId": 3374084,
      "countryCode": "BB",
      "stateCode": "BB-09",
      "latitude": 13.23976,
      "longitude": -59.64181
    },
    {
      "id": 3373694,
      "name": "Maynards",
      "nativeName": "Maynards",
      "code": "BB-09-3373694",
      "countryId": 3374084,
      "countryCode": "BB",
      "stateCode": "BB-09",
      "latitude": 13.26509,
      "longitude": -59.63686
    },
    {
      "id": 3373689,
      "name": "Mile and a Quarter",
      "nativeName": "Mile and a Quarter",
      "code": "BB-09-3373689",
      "countryId": 3374084,
      "countryCode": "BB",
      "stateCode": "BB-09",
      "latitude": 13.26597,
      "longitude": -59.62207
    },
    {
      "id": 3373684,
      "name": "Moore Hill",
      "nativeName": "Moore Hill",
      "code": "BB-09-3373684",
      "countryId": 3374084,
      "countryCode": "BB",
      "stateCode": "BB-09",
      "latitude": 13.2767,
      "longitude": -59.59455
    },
    {
      "id": 3373682,
      "name": "Morgan Lewis",
      "nativeName": "Morgan Lewis",
      "code": "BB-09-3373682",
      "countryId": 3374084,
      "countryCode": "BB",
      "stateCode": "BB-09",
      "latitude": 13.2691,
      "longitude": -59.57489
    },
    {
      "id": 3373678,
      "name": "Mount Brevitor",
      "nativeName": "Mount Brevitor",
      "code": "BB-09-3373678",
      "countryId": 3374084,
      "countryCode": "BB",
      "stateCode": "BB-09",
      "latitude": 13.26572,
      "longitude": -59.6169
    },
    {
      "id": 3373671,
      "name": "Mount Stepney",
      "nativeName": "Mount Stepney",
      "code": "BB-09-3373671",
      "countryId": 3374084,
      "countryCode": "BB",
      "stateCode": "BB-09",
      "latitude": 13.27773,
      "longitude": -59.58319
    },
    {
      "id": 3373668,
      "name": "Mullins",
      "nativeName": "Mullins",
      "code": "BB-09-3373668",
      "countryId": 3374084,
      "countryCode": "BB",
      "stateCode": "BB-09",
      "latitude": 13.23579,
      "longitude": -59.64289
    },
    {
      "id": 3373643,
      "name": "Oxford",
      "nativeName": "Oxford",
      "code": "BB-09-3373643",
      "countryId": 3374084,
      "countryCode": "BB",
      "stateCode": "BB-09",
      "latitude": 13.28377,
      "longitude": -59.61203
    },
    {
      "id": 3373620,
      "name": "Portland",
      "nativeName": "Portland",
      "code": "BB-09-3373620",
      "countryId": 3374084,
      "countryCode": "BB",
      "stateCode": "BB-09",
      "latitude": 13.27272,
      "longitude": -59.60368
    },
    {
      "id": 3373616,
      "name": "Prospect",
      "nativeName": "Prospect",
      "code": "BB-09-3373616",
      "countryId": 3374084,
      "countryCode": "BB",
      "stateCode": "BB-09",
      "latitude": 13.25987,
      "longitude": -59.59789
    },
    {
      "id": 3373605,
      "name": "Retreat",
      "nativeName": "Retreat",
      "code": "BB-09-3373605",
      "countryId": 3374084,
      "countryCode": "BB",
      "stateCode": "BB-09",
      "latitude": 13.2652,
      "longitude": -59.63334
    },
    {
      "id": 3373592,
      "name": "Rock Hall",
      "nativeName": "Rock Hall",
      "code": "BB-09-3373592",
      "countryId": 3374084,
      "countryCode": "BB",
      "stateCode": "BB-09",
      "latitude": 13.23786,
      "longitude": -59.59965
    },
    {
      "id": 11893976,
      "name": "Roebuck",
      "nativeName": "Roebuck",
      "code": "BB-09-11893976",
      "countryId": 3374084,
      "countryCode": "BB",
      "stateCode": "BB-09",
      "latitude": 13.2479,
      "longitude": -59.59912
    },
    {
      "id": 3373587,
      "name": "Rose Hill",
      "nativeName": "Rose Hill",
      "code": "BB-09-3373587",
      "countryId": 3374084,
      "countryCode": "BB",
      "stateCode": "BB-09",
      "latitude": 13.27137,
      "longitude": -59.62062
    },
    {
      "id": 3373556,
      "name": "Saint Nicholas",
      "nativeName": "Saint Nicholas",
      "code": "BB-09-3373556",
      "countryId": 3374084,
      "countryCode": "BB",
      "stateCode": "BB-09",
      "latitude": 13.27801,
      "longitude": -59.58939
    },
    {
      "id": 3373528,
      "name": "Sedge Pond",
      "nativeName": "Sedge Pond",
      "code": "BB-09-3373528",
      "countryId": 3374084,
      "countryCode": "BB",
      "stateCode": "BB-09",
      "latitude": 13.24264,
      "longitude": -59.5951
    },
    {
      "id": 3373516,
      "name": "Sion Hill",
      "nativeName": "Sion Hill",
      "code": "BB-09-3373516",
      "countryId": 3374084,
      "countryCode": "BB",
      "stateCode": "BB-09",
      "latitude": 13.22685,
      "longitude": -59.6192
    },
    {
      "id": 3373514,
      "name": "Six Mens",
      "nativeName": "Six Mens",
      "code": "BB-09-3373514",
      "countryId": 3374084,
      "countryCode": "BB",
      "stateCode": "BB-09",
      "latitude": 13.26788,
      "longitude": -59.64313
    },
    {
      "id": 3373478,
      "name": "The Baltic",
      "nativeName": "The Baltic",
      "code": "BB-09-3373478",
      "countryId": 3374084,
      "countryCode": "BB",
      "stateCode": "BB-09",
      "latitude": 13.28805,
      "longitude": -59.58346
    },
    {
      "id": 3373473,
      "name": "The Risk",
      "nativeName": "The Risk",
      "code": "BB-09-3373473",
      "countryId": 3374084,
      "countryCode": "BB",
      "stateCode": "BB-09",
      "latitude": 13.29203,
      "longitude": -59.57729
    },
    {
      "id": 11893968,
      "name": "The Rock",
      "nativeName": "The Rock",
      "code": "BB-09-11893968",
      "countryId": 3374084,
      "countryCode": "BB",
      "stateCode": "BB-09",
      "latitude": 13.25197,
      "longitude": -59.6195
    },
    {
      "id": 3373471,
      "name": "The Whim",
      "nativeName": "The Whim",
      "code": "BB-09-3373471",
      "countryId": 3374084,
      "countryCode": "BB",
      "stateCode": "BB-09",
      "latitude": 13.25226,
      "longitude": -59.62954
    },
    {
      "id": 3373437,
      "name": "Warleigh",
      "nativeName": "Warleigh",
      "code": "BB-09-3373437",
      "countryId": 3374084,
      "countryCode": "BB",
      "stateCode": "BB-09",
      "latitude": 13.24759,
      "longitude": -59.62804
    },
    {
      "id": 3373427,
      "name": "Welchtown",
      "nativeName": "Welchtown",
      "code": "BB-09-3373427",
      "countryId": 3374084,
      "countryCode": "BB",
      "stateCode": "BB-09",
      "latitude": 13.26829,
      "longitude": -59.59682
    },
    {
      "id": 3374064,
      "name": "Benny Hall",
      "nativeName": "Benny Hall",
      "code": "BB-09-3374064",
      "countryId": 3374084,
      "countryCode": "BB",
      "stateCode": "BB-09",
      "latitude": 13.26829,
      "longitude": -59.60123
    },
    {
      "id": 3373910,
      "name": "Ebworth",
      "nativeName": "Ebworth",
      "code": "BB-09-3373910",
      "countryId": 3374084,
      "countryCode": "BB",
      "stateCode": "BB-09",
      "latitude": 13.27057,
      "longitude": -59.61847
    },
    {
      "id": 3373646,
      "name": "Orange Hill",
      "nativeName": "Orange Hill",
      "code": "BB-09-3373646",
      "countryId": 3374084,
      "countryCode": "BB",
      "stateCode": "BB-09",
      "latitude": 13.25131,
      "longitude": -59.60482
    },
    {
      "id": 3373421,
      "name": "White Hall",
      "nativeName": "White Hall",
      "code": "BB-09-3373421",
      "countryId": 3374084,
      "countryCode": "BB",
      "stateCode": "BB-09",
      "latitude": 13.25173,
      "longitude": -59.62263
    }
  ]
}